[
{"name": "Farmland Elementary", "street": "7000 Old Gate Road", "city": "Rockville", "zip": "20852", "state": "MD", "lat": 39.047562, "long": -77.145554, "districtID": 16, "districtName": "Montgomery County Public Schools", "gradeLevels": "PK-5", "ratingScale": "Above average", "enrollment": 830, "schoolType": "public", "pctLowIncome": "7%", "overallRating": 9},
{"name": "Tilden Middle School", "street": "11211 Old Georgetown Road", "city": "Rockville", "zip": "20852", "state": "MD", "lat": 39.038082, "long": -77.122169, "districtID": 16, "districtName": "Montgomery County Public Schools", "gradeLevels": "6-8", "ratingScale": "Above average", "enrollment": 989, "schoolType": "public", "pctLowIncome": "13%", "overallRating": 7},
{"name": "Richard Montgomery High", "street": "250 Richard Montgomery Drive", "city": "Rockville", "zip": "20852", "state": "MD", "lat": 39.078392, "long": -77.146751, "districtID": 16, "districtName": "Montgomery County Public Schools", "gradeLevels": "9-12", "ratingScale": "Average", "enrollment": 2483, "schoolType": "public", "pctLowIncome": "20%", "overallRating": 5},
{"name": "Green Acres School", "street": "11701 Danville Drive", "city": "Rockville", "zip": "20852", "state": "MD", "lat": 39.049011, "long": -77.129761, "districtID": 0, "districtName": null, "gradeLevels": "PK-8", "ratingScale": null, "enrollment": 298, "schoolType": "private", "pctLowIncome": "?", "overallRating": null},
{"name": "Georgetown Preparatory School", "street": "10900 Rockville Pike", "city": "North Bethesda", "zip": "20852", "state": "MD", "lat": 39.032745, "long": -77.111107, "districtID": 0, "districtName": null, "gradeLevels": "9-12", "ratingScale": null, "enrollment": 487, "schoolType": "private", "pctLowIncome": "?", "overallRating": null},
{"name": "St Elizabeth Catholic School", "street": "917 Montrose Road", "city": "Rockville", "zip": "20852", "state": "MD", "lat": 39.054893, "long": -77.135788, "districtID": 0, "districtName": null, "gradeLevels": "PK-8", "ratingScale": null, "enrollment": 568, "schoolType": "private", "pctLowIncome": "?", "overallRating": null},
{"name": "Charles E Smith Jewish Day School", "street": "1901 E Jefferson St", "city": "Rockville", "zip": "20852", "state": "MD", "lat": 39.055996, "long": -77.126175, "districtID": 0, "districtName": null, "gradeLevels": "K-12", "ratingScale": null, "enrollment": 0, "schoolType": "private", "pctLowIncome": "?", "overallRating": null},
{"name": "Executive Child Development Center", "street": "6006 Executive Boulevard", "city": "Rockville", "zip": "20852", "state": "MD", "lat": 39.048489, "long": -77.122101, "districtID": 0, "districtName": null, "gradeLevels": "PK-K", "ratingScale": null, "enrollment": 178, "schoolType": "private", "pctLowIncome": "?", "overallRating": null},
{"name": "The Lourie Center School Of The Reginald S. Lourie", "street": "12301 Academy Way", "city": "Rockville", "zip": "20852", "state": "MD", "lat": 39.056973, "long": -77.107216, "districtID": 0, "districtName": null, "gradeLevels": "PK-5", "ratingScale": null, "enrollment": 27, "schoolType": "private", "pctLowIncome": "?", "overallRating": null},
{"name": "Blue Man Creativity Child Care Center", "street": "434 Lafayette Street", "city": "New York", "zip": "10003", "state": "NY", "lat": 40.729343, "long": -73.992241, "districtID": 0, "districtName": null, "gradeLevels": "PK", "ratingScale": null, "enrollment": 0, "schoolType": "private", "pctLowIncome": "?", "overallRating": null},
{"name": "Foundation Schools", "street": "6000 Executive Blvd", "city": "Rockville", "zip": "20852", "state": "MD", "lat": 39.04808, "long": -77.120583, "districtID": 0, "districtName": null, "gradeLevels": "1-12", "ratingScale": null, "enrollment": 0, "schoolType": "private", "pctLowIncome": "?", "overallRating": null},
{"name": "14th St Y Pre-School", "street": "344 East 14th Street", "city": "New York", "zip": "10003", "state": "NY", "lat": 40.731392, "long": -73.983337, "districtID": 0, "districtName": null, "gradeLevels": "PK", "ratingScale": null, "enrollment": 0, "schoolType": "private", "pctLowIncome": "?", "overallRating": null},
{"name": "Bank Street College Child Care Center", "street": "113 East 13th Street", "city": "New York", "zip": "10003", "state": "NY", "lat": 40.733395, "long": -73.98896, "districtID": 0, "districtName": null, "gradeLevels": "PK", "ratingScale": null, "enrollment": 0, "schoolType": "private", "pctLowIncome": "?", "overallRating": null},
{"name": "Grafton School", "street": "11710 Hunters Lane", "city": "Rockville", "zip": "20852", "state": "MD", "lat": 39.048199, "long": -77.098999, "districtID": 0, "districtName": null, "gradeLevels": "Ungraded", "ratingScale": null, "enrollment": 0, "schoolType": "private", "pctLowIncome": "?", "overallRating": null},
{"name": "Summer's Place Nyc Day Care", "street": "15 Washington Place", "city": "New York", "zip": "10003", "state": "NY", "lat": 40.729801, "long": -73.99485, "districtID": 0, "districtName": null, "gradeLevels": "PK", "ratingScale": null, "enrollment": 0, "schoolType": "private", "pctLowIncome": "?", "overallRating": null},
{"name": "La Salle Academy", "street": "215 East 6th Street", "city": "New York", "zip": "10003", "state": "NY", "lat": 40.728237, "long": -73.990005, "districtID": 0, "districtName": null, "gradeLevels": "9-12", "ratingScale": null, "enrollment": 336, "schoolType": "private", "pctLowIncome": "?", "overallRating": null},
{"name": "Georgetown Hill Early Childhood School At Nrc", "street": "11545 Rockville Pike", "city": "Rockville", "zip": "20852", "state": "MD", "lat": 39.046173, "long": -77.111336, "districtID": 0, "districtName": null, "gradeLevels": "PK-K", "ratingScale": null, "enrollment": 44, "schoolType": "private", "pctLowIncome": "?", "overallRating": null},
{"name": "Friends Seminary", "street": "222 East 16th Street", "city": "New York", "zip": "10003", "state": "NY", "lat": 40.734257, "long": -73.985435, "districtID": 0, "districtName": null, "gradeLevels": "K-12", "ratingScale": null, "enrollment": 770, "schoolType": "private", "pctLowIncome": "?", "overallRating": null},
{"name": "Grace Church School", "street": "86 4th Avenue", "city": "New York", "zip": "10003", "state": "NY", "lat": 40.731892, "long": -73.990509, "districtID": 0, "districtName": null, "gradeLevels": "PK-8", "ratingScale": null, "enrollment": 727, "schoolType": "private", "pctLowIncome": "?", "overallRating": null},
{"name": "Ganon Gil Preschool", "street": "6125 Montrose Road", "city": "Rockville", "zip": "20852", "state": "MD", "lat": 39.053291, "long": -77.124626, "districtID": 0, "districtName": null, "gradeLevels": "PK-K", "ratingScale": null, "enrollment": 80, "schoolType": "private", "pctLowIncome": "?", "overallRating": null},
{"name": "White Flint Children's House", "street": "11810 Parklawn Drive", "city": "Rockville", "zip": "20852", "state": "MD", "lat": 39.049187, "long": -77.103104, "districtID": 0, "districtName": null, "gradeLevels": "PK-K", "ratingScale": null, "enrollment": 70, "schoolType": "private", "pctLowIncome": "?", "overallRating": null},
{"name": "PS 226", "street": "345 East 15th Street", "city": "New York", "zip": "10003", "state": "NY", "lat": 40.732689, "long": -73.98259, "districtID": 857, "districtName": "NYC Special Schools - District 75", "gradeLevels": "PK-3, 5, 7-12 & Ungraded", "ratingScale": null, "enrollment": 294, "schoolType": "public", "pctLowIncome": "84%", "overallRating": null},
{"name": "St George Academy", "street": "215 East 6th Street", "city": "New York", "zip": "10003", "state": "NY", "lat": 40.728237, "long": -73.990005, "districtID": 0, "districtName": null, "gradeLevels": "9-12", "ratingScale": null, "enrollment": 45, "schoolType": "private", "pctLowIncome": "?", "overallRating": null},
{"name": "King David Pre-School", "street": "200 Rollins Avenue", "city": "Rockville", "zip": "20852", "state": "MD", "lat": 39.058228, "long": -77.126686, "districtID": 0, "districtName": null, "gradeLevels": "PK", "ratingScale": null, "enrollment": 0, "schoolType": "private", "pctLowIncome": "?", "overallRating": null},
{"name": "St George Elementary School", "street": "215 East 6th Street", "city": "New York", "zip": "10003", "state": "NY", "lat": 40.728237, "long": -73.990005, "districtID": 0, "districtName": null, "gradeLevels": "PK-8", "ratingScale": null, "enrollment": 47, "schoolType": "private", "pctLowIncome": "?", "overallRating": null},
{"name": "Alef Bet Montessori School", "street": "11418 Old Georgetown Road", "city": "Rockville", "zip": "20852", "state": "MD", "lat": 39.044662, "long": -77.120781, "districtID": 0, "districtName": null, "gradeLevels": "PK-K", "ratingScale": null, "enrollment": 48, "schoolType": "private", "pctLowIncome": "?", "overallRating": null},
{"name": "Wintergreen Child Development Center", "street": "332 West Edmonston Drive", "city": "Rockville", "zip": "20852", "state": "MD", "lat": 39.07021, "long": -77.145012, "districtID": 0, "districtName": null, "gradeLevels": "PK", "ratingScale": null, "enrollment": 0, "schoolType": "private", "pctLowIncome": "?", "overallRating": null},
{"name": "The Diener School", "street": "11701 Danville Drive", "city": "North Bethesda", "zip": "20852", "state": "MD", "lat": 39.0494, "long": -77.129211, "districtID": 0, "districtName": null, "gradeLevels": "K-6", "ratingScale": null, "enrollment": 41, "schoolType": "private", "pctLowIncome": "?", "overallRating": null},
{"name": "Family Infant & Child Care Center", "street": "332 West Edmonston Drive", "city": "Rockville", "zip": "20852", "state": "MD", "lat": 39.07021, "long": -77.145012, "districtID": 0, "districtName": null, "gradeLevels": "PK", "ratingScale": null, "enrollment": 0, "schoolType": "private", "pctLowIncome": "?", "overallRating": null},
{"name": "Montrose Discovery", "street": "451 Congressional Lane", "city": "Rockville", "zip": "20852", "state": "MD", "lat": 39.06036, "long": -77.130592, "districtID": 0, "districtName": null, "gradeLevels": "PK", "ratingScale": null, "enrollment": 0, "schoolType": "private", "pctLowIncome": "?", "overallRating": null},
{"name": "Kids After Hours Farmland Es", "street": "7000 Old Gate Road", "city": "Rockville", "zip": "20852", "state": "MD", "lat": 39.047218, "long": -77.14502, "districtID": 0, "districtName": null, "gradeLevels": "PK", "ratingScale": null, "enrollment": 0, "schoolType": "private", "pctLowIncome": "?", "overallRating": null},
{"name": "Head Start Rockng Horse Rd Center", "street": "4910 Macon Road #141", "city": "Rockville", "zip": "20852", "state": "MD", "lat": 39.050861, "long": -77.098198, "districtID": 0, "districtName": null, "gradeLevels": "PK", "ratingScale": null, "enrollment": 0, "schoolType": "private", "pctLowIncome": "?", "overallRating": null},
{"name": "Pre-Kindergarten Head Start Unit", "street": "4910 Macon Road", "city": "Rockville", "zip": "20852", "state": "MD", "lat": 39.050861, "long": -77.098198, "districtID": 0, "districtName": null, "gradeLevels": "PK", "ratingScale": null, "enrollment": 0, "schoolType": "private", "pctLowIncome": "?", "overallRating": null},
{"name": "Gan Gurim Day Care", "street": "5 Rollins Court", "city": "Rockville", "zip": "20852", "state": "MD", "lat": 39.058556, "long": -77.13266, "districtID": 0, "districtName": null, "gradeLevels": "PK", "ratingScale": null, "enrollment": 0, "schoolType": "private", "pctLowIncome": "?", "overallRating": null},
{"name": "Sugar Plums Child Development Center", "street": "6003 Executive Boulevard", "city": "Rockville", "zip": "20852", "state": "MD", "lat": 39.048756, "long": -77.120064, "districtID": 0, "districtName": null, "gradeLevels": "PK", "ratingScale": null, "enrollment": 0, "schoolType": "private", "pctLowIncome": "?", "overallRating": null},
{"name": "Healthy Beginnings Child Development", "street": "5510 Fishers Lane", "city": "Rockville", "zip": "20852", "state": "MD", "lat": 39.06221, "long": -77.110893, "districtID": 0, "districtName": null, "gradeLevels": "PK", "ratingScale": null, "enrollment": 0, "schoolType": "private", "pctLowIncome": "?", "overallRating": null},
{"name": "Bright Eyes", "street": "5707 Luxemburg Street", "city": "Rockville", "zip": "20852", "state": "MD", "lat": 39.029633, "long": -77.114746, "districtID": 0, "districtName": null, "gradeLevels": "PK", "ratingScale": null, "enrollment": 0, "schoolType": "private", "pctLowIncome": "?", "overallRating": null},
{"name": "Kennedy Krieger School", "street": "12301 Academy Way", "city": "Rockville", "zip": "20852", "state": "MD", "lat": 39.056973, "long": -77.107216, "districtID": 0, "districtName": null, "gradeLevels": "3-12", "ratingScale": null, "enrollment": 43, "schoolType": "private", "pctLowIncome": "?", "overallRating": null},
{"name": "B'nai Israel Nursery School 301", "street": "6301 Montrose Road", "city": "Rockville", "zip": "20852", "state": "MD", "lat": 39.053684, "long": -77.128876, "districtID": 0, "districtName": null, "gradeLevels": "PK", "ratingScale": null, "enrollment": 0, "schoolType": "private", "pctLowIncome": "?", "overallRating": null},
{"name": "International Playgroup", "street": "6308 Huntover Lane", "city": "Rockville", "zip": "20852", "state": "MD", "lat": 39.038872, "long": -77.129662, "districtID": 0, "districtName": null, "gradeLevels": "PK", "ratingScale": null, "enrollment": 0, "schoolType": "private", "pctLowIncome": "?", "overallRating": null},
{"name": "Bright Horizons at Rockville", "street": "12750 Twinbrook Parkway", "city": "Rockville", "zip": "20852", "state": "MD", "lat": 39.066029, "long": -77.115402, "districtID": 0, "districtName": null, "gradeLevels": "PK", "ratingScale": null, "enrollment": 0, "schoolType": "private", "pctLowIncome": "?", "overallRating": null},
{"name": "Bayard Rustin Elementary", "street": "322 West Edmonston Drive", "city": "Rockville", "zip": "20852", "state": "MD", "lat": 39.071056, "long": -77.143822, "districtID": 16, "districtName": "Montgomery County Public Schools", "gradeLevels": "PK-5", "ratingScale": null, "enrollment": 600, "schoolType": "public", "pctLowIncome": "25%", "overallRating": null},
{"name": "Feynman School", "street": "11810 Falls Road, Potomac, MD 20854", "city": "North Bethesda", "zip": "20852", "state": "MD", "lat": 39.04187, "long": -77.13205, "districtID": 0, "districtName": null, "gradeLevels": "PK-6", "ratingScale": null, "enrollment": 0, "schoolType": "private", "pctLowIncome": "?", "overallRating": null},
{"name": "PS 40 Augustus Saint-Gaudens", "street": "320 East 20th Street", "city": "New York", "zip": "10003", "state": "NY", "lat": 40.735474, "long": -73.981491, "districtID": 806, "districtName": "New York City Geographic District # 2", "gradeLevels": "PK-5", "ratingScale": "Above average", "enrollment": 709, "schoolType": "public", "pctLowIncome": "12%", "overallRating": 10},
{"name": "Success Academy Charter School-Union Square", "street": "40 Irving Place", "city": "New York", "zip": "10003", "state": "NY", "lat": 40.73518, "long": -73.987091, "districtID": 1186, "districtName": "Success Academy Charter School-Union Square", "gradeLevels": "K-7", "ratingScale": "Above average", "enrollment": 720, "schoolType": "charter", "pctLowIncome": "44%", "overallRating": 9},
{"name": "Ballet Tech/NYC Public School for Dance", "street": "890 Broadway", "city": "New York", "zip": "10003", "state": "NY", "lat": 40.738552, "long": -73.989571, "districtID": 806, "districtName": "New York City Geographic District # 2", "gradeLevels": "4-8", "ratingScale": "Above average", "enrollment": 141, "schoolType": "public", "pctLowIncome": "45%", "overallRating": 9},
{"name": "Middle School 255 Salk School of Science", "street": "320 East 20th Street", "city": "New York", "zip": "10003", "state": "NY", "lat": 40.735474, "long": -73.981491, "districtID": 806, "districtName": "New York City Geographic District # 2", "gradeLevels": "6-8", "ratingScale": "Above average", "enrollment": 395, "schoolType": "public", "pctLowIncome": "14%", "overallRating": 8},
{"name": "High School for Health Professions & Human Services", "street": "345 East 15th Street", "city": "New York", "zip": "10003", "state": "NY", "lat": 40.732689, "long": -73.98259, "districtID": 806, "districtName": "New York City Geographic District # 2", "gradeLevels": "9-12 & Ungraded", "ratingScale": "Average", "enrollment": 1840, "schoolType": "public", "pctLowIncome": "71%", "overallRating": 6},
{"name": "PS 19 Asher Levy", "street": "185 1st Avenue", "city": "New York", "zip": "10003", "state": "NY", "lat": 40.729836, "long": -73.984245, "districtID": 805, "districtName": "New York City Geographic District # 1", "gradeLevels": "PK-5 & Ungraded", "ratingScale": "Average", "enrollment": 247, "schoolType": "public", "pctLowIncome": "72%", "overallRating": 6},
{"name": "Clinton School (The)", "street": "10 East 15th Street", "city": "New York", "zip": "10003", "state": "NY", "lat": 40.736111, "long": -73.992279, "districtID": 806, "districtName": "New York City Geographic District # 2", "gradeLevels": "6-12", "ratingScale": "Average", "enrollment": 721, "schoolType": "public", "pctLowIncome": "16%", "overallRating": 6},
{"name": "Gramercy Arts High School", "street": "40 Irving Place", "city": "New York", "zip": "10003", "state": "NY", "lat": 40.73518, "long": -73.987091, "districtID": 806, "districtName": "New York City Geographic District # 2", "gradeLevels": "9-12", "ratingScale": "Average", "enrollment": 467, "schoolType": "public", "pctLowIncome": "79%", "overallRating": 5},
{"name": "Academy for Software Engineering", "street": "40 Irving Place", "city": "New York", "zip": "10003", "state": "NY", "lat": 40.73518, "long": -73.987091, "districtID": 806, "districtName": "New York City Geographic District # 2", "gradeLevels": "9-12", "ratingScale": "Average", "enrollment": 456, "schoolType": "public", "pctLowIncome": "67%", "overallRating": 5},
{"name": "Institute for Collaborative Education", "street": "345 East 15th Street", "city": "New York", "zip": "10003", "state": "NY", "lat": 40.732689, "long": -73.98259, "districtID": 806, "districtName": "New York City Geographic District # 2", "gradeLevels": "6-12", "ratingScale": "Average", "enrollment": 484, "schoolType": "public", "pctLowIncome": "27%", "overallRating": 5},
{"name": "Union Square Academy for Health Sciences", "street": "40 Irving Place", "city": "New York", "zip": "10003", "state": "NY", "lat": 40.73518, "long": -73.987091, "districtID": 806, "districtName": "New York City Geographic District # 2", "gradeLevels": "9-12", "ratingScale": "Below average", "enrollment": 423, "schoolType": "public", "pctLowIncome": "83%", "overallRating": 4},
{"name": "Manhattan Comprehensive Night and Day High School", "street": "240 2nd Avenue", "city": "New York", "zip": "10003", "state": "NY", "lat": 40.732658, "long": -73.984406, "districtID": 806, "districtName": "New York City Geographic District # 2", "gradeLevels": "10-12", "ratingScale": "Below average", "enrollment": 548, "schoolType": "public", "pctLowIncome": "89%", "overallRating": 4},
{"name": "High School for Language and Diplomacy (The)", "street": "40 Irving Place", "city": "New York", "zip": "10003", "state": "NY", "lat": 40.73518, "long": -73.987091, "districtID": 806, "districtName": "New York City Geographic District # 2", "gradeLevels": "9-12", "ratingScale": "Below average", "enrollment": 301, "schoolType": "public", "pctLowIncome": "75%", "overallRating": 3},
{"name": "International High School at Union Square", "street": "40 Irving Place", "city": "New York", "zip": "10003", "state": "NY", "lat": 40.73518, "long": -73.987091, "districtID": 806, "districtName": "New York City Geographic District # 2", "gradeLevels": "9-12", "ratingScale": "Below average", "enrollment": 343, "schoolType": "public", "pctLowIncome": "86%", "overallRating": 2},
{"name": "Harvey Milk High School", "street": "2 Astor Place", "city": "New York", "zip": "10003", "state": "NY", "lat": 40.729877, "long": -73.992584, "districtID": 806, "districtName": "New York City Geographic District # 2", "gradeLevels": "9-12", "ratingScale": "Below average", "enrollment": 66, "schoolType": "public", "pctLowIncome": "88%", "overallRating": 2},
{"name": "Baruch College Early Learning Center", "street": "104 E 19th St", "city": "New York", "zip": "10003", "state": "NY", "lat": 40.737415, "long": -73.987762, "districtID": 0, "districtName": null, "gradeLevels": "PK", "ratingScale": null, "enrollment": 0, "schoolType": "private", "pctLowIncome": "?", "overallRating": null},
{"name": "Beginnings Nursery School", "street": "130 East 16th Street", "city": "New York", "zip": "10003", "state": "NY", "lat": 40.734859, "long": -73.987389, "districtID": 0, "districtName": null, "gradeLevels": "PK", "ratingScale": null, "enrollment": 0, "schoolType": "private", "pctLowIncome": "?", "overallRating": null},
{"name": "Manhattan Kid's Club", "street": "21 East 13th Street", "city": "New York", "zip": "10003", "state": "NY", "lat": 40.734936, "long": -73.992905, "districtID": 0, "districtName": null, "gradeLevels": "PK", "ratingScale": null, "enrollment": 0, "schoolType": "private", "pctLowIncome": "?", "overallRating": null},
{"name": "Third Street Preschool", "street": "235 East 11th Street", "city": "New York", "zip": "10003", "state": "NY", "lat": 40.730827, "long": -73.986786, "districtID": 0, "districtName": null, "gradeLevels": "PK-4", "ratingScale": null, "enrollment": 0, "schoolType": "private", "pctLowIncome": "?", "overallRating": null},
{"name": "Brotherhood Nursery School", "street": "28 Gramercy Park South", "city": "New York", "zip": "10003", "state": "NY", "lat": 40.737061, "long": -73.985382, "districtID": 0, "districtName": null, "gradeLevels": "PK", "ratingScale": null, "enrollment": 0, "schoolType": "private", "pctLowIncome": "?", "overallRating": null},
{"name": "P A L Head Start Center", "street": "34 1 2 E 12th Streei", "city": "New York", "zip": "10003", "state": "NY", "lat": 40.732475, "long": -73.988998, "districtID": 0, "districtName": null, "gradeLevels": "PK", "ratingScale": null, "enrollment": 0, "schoolType": "private", "pctLowIncome": "?", "overallRating": null},
{"name": "Learning Spring School", "street": "247 East 20th Street", "city": "New York", "zip": "10003", "state": "NY", "lat": 40.736221, "long": -73.982384, "districtID": 0, "districtName": null, "gradeLevels": "K", "ratingScale": null, "enrollment": 105, "schoolType": "private", "pctLowIncome": "?", "overallRating": null},
{"name": "Gani Preschool", "street": "34 East 14th Street", "city": "New York", "zip": "10003", "state": "NY", "lat": 40.735081, "long": -73.992172, "districtID": 0, "districtName": null, "gradeLevels": "PK", "ratingScale": null, "enrollment": 0, "schoolType": "private", "pctLowIncome": "?", "overallRating": null},
{"name": "Nord Anglia International School New York", "street": "44 East 2nd Street", "city": "New York", "zip": "10003", "state": "NY", "lat": 40.724678, "long": -73.989792, "districtID": 0, "districtName": null, "gradeLevels": "PK-8", "ratingScale": null, "enrollment": 35, "schoolType": "private", "pctLowIncome": "?", "overallRating": null},
{"name": "First Ave After School Dcc-Ps 19", "street": "185 1st Avenue", "city": "New York", "zip": "10003", "state": "NY", "lat": 40.729607, "long": -73.983665, "districtID": 0, "districtName": null, "gradeLevels": "PK", "ratingScale": null, "enrollment": 0, "schoolType": "private", "pctLowIncome": "?", "overallRating": null}
]