SALE TYPE,SOLD DATE,PROPERTY TYPE,ADDRESS,CITY,STATE OR PROVINCE,ZIP OR POSTAL CODE,PRICE,BEDS,BATHS,LOCATION,SQUARE FEET,LOT SIZE,YEAR BUILT,DAYS ON MARKET,$/SQUARE FEET,HOA/MONTH,STATUS,NEXT OPEN HOUSE START TIME,NEXT OPEN HOUSE END TIME,URL (SEE https://www.redfin.com/buy-a-home/comparative-market-analysis FOR INFO ON PRICING),SOURCE,MLS#,FAVORITE,INTERESTED,LATITUDE,LONGITUDE
MLS Listing,,Single Family Residential,3041 Union Church Rd,Tylerton,MD,21866,175000,4,1.0,SMITH ISLAND,1248,11400,1940,12,140,,Active,,,https://www.redfin.com/MD/TYLERTON/3041-UNION-CHURCH-RD-21866/home/15335145,BRIGHT MLS,MDSO2000976,N,Y,37.967743,-76.022585
MLS Listing,,Single Family Residential,21149 Tuff St,Tylerton,MD,21866,85000,4,1.0,SMITH ISLAND,1677,8220,1952,72,51,,Active,,,https://www.redfin.com/MD/TYLERTON/21149-TUFF-ST-21866/home/15335683,BRIGHT MLS,MDSO2000762,N,Y,37.966893,-76.023321
MLS Listing,,Vacant Land,0 Tylerton Rd,Tylerton,MD,21866,59900,,,HOWARD W MARSHALL LANDS,,44719,,142,,,Active,,,https://www.redfin.com/MD/TYLERTON/3040-UNION-CHURCH-RD-21866/home/17426355,BRIGHT MLS,MDSO2000172,N,Y,37.967685,-76.02343
PAST SALE,,Single Family Residential,3076 UNION CHURCH RD,TYLERTON,MD,21866,155000,,1.0,,1836,5966,1978,,84,,,,,https://www.redfin.com/MD/TYLERTON/3076-UNION-CHURCH-RD-21866/home/15335266,,,N,Y,37.968703,-76.023479
PAST SALE,January-14-2021,Single Family Residential,2955 Tylerton,Tylerton,MD,21866,52000,4,4.0,LEROY FRIESON PROP SURV,1536,29447,1900,325,34,,Sold,,,https://www.redfin.com/MD/Tylerton/2955-Tylerton-21866/home/173785486,BRIGHT MLS,MDSO104106,N,Y,37.96545698,-76.02464436
