SALE TYPE,SOLD DATE,PROPERTY TYPE,ADDRESS,CITY,STATE OR PROVINCE,ZIP OR POSTAL CODE,PRICE,BEDS,BATHS,LOCATION,SQUARE FEET,LOT SIZE,YEAR BUILT,DAYS ON MARKET,$/SQUARE FEET,HOA/MONTH,STATUS,NEXT OPEN HOUSE START TIME,NEXT OPEN HOUSE END TIME,URL (SEE https://www.redfin.com/buy-a-home/comparative-market-analysis FOR INFO ON PRICING),SOURCE,MLS#,FAVORITE,INTERESTED,LATITUDE,LONGITUDE
MLS Listing,,Townhouse,508 E Luray Ave,Alexandria,VA,22301,695000,2,2.0,BRENTON,1200,1504,1944,3,579,,Active,,,https://www.redfin.com/VA/Alexandria/508-E-Luray-Ave-22301/home/22668757,BRIGHT MLS,VAAX2006066,N,Y,38.8183417,-77.0544424
MLS Listing,,Condo/Co-op,1 W Maple St #102,Alexandria,VA,22301,310000,1,1.0,ROSEMONT,540,,1938,124,574,307,Active,,,https://www.redfin.com/VA/Alexandria/1-W-Maple-St-22301/unit-102/home/143365448,BRIGHT MLS,VAAX2002228,N,Y,38.8115044,-77.0617065
PAST SALE,March-5-2021,Townhouse,329 Mount Vernon Ave,Alexandria,VA,22301,679000,2,2.0,ROSEMONT,1275,1328,1946,275,533,,Sold,,,https://www.redfin.com/VA/Alexandria/329-Mt-Vernon-Ave-22301/home/11843270,BRIGHT MLS,VAAX254734,N,Y,38.8115413,-77.056394
PAST SALE,April-5-2019,Townhouse,1218 Main Line Blvd #102,Alexandria,VA,22301,835000,3,2.5,POTOMAC YARD,2761,,2015,975,302,100204,Sold,,,https://www.redfin.com/VA/Alexandria/1218-Main-Line-Blvd-22301/unit-102/home/102285265,BRIGHT MLS,VAAX193286,N,Y,38.817791,-77.052146
PAST SALE,November-7-2019,Single Family Residential,100 W Bellefonte Ave,Alexandria,VA,22301,929000,3,2.0,ROSECREST,2071,6776,1930,759,449,,Sold,,,https://www.redfin.com/VA/Alexandria/100-W-Bellefonte-Ave-22301/home/11848341,BRIGHT MLS,VAAX240240,N,Y,38.822473,-77.0647886
PAST SALE,July-6-2020,Single Family Residential,12 W Wyatt Ave,Alexandria,VA,22301,1465000,5,3.5,DEL RAY,3340,5000,2016,517,439,,Sold,,,https://www.redfin.com/VA/Alexandria/12-W-Wyatt-Ave-22301/home/11873073,BRIGHT MLS,VAAX246446,N,Y,38.826445,-77.0629448
PAST SALE,August-28-2020,Townhouse,544 E Luray Ave,Alexandria,VA,22301,689000,2,1.5,BRENTON,1202,2287,1944,464,573,,Sold,,,https://www.redfin.com/VA/Alexandria/544-E-Luray-Ave-22301/home/11844227,BRIGHT MLS,VAAX248140,N,Y,38.8184373,-77.0534444
PAST SALE,April-1-2020,Townhouse,309 Mount Vernon Ave,Alexandria,VA,22301,695218,2,2.0,ROSEMONT,1241,1827,1946,613,560,,Sold,,,https://www.redfin.com/VA/Alexandria/309-Mt-Vernon-Ave-22301/home/11843259,BRIGHT MLS,VAAX243738,N,Y,38.8110967,-77.0567119
PAST SALE,March-22-2021,Single Family Residential,201 Uhler Ter,Alexandria,VA,22301,1425000,4,3.5,GROVES,3587,9200,1940,258,397,,Sold,,,https://www.redfin.com/VA/Alexandria/201-W-Uhler-Ter-22301/home/11847000,BRIGHT MLS,VAAX253996,N,Y,38.8290174,-77.0647436
PAST SALE,August-26-2019,Townhouse,2311 Commonwealth Ave,Alexandria,VA,22301,793000,4,3.5,DEL RAY,1944,1450,1979,832,408,17,Sold,,,https://www.redfin.com/VA/Alexandria/2311-Commonwealth-Ave-22301/home/11863656,BRIGHT MLS,VAAX238296,N,Y,38.8262239,-77.0615039
PAST SALE,July-19-2019,Townhouse,217 E Monroe Ave,Alexandria,VA,22301,715000,3,2.0,BIRDIE MAY MASON,1428,3452,1945,870,501,,Sold,,,https://www.redfin.com/VA/Alexandria/217-E-Monroe-Ave-22301/home/11846334,BRIGHT MLS,VAAX236360,N,Y,38.8201784,-77.0590709
PAST SALE,September-7-2021,Townhouse,536 E Luray Ave,Alexandria,VA,22301,700000,2,2.0,BRENTON,1224,1504,1944,89,572,,Sold,,,https://www.redfin.com/VA/Alexandria/536-E-Luray-Ave-22301/home/11844231,BRIGHT MLS,VAAX2002336,N,Y,38.818421,-77.0536561
PAST SALE,April-4-2019,Condo/Co-op,713 E Howell Ave,Alexandria,VA,22301,960000,3,4.5,POTOMAC YARD,2566,1002,2016,976,374,116,Sold,,,https://www.redfin.com/VA/Alexandria/713-E-Howell-Ave-22301/home/49794651,BRIGHT MLS,VAAX227042,N,Y,38.8243371,-77.0484633
PAST SALE,May-18-2021,Townhouse,1221 Van Valkenburgh Ln,Alexandria,VA,22301,1179000,3,4.5,POTOMAC YARD,2702,989,2016,201,436,116,Sold,,,https://www.redfin.com/VA/Alexandria/1221-Van-Valkenburgh-Ln-22301/home/49794670,BRIGHT MLS,VAAX258086,N,Y,38.8180331,-77.0524324
PAST SALE,February-11-2020,Townhouse,1326 Van Valkenburgh Ln,Alexandria,VA,22301,1075000,4,4.5,POTOMAC YARD,3407,1560,2016,663,316,116,Sold,,,https://www.redfin.com/VA/Alexandria/1326-Van-Valkenburgh-Ln-22301/home/49794599,BRIGHT MLS,VAAX242442,N,Y,38.8188578,-77.0523416
PAST SALE,April-14-2021,Townhouse,2107 Richmond Hwy #102,Alexandria,VA,22301,885000,3,2.5,POTOMAC YARD CONDOMINIUM,2805,,2014,235,316,310,Sold,,,https://www.redfin.com/VA/Alexandria/2107-Richmond-Hwy-22301/unit-102/home/55107257,BRIGHT MLS,VAAX256702,N,Y,38.8255593,-77.0499531
PAST SALE,August-3-2021,Townhouse,526 E Glendale Ave,Alexandria,VA,22301,728000,2,2.0,BRENTON,1311,2576,1945,124,555,,Sold,,,https://www.redfin.com/VA/Alexandria/526-E-Glendale-Ave-22301/home/11843704,BRIGHT MLS,VAAX259502,N,Y,38.8177567,-77.0536467
PAST SALE,August-6-2020,Townhouse,215 Commonwealth Ave,Alexandria,VA,22301,725000,2,2.0,ROSEMONT,1425,1533,1940,486,509,,Sold,,,https://www.redfin.com/VA/Alexandria/215-Commonwealth-Ave-22301/home/11843334,BRIGHT MLS,VAAX248632,N,Y,38.8105329,-77.0606906
PAST SALE,April-26-2019,Townhouse,2215 Main Line Blvd,Alexandria,VA,22301,775900,3,2.5,POTOMAC YARD CONDOMINIUM,1960,,2012,954,396,321,Sold,,,https://www.redfin.com/VA/Alexandria/2215-Main-Line-Blvd-22301/home/49794558,BRIGHT MLS,VAAX227252,N,Y,38.826825,-77.049244
PAST SALE,April-26-2019,Townhouse,18 E Myrtle St,Alexandria,VA,22301,632000,2,2.0,TEMPLE PARK,1165,2300,1930,954,542,,Sold,,,https://www.redfin.com/VA/Alexandria/18-E-Myrtle-St-22301/home/11845908,BRIGHT MLS,VAAX233700,N,Y,38.8151625,-77.0608762
PAST SALE,November-7-2019,Single Family Residential,15 E Braddock Rd,Alexandria,VA,22301,870000,4,3.0,ROSEMONT PARK,2070,9359,1935,759,420,,Sold,,,https://www.redfin.com/VA/Alexandria/15-E-Braddock-Rd-22301/home/11845857,BRIGHT MLS,VAAX240126,N,Y,38.8157656,-77.0615957
PAST SALE,April-25-2019,Townhouse,520 E Nelson Ave,Alexandria,VA,22301,665000,2,2.0,LINDEN GARDENS,1206,2080,1939,955,551,,Sold,,,https://www.redfin.com/VA/Alexandria/520-E-Nelson-Ave-22301/home/11844105,BRIGHT MLS,VAAX233776,N,Y,38.8201005,-77.0544788
PAST SALE,February-5-2021,Townhouse,110 Hume Ave,Alexandria,VA,22301,725000,3,2.0,DEL RAY,1184,3822,1950,303,612,,Sold,,,https://www.redfin.com/VA/Alexandria/110-Hume-Ave-22301/home/11845003,BRIGHT MLS,VAAX255886,N,Y,38.8310832,-77.0584477
PAST SALE,January-23-2020,Townhouse,538 E Glendale Ave,Alexandria,VA,22301,700000,2,2.0,BRENTON,1296,3658,1945,682,540,,Sold,,,https://www.redfin.com/VA/Alexandria/538-E-Glendale-Ave-22301/home/11843698,BRIGHT MLS,VAAX241754,N,Y,38.8177775,-77.0533092
PAST SALE,June-4-2021,Townhouse,523 E Nelson Ave,Alexandria,VA,22301,805000,2,2.0,LINDEN GARDENS,1248,2336,1939,184,645,,Sold,,,https://www.redfin.com/VA/Alexandria/523-E-Nelson-Ave-22301/home/11844139,BRIGHT MLS,VAAX259078,N,Y,38.8196543,-77.0542457
PAST SALE,December-26-2019,Townhouse,535 E Luray Ave,Alexandria,VA,22301,703000,3,2.5,BRENTON,1482,1575,1945,710,474,,Sold,,,https://www.redfin.com/VA/Alexandria/535-E-Luray-Ave-22301/home/11843734,BRIGHT MLS,VAAX241736,N,Y,38.818089,-77.053504
PAST SALE,August-10-2020,Townhouse,219 E Monroe Ave,Alexandria,VA,22301,803000,3,2.0,BIRDIE MAY MASON,1428,2205,1945,482,562,,Sold,,,https://www.redfin.com/VA/Alexandria/219-E-Monroe-Ave-22301/home/11846335,BRIGHT MLS,VAAX247408,N,Y,38.8201859,-77.0589911
PAST SALE,June-15-2021,Single Family Residential,217 E Oxford Ave,Alexandria,VA,22301,1625000,5,3.5,DEL RAY,3115,4791,1930,173,522,,Sold,,,https://www.redfin.com/VA/Alexandria/217-E-Oxford-Ave-22301/home/11844326,BRIGHT MLS,VAAX258456,N,Y,38.8268562,-77.057121
PAST SALE,June-16-2020,Townhouse,542 E Luray Ave,Alexandria,VA,22301,695000,2,2.0,BRENTON,1318,1504,1944,537,527,,Sold,,,https://www.redfin.com/VA/Alexandria/542-E-Luray-Ave-22301/home/11844228,BRIGHT MLS,VAAX246028,N,Y,38.818455,-77.053483
PAST SALE,August-13-2019,Condo/Co-op,409 E Raymond Ave #8,Alexandria,VA,22301,291000,1,1.0,POTOMAC FLATS,458,,1920,845,635,258,Sold,,,https://www.redfin.com/VA/Alexandria/409-E-Raymond-Ave-22301/unit-8/home/11845172,BRIGHT MLS,VAAX236030,N,Y,38.8306,-77.0525336
PAST SALE,December-9-2019,Townhouse,1802 N Cliff St,Alexandria,VA,22301,600000,2,2.0,DAVIS TRACT,1168,2500,1945,727,514,,Sold,,,https://www.redfin.com/VA/Alexandria/1802-N-Cliff-St-22301/home/11846114,BRIGHT MLS,VAAX239538,N,Y,38.822435,-77.0610279
PAST SALE,August-24-2020,Condo/Co-op,5 Russell Rd Unit E,Alexandria,VA,22301,376000,2,1.0,STATION PLACE,1000,,1937,468,376,299,Sold,,,https://www.redfin.com/VA/Alexandria/5-Russell-Rd-22301/unit-E/home/11868071,BRIGHT MLS,VAAX248982,N,Y,38.8075145,-77.0625008
PAST SALE,October-22-2020,Single Family Residential,24 E Howell Ave,Alexandria,VA,22301,980000,4,3.0,DEL RAY,1740,5750,1936,409,563,,Sold,,,https://www.redfin.com/VA/Alexandria/24-E-Howell-Ave-22301/home/11846766,BRIGHT MLS,VAAX249774,N,Y,38.8238873,-77.0605614
PAST SALE,November-17-2020,Condo/Co-op,305 E Duncan Ave Unit C,Alexandria,VA,22301,299000,1,1.0,ALEXANDRIA SQUARE,507,,1940,383,590,354,Sold,,,https://www.redfin.com/VA/Alexandria/305-E-Duncan-Ave-22301/unit-C/home/11870929,BRIGHT MLS,VAAX251648,N,Y,38.822373,-77.0553381
PAST SALE,March-31-2021,Townhouse,500 E Luray Ave,Alexandria,VA,22301,740000,2,2.0,BRENTON,1400,2945,1944,249,529,,Sold,,,https://www.redfin.com/VA/Alexandria/500-E-Luray-Ave-22301/home/11844247,BRIGHT MLS,VAAX256302,N,Y,38.8183149,-77.0546812
PAST SALE,June-30-2020,Townhouse,29 Mount Vernon Ave,Alexandria,VA,22301,620000,2,1.0,ROSEMONT,952,1326,1950,523,651,,Sold,,,https://www.redfin.com/VA/Alexandria/29-Mt-Vernon-Ave-22301/home/11843619,BRIGHT MLS,VAAX246578,N,Y,38.8086297,-77.0593359
PAST SALE,April-26-2019,Townhouse,521 E Alexandria Ave,Alexandria,VA,22301,625000,2,2.0,BRENTON,1236,3330,1944,954,506,,Sold,,,https://www.redfin.com/VA/Alexandria/521-E-Alexandria-Ave-22301/home/11844219,BRIGHT MLS,VAAX227516,N,Y,38.8187649,-77.0540446
PAST SALE,September-25-2020,Condo/Co-op,1800 Mount Vernon Ave #208,Alexandria,VA,22301,419900,1,1.0,DEL RAY PLACE,602,,2019,436,698,295,Sold,,,https://www.redfin.com/VA/Alexandria/1800-Mt-Vernon-Ave-22301/unit-208/home/148602759,BRIGHT MLS,VAAX249820,N,Y,38.8225575,-77.0582003
PAST SALE,October-6-2020,Single Family Residential,220 E Bellefonte Ave,Alexandria,VA,22301,865000,3,1.0,DEL RAY,1380,5750,1925,425,627,,Sold,,,https://www.redfin.com/VA/Alexandria/220-E-Bellefonte-Ave-22301/home/11844400,BRIGHT MLS,VAAX249474,N,Y,38.8234881,-77.056289
PAST SALE,August-6-2021,Condo/Co-op,1800 Mount Vernon Ave #207,Alexandria,VA,22301,425000,1,1.0,DEL RAY PLACE,600,,2019,121,708,269,Sold,,,https://www.redfin.com/VA/Alexandria/1800-Mt-Vernon-Ave-22301/unit-207/home/160587193,BRIGHT MLS,VAAX260796,N,Y,38.8225575,-77.0582003
PAST SALE,,Single Family Residential,109 E Raymond Ave Unit A,Alexandria,VA,22301,765000,3,3.0,,1457,2668,1960,,525,,,,,https://www.redfin.com/VA/Alexandria/109-E-Raymond-Ave-22301/unit-A/home/11845112,,,N,Y,38.8300463,-77.0581006
PAST SALE,March-23-2021,Townhouse,107 E Glendale Ave,Alexandria,VA,22301,813606,3,1.5,DEL RAY,1422,2500,1944,257,572,,Sold,,,https://www.redfin.com/VA/Alexandria/107-E-Glendale-Ave-22301/home/11845805,BRIGHT MLS,VAAX255208,N,Y,38.816739,-77.0609665
MLS Listing,,Single Family Residential,17 E Spring St,Alexandria,VA,22301,1495000,4,3.5,ROSEMONT/DEL RAY,3550,6352,1930,1,421,,Active,December-11-2021 12:00 PM,December-11-2021 03:00 PM,https://www.redfin.com/VA/Alexandria/17-E-Spring-St-22301/home/11845899,BRIGHT MLS,VAAX2006160,N,Y,38.815489,-77.0609211
MLS Listing,,Townhouse,27 E Howell Ave,Alexandria,VA,22301,779900,3,2.5,CAYLOR-SPAULDING,1536,2726,1977,4,508,,Active,December-5-2021 02:00 PM,December-5-2021 04:00 PM,https://www.redfin.com/VA/Alexandria/27-E-Howell-Ave-22301/home/11860226,BRIGHT MLS,VAAX2005898,N,Y,38.8235507,-77.0604264
MLS Listing,,Single Family Residential,200 W Monroe Ave,Alexandria,VA,22301,1845000,5,4.5,ROSEMONT,3702,5750,1910,5,498,,Active,December-5-2021 01:00 PM,December-5-2021 04:00 PM,https://www.redfin.com/VA/Alexandria/200-W-Monroe-Ave-22301/home/11848408,BRIGHT MLS,VAAX2002352,N,Y,38.8196259,-77.0666324
MLS Listing,,Multi-Family (2-4 Unit),11 Custis Ave E,Alexandria,VA,22301,1800000,,,DEL RAY,3800,8625,1930,25,474,,Active,,,https://www.redfin.com/VA/Alexandria/11-E-Custis-Ave-22301/home/11846709,BRIGHT MLS,VAAX2005322,N,Y,38.8250125,-77.0609211
MLS Listing,,Single Family Residential,17 W Windsor Ave,Alexandria,VA,22301,1795000,6,5.0,ROSECREST,3800,5750,1933,30,472,,Active,,,https://www.redfin.com/VA/Alexandria/17-W-Windsor-Ave-22301/home/11846692,BRIGHT MLS,VAAX2004864,N,Y,38.8243311,-77.064159
MLS Listing,,Condo/Co-op,737 Swann Ave Unit TWO-610,Alexandria,VA,22301,720900,1,1.5,POTOMAC YARD,819,,2022,44,880,397,Active,,,https://www.redfin.com/VA/Alexandria/737-Swann-Ave-22301/unit-TWO-610/home/176875373,BRIGHT MLS,VAAX2004886,N,Y,38.8293894,-77.0502802
MLS Listing,,Townhouse,317 Mount Vernon Ave,Alexandria,VA,22301,709900,2,2.0,ROSEMONT,1200,1250,1946,59,592,,Active,,,https://www.redfin.com/VA/Alexandria/317-Mt-Vernon-Ave-22301/home/11843264,BRIGHT MLS,VAAX2000105,N,Y,38.811282,-77.056562
MLS Listing,,Townhouse,1804 N Cliff St,Alexandria,VA,22301,725000,2,2.0,DAVIS TRACT,1080,2500,1945,61,671,,Active,,,https://www.redfin.com/VA/Alexandria/1804-N-Cliff-St-22301/home/11846113,BRIGHT MLS,VAAX2000055,N,Y,38.8225095,-77.0610365
MLS Listing,,Condo/Co-op,701 Swann Ave Unit ONE 206,Alexandria,VA,22301,700900,1,2.0,POTOMAC YARD,1060,,2022,122,661,544,Active,,,https://www.redfin.com/VA/Alexandria/701-Swann-Ave-22301/unit-ONE-206/home/175986066,BRIGHT MLS,VAAX2002348,N,Y,38.8293894,-77.0502802
MLS Listing,,Condo/Co-op,701 Swann Ave Unit ONE 202,Alexandria,VA,22301,1085900,3,2.5,POTOMAC YARD,1778,,2022,122,611,890,Active,,,https://www.redfin.com/VA/Alexandria/701-Swann-Ave-22301/unit-ONE-202/home/175985612,BRIGHT MLS,VAAX2002344,N,Y,38.8293894,-77.0502802
MLS Listing,,Condo/Co-op,701 Swann Ave Unit ONE-301,Alexandria,VA,22301,932900,2,2.5,POTOMAC  YARDS,1439,,2022,130,648,734,Active,,,https://www.redfin.com/VA/Alexandria/701-Swann-Ave-22301/unit-ONE-301/home/175888638,BRIGHT MLS,VAAX2001958,N,Y,38.8293894,-77.0502802
MLS Listing,,Condo/Co-op,701 Swann Ave Unit ONE-504,Alexandria,VA,22301,997900,2,2.5,POTOMAC YARD,1639,,2022,143,609,864,Active,,,https://www.redfin.com/VA/Alexandria/701-Swann-Ave-22301/unit-ONE-504/home/175690180,BRIGHT MLS,VAAX2001456,N,Y,38.8293894,-77.0502802
MLS Listing,,Condo/Co-op,701 Swann Ave Unit ONE-407,Alexandria,VA,22301,644900,1,1.5,POTOMAC  YARDS,882,,2022,144,731,432,Active,,,https://www.redfin.com/VA/Alexandria/701-Swann-Ave-22301/unit-ONE-407/home/175659494,BRIGHT MLS,VAAX2001386,N,Y,38.8293894,-77.0502802
MLS Listing,,Condo/Co-op,400 Commonwealth Ave #107,Alexandria,VA,22301,299900,1,1.0,ROSEMONT,668,,1938,199,449,376,Active,,,https://www.redfin.com/VA/Alexandria/400-Commonwealth-Ave-22301/unit-107/home/11879456,BRIGHT MLS,VAAX260110,N,Y,38.8116885,-77.0617805
MLS Listing,,Single Family Residential,2304 King St,Alexandria,VA,22301,1995000,4,3.5,GEORGE WASHINGTON PARK,4819,11075,1910,265,414,,Active,,,https://www.redfin.com/VA/Alexandria/2304-King-St-22301/home/11842995,BRIGHT MLS,VAAX257138,N,Y,38.810667,-77.0675543
PAST SALE,,Condo/Co-op,1707 Dewitt Ave Unit C,Alexandria,VA,22301,170516,1,1.0,,509,,1940,,335,,,,,https://www.redfin.com/VA/Alexandria/1707-Dewitt-Ave-22301/unit-C/home/11870943,,,N,Y,38.8223551,-77.0556818
PAST SALE,April-30-2019,Townhouse,226 E Nelson Ave,Alexandria,VA,22301,735000,2,2.0,BIRDIE MAY MASON,1299,2363,1940,950,566,,Sold,,,https://www.redfin.com/VA/Alexandria/226-E-Nelson-Ave-22301/home/11846352,BRIGHT MLS,VAAX234120,N,Y,38.8197374,-77.0586725
PAST SALE,July-15-2019,Townhouse,21 E Del Ray Ave,Alexandria,VA,22301,730000,3,2.0,DEL RAY,1496,3277,1960,874,488,,Sold,,,https://www.redfin.com/VA/Alexandria/21-E-Del-Ray-Ave-22301/home/11846636,BRIGHT MLS,VAAX236872,N,Y,38.825748,-77.060477
PAST SALE,February-4-2020,Townhouse,102 E Howell Ave,Alexandria,VA,22301,907500,3,3.5,DAVIS TRACT,1962,2875,1947,670,463,,Sold,,,https://www.redfin.com/VA/Alexandria/102-E-Howell-Ave-22301/home/11846783,BRIGHT MLS,VAAX241324,N,Y,38.8239471,-77.0596619
PAST SALE,September-5-2019,Townhouse,107-A E Del Ray Ave,Alexandria,VA,22301,685000,3,2.0,DEL RAY,1632,2875,1962,822,420,,Sold,,,https://www.redfin.com/VA/Alexandria/107-E-Del-Ray-Ave-22301/unit-A/home/11846650,BRIGHT MLS,VAAX237184,N,Y,38.8258606,-77.059527
PAST SALE,December-12-2018,Townhouse,526 Alexandria Ave E,Alexandria,VA,22301,616000,2,2.0,BRENTON,972,1952,1945,1089,634,,Sold,,,https://www.redfin.com/VA/Alexandria/526-E-Alexandria-Ave-22301/home/11844191,BRIGHT MLS,VAAX100234,N,Y,38.8192095,-77.0535841
PAST SALE,July-9-2021,Single Family Residential,25 E Braddock Rd,Alexandria,VA,22301,1140000,4,2.0,ROSEMONT PARK,1968,6649,1930,149,579,,Sold,,,https://www.redfin.com/VA/Alexandria/25-E-Braddock-Rd-22301/home/11845903,BRIGHT MLS,VAAX260546,N,Y,38.8152124,-77.0602465
PAST SALE,November-14-2019,Townhouse,611 E Nelson Ave #102,Alexandria,VA,22301,779000,3,2.5,POTOMAC YARD CONDOMINIUM,2854,,2013,752,273,258,Sold,,,https://www.redfin.com/VA/Alexandria/611-E-Nelson-Ave-22301/unit-102/home/101387887,BRIGHT MLS,VAAX234518,N,Y,38.8196324,-77.050937
PAST SALE,,Single Family Residential,2 W Chapman St,Alexandria,VA,22301,844000,2,4.0,,2425,2870,1974,,348,,,,,https://www.redfin.com/VA/Alexandria/2-W-Chapman-St-22301/home/11846059,,,N,Y,38.8134267,-77.0622943
PAST SALE,,Single Family Residential,15 E Mason Ave,Alexandria,VA,22301,724000,,3.0,,1723,3375,1940,,420,,,,,https://www.redfin.com/VA/Alexandria/15-E-Mason-Ave-22301/home/11846245,,,N,Y,38.8209621,-77.0619373
PAST SALE,May-30-2019,Single Family Residential,107 E Oxford Ave,Alexandria,VA,22301,1595000,5,4.5,DEL RAY,3900,4313,1940,920,409,,Sold,,,https://www.redfin.com/VA/Alexandria/107-E-Oxford-Ave-22301/home/11846588,BRIGHT MLS,VAAX236092,N,Y,38.826604,-77.0597069
PAST SALE,March-29-2019,Townhouse,8 E Oak St,Alexandria,VA,22301,699900,2,1.5,ROSEMONT PARK,1083,3075,1930,982,646,,Sold,,,https://www.redfin.com/VA/Alexandria/8-E-Oak-St-22301/home/11846093,BRIGHT MLS,VAAX226666,N,Y,38.8130858,-77.0610393
PAST SALE,August-1-2019,Single Family Residential,105 W Linden St,Alexandria,VA,22301,1285000,4,4.0,ROSEMONT,2985,6000,1920,857,430,,Sold,,,https://www.redfin.com/VA/Alexandria/105-W-Linden-St-22301/home/11843160,BRIGHT MLS,VAAX236326,N,Y,38.8102711,-77.064204
PAST SALE,February-21-2020,Townhouse,533 E Luray Ave,Alexandria,VA,22301,720000,3,2.0,BRENTON,1470,1575,1945,653,490,,Sold,,,https://www.redfin.com/VA/Alexandria/533-E-Luray-Ave-22301/home/11843733,BRIGHT MLS,VAAX243238,N,Y,38.8180886,-77.0535887
PAST SALE,March-12-2021,Townhouse,513 E Howell Ave Unit A,Alexandria,VA,22301,719000,2,1.5,DEL RAY,1224,2875,1985,268,587,,Sold,,,https://www.redfin.com/VA/Alexandria/513-E-Howell-Ave-22301/unit-A/home/167059821,BRIGHT MLS,VAAX255798,N,Y,38.824295,-77.051212
PAST SALE,October-31-2019,Townhouse,1224 Main Line Blvd #102,Alexandria,VA,22301,819000,3,2.5,POTOMAC YARD CONDOMINIUM,2806,,2015,766,292,272,Sold,,,https://www.redfin.com/VA/Alexandria/1224-Main-Line-Blvd-22301/unit-102/home/101699010,BRIGHT MLS,VAAX238842,N,Y,38.818004,-77.0520005
PAST SALE,July-12-2021,Townhouse,113 E Windsor Ave Unit A,Alexandria,VA,22301,735000,3,2.5,CAYLOR-SPAULDING,1560,3220,1976,146,471,,Sold,,,https://www.redfin.com/VA/Alexandria/113-E-Windsor-Ave-22301/unit-A/home/177216577,BRIGHT MLS,VAAX261054,N,Y,38.8244427,-77.0589761
PAST SALE,May-16-2019,Single Family Residential,107 E Windsor Ave,Alexandria,VA,22301,990000,3,3.0,DEL RAY,2222,4313,1928,934,446,,Sold,,,https://www.redfin.com/VA/Alexandria/107-E-Windsor-Ave-22301/home/11846776,BRIGHT MLS,VAAX227476,N,Y,38.8244096,-77.059457
PAST SALE,May-6-2019,Single Family Residential,102 E Oak St E,Alexandria,VA,22301,840000,3,2.0,ROSEMONT PARK,1650,5000,1939,944,509,,Sold,,,https://www.redfin.com/VA/Alexandria/102-E-Oak-St-22301/home/11843892,BRIGHT MLS,VAAX227146,N,Y,38.8131572,-77.0591222
PAST SALE,,Townhouse,1820 Potomac Ave,Alexandria,VA,22301,1150000,3,5.0,,3247,1308,2016,,354,,,,,https://www.redfin.com/VA/Alexandria/1820-Potomac-Ave-22301/home/49794643,,,N,Y,38.8236139,-77.0484633
PAST SALE,March-29-2019,Townhouse,7 W Luray Ave,Alexandria,VA,22301,720000,3,2.5,DEL RAY,2038,1998,1970,982,353,,Sold,,,https://www.redfin.com/VA/Alexandria/7-W-Luray-Ave-22301/home/11846441,BRIGHT MLS,VAAX226378,N,Y,38.8175297,-77.0633496
PAST SALE,November-30-2021,Townhouse,1739 N Cliff St,Alexandria,VA,22301,685000,2,2.0,CLIFF GARDENS,1360,,1955,5,504,175,Sold,,,https://www.redfin.com/VA/Alexandria/1739-N-Cliff-St-22301/home/11846172,BRIGHT MLS,VAAX2000331,N,Y,38.822091,-77.060269
PAST SALE,November-3-2021,Townhouse,213 Commonwealth Ave,Alexandria,VA,22301,775000,2,2.0,ROSEMONT,1482,1533,1940,32,523,,Sold,,,https://www.redfin.com/VA/Alexandria/213-Commonwealth-Ave-22301/home/12015816,BRIGHT MLS,VAAX2004080,N,Y,38.8104943,-77.06073
PAST SALE,November-22-2019,Single Family Residential,110 E Nelson Ave,Alexandria,VA,22301,905000,3,2.5,COTTAGE PARK,1644,5400,1940,744,550,,Sold,,,https://www.redfin.com/VA/Alexandria/110-E-Nelson-Ave-22301/home/11846309,BRIGHT MLS,VAAX240982,N,Y,38.8195728,-77.0607862
PAST SALE,February-15-2019,Condo/Co-op,1222 Main Line Blvd #101,Alexandria,VA,22301,722500,3,2.5,POTOMAC  YARDS,1675,,2015,1024,431,245,Sold,,,https://www.redfin.com/VA/Alexandria/1222-Main-Line-Blvd-22301/unit-101/home/113546586,BRIGHT MLS,VAAX192556,N,Y,38.8179183,-77.0520723
PAST SALE,June-7-2021,Townhouse,15 E Del Ray Ave Unit A,Alexandria,VA,22301,920000,3,3.0,DEL RAY,1828,2875,1990,181,503,,Sold,,,https://www.redfin.com/VA/Alexandria/15-E-Del-Ray-Ave-22301/unit-A/home/11846633,BRIGHT MLS,VAAX259998,N,Y,38.8257459,-77.0610111
PAST SALE,,Single Family Residential,412 N View Ter,Alexandria,VA,22301,715000,,5.0,,3908,15000,1920,,183,,,,,https://www.redfin.com/VA/Alexandria/412-N-View-Ter-22301/home/11843135,,,N,Y,38.8109203,-77.0667673
PAST SALE,May-31-2019,Townhouse,7 E Maple St,Alexandria,VA,22301,695000,2,2.5,ROSEMONT,1430,2051,1937,919,486,,Sold,,,https://www.redfin.com/VA/Alexandria/7-E-Maple-St-22301/home/11843409,BRIGHT MLS,VAAX233928,N,Y,38.8112799,-77.060549
PAST SALE,,Condo/Co-op,1222 Main Line Blvd #102,Alexandria,VA,22301,787500,3,3.0,,2851,,2015,,276,,,,,https://www.redfin.com/VA/Alexandria/1222-Main-Line-Blvd-22301/unit-102/home/101699013,,,N,Y,38.8178794,-77.0520959
PAST SALE,February-12-2021,Townhouse,721 E Custis Ave,Alexandria,VA,22301,1349999,4,3.5,POTOMAC YARD,3446,2541,2013,296,392,116,Sold,,,https://www.redfin.com/VA/Alexandria/721-E-Custis-Ave-22301/home/39967171,BRIGHT MLS,VAAX254536,N,Y,38.8260196,-77.0484184
PAST SALE,October-12-2021,Townhouse,2401 Richmond Hwy,Alexandria,VA,22301,817000,3,2.5,POTOMAC YARD CONDOMINIUM,2005,,2016,54,407,272,Sold,,,https://www.redfin.com/VA/Alexandria/2401-Richmond-Hwy-22301/home/113546560,BRIGHT MLS,VAAX2002630,N,Y,38.8277122,-77.0501736
PAST SALE,February-21-2019,Townhouse,8 1/2 E Masonic View Ave,Alexandria,VA,22301,565000,2,1.0,TEMPLE PARK,864,2500,1940,1018,654,,Sold,,,https://www.redfin.com/VA/Alexandria/8-1-2-E-Masonic-View-Ave-22301/home/167051070,BRIGHT MLS,VAAX192864,N,Y,38.8144614,-77.0616918
PAST SALE,June-24-2019,Townhouse,517 E Luray Ave,Alexandria,VA,22301,641000,3,2.0,BRENTON,1462,1575,1945,895,438,,Sold,,,https://www.redfin.com/VA/Alexandria/517-E-Luray-Ave-22301/home/11843726,BRIGHT MLS,VAAX235270,N,Y,38.818042,-77.0540721
PAST SALE,June-24-2020,Townhouse,1711 Price St,Alexandria,VA,22301,573500,2,1.0,RUST,1262,1610,1950,529,454,,Sold,,,https://www.redfin.com/VA/Alexandria/1711-Price-St-22301/home/11846183,BRIGHT MLS,VAAX246396,N,Y,38.8220394,-77.0592234
PAST SALE,May-17-2019,Condo/Co-op,407 E Raymond Ave #2,Alexandria,VA,22301,368000,1,1.0,POTOMAC FLATS,525,,1920,933,701,296,Sold,,,https://www.redfin.com/VA/Alexandria/407-E-Raymond-Ave-22301/unit-2/home/17561341,BRIGHT MLS,VAAX233800,N,Y,38.8306074,-77.0528045
PAST SALE,April-20-2021,Multi-Family (2-4 Unit),1700 Dewitt Ave,Alexandria,VA,22301,1120000,5,3.0,DEL RAY,2621,6733,1940,229,427,,Sold,,,https://www.redfin.com/VA/Alexandria/1700-Dewitt-Ave-22301/unit-2/home/11844020,BRIGHT MLS,VAAX256608,N,Y,38.8218606,-77.0561091
PAST SALE,April-25-2019,Single Family Residential,312 Rucker Pl,Alexandria,VA,22301,1260000,3,2.5,ROSEMONT,3337,7723,1935,955,378,,Sold,,,https://www.redfin.com/VA/Alexandria/312-Rucker-Pl-22301/home/11847934,BRIGHT MLS,VAAX227514,N,Y,38.8123025,-77.0683412
PAST SALE,March-13-2019,Townhouse,2013 Jefferson Davis Hwy #102,Alexandria,VA,22301,799900,3,2.5,POTOMAC  YARDS,2885,,2014,998,277,353,Sold,,,https://www.redfin.com/VA/Alexandria/2013-Richmond-Hwy-22301/unit-102/home/113546541,BRIGHT MLS,VAAX209480,N,Y,38.8251738,-77.0499157
PAST SALE,November-12-2021,Townhouse,532 E Glendale Ave,Alexandria,VA,22301,625000,2,1.0,BRENTON,810,1380,1945,23,772,,Sold,,,https://www.redfin.com/VA/Alexandria/532-E-Glendale-Ave-22301/home/11843701,BRIGHT MLS,VAAX2004204,N,Y,38.81779,-77.053474
PAST SALE,October-16-2020,Condo/Co-op,307 E Duncan Ave Unit H,Alexandria,VA,22301,247000,1,1.0,ALEXANDRIA SQUARE,437,,1940,415,565,303,Sold,,,https://www.redfin.com/VA/Alexandria/307-E-Duncan-Ave-22301/unit-H/home/11871229,BRIGHT MLS,VAAX250328,N,Y,38.8224172,-77.0550788
PAST SALE,August-27-2021,Townhouse,105 E Raymond Ave Unit A,Alexandria,VA,22301,700000,2,2.0,ABINGDON,1163,2693,1940,100,602,,Sold,,,https://www.redfin.com/VA/Alexandria/105-E-Raymond-Ave-22301/home/11845110,BRIGHT MLS,VAAX2001526,N,Y,38.8300436,-77.0584926
PAST SALE,May-7-2021,Townhouse,1313 Van Valkenburgh Ln,Alexandria,VA,22301,1035000,3,3.5,POTOMAC YARD,2384,989,2016,212,434,116,Sold,,,https://www.redfin.com/VA/Alexandria/1313-Van-Valkenburgh-Ln-22301/home/49794657,BRIGHT MLS,VAAX257934,N,Y,38.8185182,-77.0520752
PAST SALE,August-21-2020,Townhouse,202 Randolph Ave E,Alexandria,VA,22301,735000,2,2.0,ABINGDON,1147,2613,1930,471,641,,Sold,,,https://www.redfin.com/VA/Alexandria/202-E-Randolph-Ave-22301/home/11845154,BRIGHT MLS,VAAX248778,N,Y,38.8297809,-77.056492
PAST SALE,March-17-2021,Single Family Residential,409 E Bellefonte Ave,Alexandria,VA,22301,1002776,3,2.0,DEL RAY,1760,4200,1930,263,570,,Sold,,,https://www.redfin.com/VA/Alexandria/409-E-Bellefonte-Ave-22301/home/11844006,BRIGHT MLS,VAAX255750,N,Y,38.8234662,-77.0532307
PAST SALE,,Single Family Residential,209 W Masonic View Ave,Alexandria,VA,22301,340000,3,3.0,,1994,6000,1928,,171,,,,,https://www.redfin.com/VA/Alexandria/209-W-Masonic-View-Ave-22301/home/11848285,,,N,Y,38.814005,-77.0670371
PAST SALE,,Townhouse,105 Commonwealth Ave,Alexandria,VA,22301,615000,,1.0,,1187,1534,1940,,518,,,,,https://www.redfin.com/VA/Alexandria/105-Commonwealth-Ave-22301/home/11843352,,,N,Y,38.8092205,-77.0603028
PAST SALE,August-19-2019,Townhouse,5 W Caton Ave,Alexandria,VA,22301,565000,2,1.0,GROVES MT,935,2500,1915,839,604,,Sold,,,https://www.redfin.com/VA/Alexandria/5-W-Caton-Ave-22301/home/11847068,BRIGHT MLS,VAAX238876,N,Y,38.8272129,-77.0619105
PAST SALE,March-3-2021,Townhouse,1316 Commonwealth Ave,Alexandria,VA,22301,630000,3,1.5,DEL RAY,1200,2059,1967,277,525,,Sold,,,https://www.redfin.com/VA/Alexandria/1316-Commonwealth-Ave-22301/home/11846433,BRIGHT MLS,VAAX255272,N,Y,38.8180468,-77.0629448
PAST SALE,September-30-2020,Townhouse,518 E Windsor Ave,Alexandria,VA,22301,999950,4,3.5,DEL RAY,3300,4312,1998,431,303,,Sold,,,https://www.redfin.com/VA/Alexandria/518-E-Windsor-Ave-22301/home/11844753,BRIGHT MLS,VAAX246796,N,Y,38.825496,-77.051035
PAST SALE,April-16-2021,Condo/Co-op,1800 Mount Vernon Ave #201,Alexandria,VA,22301,441000,1,1.0,DEL RAY PLACE,625,,2019,233,706,269,Sold,,,https://www.redfin.com/VA/Alexandria/1800-Mt-Vernon-Ave-22301/unit-201/home/171305098,BRIGHT MLS,VAAX2000078,N,Y,38.8225575,-77.0582003
PAST SALE,April-15-2021,Townhouse,22A E Linden St,Alexandria,VA,22301,850000,2,2.0,ROSEMONT,1462,1734,1941,234,581,,Sold,,,https://www.redfin.com/VA/Alexandria/22-E-Linden-St-22301/unit-A/home/28607293,BRIGHT MLS,VAAX258410,N,Y,38.8110161,-77.0594708
PAST SALE,May-21-2021,Townhouse,8 E Chapman St,Alexandria,VA,22301,918000,2,2.5,ROSEMONT PARK,1674,3000,1957,198,548,,Sold,,,https://www.redfin.com/VA/Alexandria/8-E-Chapman-St-22301/home/11846033,BRIGHT MLS,VAAX258166,N,Y,38.8138194,-77.0615064
PAST SALE,November-9-2021,Single Family Residential,2500 King St,Alexandria,VA,22301,895000,3,1.5,GEORGE WASHINGTON PARK,2448,5000,1910,26,366,,Sold,,,https://www.redfin.com/VA/Alexandria/2500-King-St-22301/home/11847916,BRIGHT MLS,VAAX2005440,N,Y,38.8121271,-77.0692856
PAST SALE,May-14-2021,Single Family Residential,310 E Bellefonte Ave,Alexandria,VA,22301,935000,3,1.5,DEL RAY,1515,4485,1932,205,617,,Sold,,,https://www.redfin.com/VA/Alexandria/310-E-Bellefonte-Ave-22301/home/11844537,BRIGHT MLS,VAAX2001772,N,Y,38.8236331,-77.0550747
PAST SALE,June-28-2021,Townhouse,2308 Potomac Ave #101,Alexandria,VA,22301,805000,3,2.5,POTOMAC YARD,1632,,2012,160,493,305,Sold,,,https://www.redfin.com/VA/Alexandria/2308-Potomac-Ave-22301/unit-101/home/49794534,BRIGHT MLS,VAAX2000680,N,Y,38.827367,-77.047938
PAST SALE,May-1-2019,Single Family Residential,2425 King St,Alexandria,VA,22301,1200000,4,3.0,ADAMS ESTATE,3077,5460,1937,949,390,,Sold,,,https://www.redfin.com/VA/Alexandria/2425-King-St-22301/home/11847942,BRIGHT MLS,VAAX227734,N,Y,38.8122776,-77.0688359
PAST SALE,December-16-2020,Townhouse,2005 Richmond Hwy #102,Alexandria,VA,22301,860000,3,2.5,POTOMAC YARD,2885,,2014,354,298,272,Sold,,,https://www.redfin.com/VA/Alexandria/2005-Richmond-Hwy-22301/unit-102/home/68188207,BRIGHT MLS,VAAX252026,N,Y,38.824878,-77.0499223
PAST SALE,July-30-2020,Single Family Residential,214 E Windsor Ave,Alexandria,VA,22301,899900,3,1.5,DEL RAY,1600,2875,1940,493,562,,Sold,,,https://www.redfin.com/VA/Alexandria/214-E-Windsor-Ave-22301/home/28607227,BRIGHT MLS,VAAX247948,N,Y,38.824915,-77.0571884
PAST SALE,March-29-2019,Single Family Residential,118 W Alexandria Ave,Alexandria,VA,22301,1500000,5,3.5,ROSEMONT,4200,5555,2018,982,357,,Sold,,,https://www.redfin.com/VA/Alexandria/118-W-Alexandria-Ave-22301/home/167757203,BRIGHT MLS,VAAX226876,N,Y,38.817823,-77.065578
PAST SALE,May-24-2019,Townhouse,1600 Commonwealth Ave,Alexandria,VA,22301,729001,3,2.5,DEL RAY,1980,2605,1969,926,368,,Sold,,,https://www.redfin.com/VA/Alexandria/1600-Commonwealth-Ave-22301/home/11846238,BRIGHT MLS,VAAX234648,N,Y,38.820217,-77.0633046
PAST SALE,July-10-2019,Townhouse,703 E Howell Ave,Alexandria,VA,22301,1025000,3,4.5,POTOMAC  YARDS,2470,1449,2016,879,415,119,Sold,,,https://www.redfin.com/VA/Alexandria/703-E-Howell-Ave-22301/home/49794631,BRIGHT MLS,VAAX236470,N,Y,38.8244177,-77.0488232
PAST SALE,October-25-2019,Single Family Residential,7 W Wyatt Ave,Alexandria,VA,22301,825000,2,1.5,ROSECREST,1172,5000,1925,772,704,,Sold,,,https://www.redfin.com/VA/Alexandria/7-W-Wyatt-Ave-22301/home/28607289,BRIGHT MLS,VAAX239944,N,Y,38.8266104,-77.0622703
PAST SALE,April-12-2021,Single Family Residential,302 E Del Ray Ave,Alexandria,VA,22301,1100000,3,1.0,DEL RAY,1217,8625,1920,237,904,,Sold,,,https://www.redfin.com/VA/Alexandria/302-E-Del-Ray-Ave-22301/home/11844448,BRIGHT MLS,VAAX258384,N,Y,38.8265267,-77.056154
PAST SALE,June-8-2020,Single Family Residential,410 W Masonic View Ave,Alexandria,VA,22301,1118500,3,3.5,ROSEMONT,2682,5304,1935,545,417,,Sold,,,https://www.redfin.com/VA/Alexandria/410-W-Masonic-View-Ave-22301/home/11847966,BRIGHT MLS,VAAX245756,N,Y,38.8133678,-77.0688808
PAST SALE,,Condo/Co-op,1903 Main Line Blvd,Alexandria,VA,22301,813600,3,3.0,,1904,,2015,,427,,,,,https://www.redfin.com/VA/Alexandria/1903-Main-Line-Blvd-22301/home/113546553,,,N,Y,38.823836,-77.048815
PAST SALE,April-29-2019,Single Family Residential,204 Summers Dr,Alexandria,VA,22301,855000,2,1.5,MOUNT VERNON PARK,1611,4500,1931,951,531,,Sold,,,https://www.redfin.com/VA/Alexandria/204-Summers-Dr-22301/home/11848238,BRIGHT MLS,VAAX227498,N,Y,38.8151502,-77.0668572
PAST SALE,,Single Family Residential,301 E Custis Ave,Alexandria,VA,22301,1474660,6,4.0,,3329,5750,1923,,443,,,,,https://www.redfin.com/VA/Alexandria/301-E-Custis-Ave-22301/home/167756572,,,N,Y,38.8253615,-77.056154
PAST SALE,June-14-2019,Single Family Residential,111 W Nelson Ave,Alexandria,VA,22301,1473176,5,4.5,DEL RAY,1976,6500,1918,905,746,,Sold,,,https://www.redfin.com/VA/Alexandria/111-W-Nelson-Ave-22301/home/11848431,BRIGHT MLS,VAAX235488,N,Y,38.8192032,-77.0650135
PAST SALE,April-19-2021,Townhouse,413 1/2 E Del Ray Ave,Alexandria,VA,22301,701000,2,1.0,DEL RAY,832,2875,1940,230,843,,Sold,,,https://www.redfin.com/VA/Alexandria/413-1-2-E-Del-Ray-Ave-22301/home/177216981,BRIGHT MLS,VAAX257458,N,Y,38.8263469,-77.0533769
PAST SALE,,Single Family Residential,4 W Custis Ave,Alexandria,VA,22301,827000,,5.0,,3498,9694,1930,,236,,,,,https://www.redfin.com/VA/Alexandria/4-W-Custis-Ave-22301/home/11846685,,,N,Y,38.8248402,-77.0627874
PAST SALE,December-20-2018,Single Family Residential,206 Mount Ida Ave,Alexandria,VA,22305,725000,4,2.0,GROVES,2211,9200,1920,1081,328,,Sold,,,https://www.redfin.com/VA/Alexandria/206-W-Mt-Ida-Ave-22305/home/11846987,BRIGHT MLS,VAAX100092,N,Y,38.829516,-77.06497
PAST SALE,February-27-2021,Single Family Residential,300 Hume Ave,Alexandria,VA,22301,1820000,6,5.5,EMMA P HUME,5200,5250,1951,281,350,,Sold,,,https://www.redfin.com/VA/Alexandria/300-Hume-Ave-22301/home/11845031,BRIGHT MLS,VAAX255052,N,Y,38.8313441,-77.0558701
PAST SALE,June-2-2021,Single Family Residential,2615 E Randolph Ave,Alexandria,VA,22301,1075000,4,3.0,ABINGDON,1552,5750,1940,186,693,,Sold,,,https://www.redfin.com/VA/Alexandria/2615-E-Randolph-Ave-22301/home/11845145,BRIGHT MLS,VAAX258562,N,Y,38.8295796,-77.0550747
PAST SALE,April-10-2019,Single Family Residential,103 W Walnut St,Alexandria,VA,22301,865000,3,2.5,ROSEMONT,2364,6000,1974,970,366,,Sold,,,https://www.redfin.com/VA/Alexandria/103-W-Walnut-St-22301/home/11848002,BRIGHT MLS,VAAX227588,N,Y,38.8117934,-77.0645188
PAST SALE,August-14-2020,Townhouse,729 Annie Rose Ave,Alexandria,VA,22301,829000,3,3.5,POTOMAC YARD,1792,1248,2013,478,463,116,Sold,,,https://www.redfin.com/VA/Alexandria/729-Annie-Rose-Ave-22301/home/39967140,BRIGHT MLS,VAAX247956,N,Y,38.8268324,-77.0482794
PAST SALE,July-23-2019,Single Family Residential,15 W Caton Ave,Alexandria,VA,22301,875000,3,2.0,ROSECREST,1380,5000,1938,866,634,,Sold,,,https://www.redfin.com/VA/Alexandria/15-W-Caton-Ave-22301/home/11847075,BRIGHT MLS,VAAX237988,N,Y,38.8274645,-77.06272
PAST SALE,December-31-2018,Single Family Residential,416 E Luray Ave,Alexandria,VA,22301,875000,3,2.0,BRENTON,1972,5000,1939,1070,444,,Sold,,,https://www.redfin.com/VA/Alexandria/416-E-Luray-Ave-22301/home/11844207,BRIGHT MLS,VAAX148062,N,Y,38.8182011,-77.0557624
PAST SALE,November-19-2021,Single Family Residential,210 E Spring St,Alexandria,VA,22301,1440000,5,3.5,DEL RAY,3700,7500,1935,16,389,,Sold,,,https://www.redfin.com/VA/Alexandria/210-E-Spring-St-22301/home/11843787,BRIGHT MLS,VAAX2000057,N,Y,38.8159903,-77.0589424
PAST SALE,,Condo/Co-op,400 Commonwealth Ave #102,Alexandria,VA,22301,295000,1,1.0,,540,,1938,,546,,,,,https://www.redfin.com/VA/Alexandria/400-Commonwealth-Ave-22301/unit-102/home/11879451,,,N,Y,38.8116885,-77.0617805
PAST SALE,,Single Family Residential,18 W Masonic View Ave,Alexandria,VA,22301,1190000,3,4.0,,1904,4752,1933,,625,,,,,https://www.redfin.com/VA/Alexandria/18-W-Masonic-View-Ave-22301/home/11845990,,,N,Y,38.8139407,-77.0637768
PAST SALE,,Townhouse,2102 Main Line Blvd,Alexandria,VA,22301,1300000,3,5.0,,3314,1879,2014,,392,,,,,https://www.redfin.com/VA/Alexandria/2102-Main-Line-Blvd-22301/home/49794581,,,N,Y,38.8255325,-77.0494404
PAST SALE,,Condo/Co-op,6 E Monroe Ave,Alexandria,VA,22301,3900000,,,,17292,,1963,,226,,,,,https://www.redfin.com/VA/Alexandria/6-E-Monroe-Ave-22301/home/11846252,,,N,Y,38.820377,-77.0624519
PAST SALE,March-19-2021,Single Family Residential,111 E Alexandria Ave,Alexandria,VA,22301,1900000,6,5.0,BRENTON,3949,6000,1920,261,481,,Sold,,,https://www.redfin.com/VA/Alexandria/111-E-Alexandria-Ave-22301/home/11846464,BRIGHT MLS,VAAX257292,N,Y,38.8181788,-77.0607188
PAST SALE,May-22-2019,Single Family Residential,515 E Windsor Ave,Alexandria,VA,22301,1460000,6,4.5,DEL RAY,4200,5750,2008,928,348,,Sold,,,https://www.redfin.com/VA/Alexandria/515-E-Windsor-Ave-22301/home/17061996,BRIGHT MLS,VAAX207126,N,Y,38.825067,-77.051027
PAST SALE,September-29-2021,Condo/Co-op,306 Duncan Ave E Unit E,Alexandria,VA,22301,217000,1,1.0,ALEXANDRIA SQUARE,437,,1940,67,497,339,Sold,,,https://www.redfin.com/VA/Alexandria/306-E-Duncan-Ave-22301/unit-E/home/11871218,BRIGHT MLS,VAAX260902,N,Y,38.8227334,-77.0553191
PAST SALE,June-18-2021,Single Family Residential,15 W Myrtle St,Alexandria,VA,22301,975000,3,1.0,TEMPLE PARK,1344,6348,1934,170,725,,Sold,,,https://www.redfin.com/VA/Alexandria/15-W-Myrtle-St-22301/home/11845883,BRIGHT MLS,VAAX2000452,N,Y,38.8149428,-77.0635744
PAST SALE,November-10-2020,Townhouse,1751 N Cliff St,Alexandria,VA,22301,637777,2,2.0,CLIFF GARDENS,1360,,1955,390,469,167,Sold,,,https://www.redfin.com/VA/Alexandria/1751-N-Cliff-St-22301/home/11846178,BRIGHT MLS,VAAX251952,N,Y,38.822091,-77.060269
PAST SALE,,Single Family Residential,12 W Masonic View Ave,Alexandria,VA,22301,1220750,,3.0,,2741,4752,1925,,445,,,,,https://www.redfin.com/VA/Alexandria/12-W-Masonic-View-Ave-22301/home/11845993,,,N,Y,38.8139831,-77.0632596
PAST SALE,,Single Family Residential,305 E Oxford Ave,Alexandria,VA,22301,1748791,,2.0,,1188,5750,1930,,1472,,,,,https://www.redfin.com/VA/Alexandria/305-E-Oxford-Ave-22301/home/11844430,,,N,Y,38.8268703,-77.0560155
PAST SALE,September-19-2019,Townhouse,2107 Main Line Blvd #101,Alexandria,VA,22301,734900,3,2.5,POTOMAC YARD,1767,1767,2013,808,416,321,Sold,,,https://www.redfin.com/VA/Alexandria/2107-Main-Line-Blvd-22301/unit-101/home/55740469,BRIGHT MLS,VAAX239104,N,Y,38.825802,-77.049083
PAST SALE,December-21-2020,Single Family Residential,308 Summers Dr,Alexandria,VA,22301,1350000,3,4.0,ROSEMONT,2678,5000,1934,349,504,,Sold,,,https://www.redfin.com/VA/Alexandria/308-Summers-Dr-22301/home/11848231,BRIGHT MLS,VAAX252710,N,Y,38.8150453,-77.0680714
PAST SALE,August-15-2019,Single Family Residential,211 E Monroe Ave,Alexandria,VA,22301,920000,3,2.0,COTTAGE PARK,1367,5200,1928,843,673,,Sold,,,https://www.redfin.com/VA/Alexandria/211-E-Monroe-Ave-22301/home/11846321,BRIGHT MLS,VAAX237674,N,Y,38.8201949,-77.059527
PAST SALE,April-1-2021,Condo/Co-op,402 Commonwealth Ave #206,Alexandria,VA,22301,434900,2,1.0,ROSEMONT STATION,990,,1938,248,439,563,Sold,,,https://www.redfin.com/VA/Alexandria/402-Commonwealth-Ave-22301/unit-206/home/35634340,BRIGHT MLS,VAAX256348,N,Y,38.811943,-77.0619121
PAST SALE,September-18-2019,Townhouse,721 Diamond Ave,Alexandria,VA,22301,1150000,5,4.5,POTOMAC YARD,2784,2149,2014,809,413,116,Sold,,,https://www.redfin.com/VA/Alexandria/721-Diamond-Ave-22301/home/39967106,BRIGHT MLS,VAAX237768,N,Y,38.8253315,-77.0483734
PAST SALE,July-7-2021,Townhouse,26 E Linden St Unit A,Alexandria,VA,22301,767000,2,2.0,ROSEMONT,1512,2544,1941,151,507,,Sold,,,https://www.redfin.com/VA/Alexandria/26-E-Linden-St-22301/unit-A/home/12542967,BRIGHT MLS,VAAX260974,N,Y,38.8110022,-77.0592572
PAST SALE,,Single Family Residential,208 Adams Ave,Alexandria,VA,22301,710000,,2.0,,1275,2500,1949,,557,,,,,https://www.redfin.com/VA/Alexandria/208-Adams-Ave-22301/home/11843745,,,N,Y,38.8165718,-77.0590211
PAST SALE,January-8-2019,Townhouse,7 W Caton Ave,Alexandria,VA,22301,690000,2,2.5,GROVES MT,1494,2500,1915,1062,462,,Sold,,,https://www.redfin.com/VA/Alexandria/7-W-Caton-Ave-22301/home/22662613,BRIGHT MLS,VAAX192458,N,Y,38.8272682,-77.0620454
PAST SALE,,Single Family Residential,5 E Howell Ave,Alexandria,VA,22301,940000,,2.0,,2016,6105,1935,,466,,,,,https://www.redfin.com/VA/Alexandria/5-E-Howell-Ave-22301/home/11846811,,,N,Y,38.8233507,-77.0622253
PAST SALE,October-20-2020,Single Family Residential,17 W Glendale Ave,Alexandria,VA,22301,895000,4,2.0,TEMPLE PARK,2294,4900,1934,411,390,,Sold,,,https://www.redfin.com/VA/Alexandria/17-W-Glendale-Ave-22301/home/11845744,BRIGHT MLS,VAAX249928,N,Y,38.8164098,-77.0641141
PAST SALE,March-30-2020,Single Family Residential,128 E Walnut St,Alexandria,VA,22301,1261333,4,3.5,ROSEMONT PARK,3053,4000,2020,615,413,,Sold,,,https://www.redfin.com/VA/Alexandria/128-E-Walnut-St-22301/home/166887952,BRIGHT MLS,VAAX242862,N,Y,38.8126936,-77.0564239
PAST SALE,April-29-2019,Townhouse,8A-A W Chapman St,Alexandria,VA,22301,720000,3,3.0,ROSEMONT PARK,1921,1566,1974,951,375,,Sold,,,https://www.redfin.com/VA/Alexandria/8A-A-W-Chapman-St-22301/home/160562342,BRIGHT MLS,VAAX226290,N,Y,38.81336,-77.06476
PAST SALE,December-3-2019,Single Family Residential,2405 Leslie Ave,Alexandria,VA,22301,1275000,4,3.5,DEL RAY,3206,6050,1935,733,398,,Sold,,,https://www.redfin.com/VA/Alexandria/2405-Leslie-Ave-22301/home/11844584,BRIGHT MLS,VAAX240310,N,Y,38.8275702,-77.0543551
PAST SALE,,Single Family Residential,507 E Windsor Ave,Alexandria,VA,22301,605000,2,1.0,,1105,2280,1940,,548,,,,,https://www.redfin.com/VA/Alexandria/507-E-Windsor-Ave-22301/home/11844765,,,N,Y,38.8250436,-77.0516229
PAST SALE,October-23-2020,Single Family Residential,204 Elm St,Alexandria,VA,22301,1201105,4,3.5,ROSEMONT,2421,5984,1920,408,496,,Sold,,,https://www.redfin.com/VA/Alexandria/204-Elm-St-22301/home/11848076,BRIGHT MLS,VAAX251226,N,Y,38.8119498,-77.0659129
PAST SALE,October-30-2019,Single Family Residential,417 E Custis Ave,Alexandria,VA,22301,769900,2,1.0,DEL RAY,1517,5750,1936,767,508,,Sold,,,https://www.redfin.com/VA/Alexandria/417-E-Custis-Ave-22301/home/11844649,BRIGHT MLS,VAAX239232,N,Y,38.825716,-77.0528704
PAST SALE,March-18-2021,Townhouse,712 Bluemont Ave,Alexandria,VA,22301,1200000,5,4.5,POTOMAC GREENS,2628,1000,2016,262,457,116,Sold,,,https://www.redfin.com/VA/Alexandria/712-Bluemont-Ave-22301/home/113546645,BRIGHT MLS,VAAX255790,N,Y,38.8284943,-77.0491105
PAST SALE,July-5-2019,Townhouse,2306 Potomac Ave #101,Alexandria,VA,22301,735000,3,2.5,POTOMAC  YARDS,1600,,2012,884,459,321,Sold,,,https://www.redfin.com/VA/Alexandria/2306-Potomac-Ave-22301/unit-101/home/49794535,BRIGHT MLS,VAAX236088,N,Y,38.8273088,-77.0480023
PAST SALE,,Condo/Co-op,2319 Richmond Hwy #101,Alexandria,VA,22301,650100,3,3.0,,1704,,2013,,382,,,,,https://www.redfin.com/VA/Alexandria/2319-Richmond-Hwy-22301/unit-101/home/55740405,,,N,Y,38.8273724,-77.0501984
PAST SALE,March-4-2019,Townhouse,702 Diamond Ave,Alexandria,VA,22301,825000,3,2.5,POTOMAC YARD CONDOMINIUM,2558,,2013,1007,323,310,Sold,,,https://www.redfin.com/VA/Alexandria/702-Diamond-Ave-22301/home/55740477,BRIGHT MLS,VAAX209642,N,Y,38.825585,-77.049009
PAST SALE,October-29-2021,Townhouse,103 Commonwealth Ave,Alexandria,VA,22301,815000,2,2.0,ROSEMONT,1490,2200,1940,37,547,,Sold,,,https://www.redfin.com/VA/Alexandria/103-Commonwealth-Ave-22301/home/11843351,BRIGHT MLS,VAAX2004250,N,Y,38.8091778,-77.0602803
PAST SALE,March-19-2021,Townhouse,23 E Braddock Rd,Alexandria,VA,22301,780000,3,3.0,ROSEMONT PARK,1800,,2012,261,433,,Sold,,,https://www.redfin.com/VA/Alexandria/23-E-Braddock-Rd-22301/unit-1/home/49794532,BRIGHT MLS,VAAX251854,N,Y,38.8152326,-77.0604264
PAST SALE,June-12-2019,Single Family Residential,115 W Maple St,Alexandria,VA,22301,1250000,5,4.0,ROSEMONT,3613,6000,1925,907,346,,Sold,,,https://www.redfin.com/VA/Alexandria/115-W-Maple-St-22301/home/11843181,BRIGHT MLS,VAAX227522,N,Y,38.8108143,-77.0654632
PAST SALE,February-22-2019,Townhouse,28 W Caton Ave,Alexandria,VA,22301,625000,2,2.0,GROVES MT,1252,2250,1940,1017,499,,Sold,,,https://www.redfin.com/VA/Alexandria/28-W-Caton-Ave-22301/home/11846499,BRIGHT MLS,VAAX193100,N,Y,38.8273569,-77.063614
PAST SALE,June-3-2021,Townhouse,411 E Howell Ave,Alexandria,VA,22301,700000,3,1.0,RIVER TERRACE,1296,2875,1940,185,540,,Sold,,,https://www.redfin.com/VA/Alexandria/411-E-Howell-Ave-22301/home/28607225,BRIGHT MLS,VAAX258250,N,Y,38.8241376,-77.0531887
PAST SALE,January-21-2020,Single Family Residential,111 E Luray Ave,Alexandria,VA,22301,1045000,4,3.0,BRENTON,2574,5000,1930,684,406,,Sold,,,https://www.redfin.com/VA/Alexandria/111-E-Luray-Ave-22301/home/11845782,BRIGHT MLS,VAAX239736,N,Y,38.8174729,-77.0603365
PAST SALE,,Townhouse,2106 Main Line Blvd,Alexandria,VA,22301,1075000,4,4.5,,3314,1779,2014,,324,,,,,https://www.redfin.com/VA/Alexandria/2106-Main-Line-Blvd-22301/home/49794583,,,N,Y,38.8256536,-77.0494528
PAST SALE,February-14-2019,Single Family Residential,1 E Bellefonte Ave,Alexandria,VA,22301,999900,4,3.5,DEL RAY,3456,3668,1990,1025,289,,Sold,,,https://www.redfin.com/VA/Alexandria/1-E-Bellefonte-Ave-22301/home/11869914,BRIGHT MLS,VAAX193120,N,Y,38.8226528,-77.0628099
PAST SALE,March-12-2020,Townhouse,1A W Uhler Ave,Alexandria,VA,22301,795000,3,2.5,DEL RAY,1494,2550,1976,633,532,,Sold,,,https://www.redfin.com/VA/Alexandria/1-W-Uhler-Ave-22301/unit-A/home/148713770,BRIGHT MLS,VAAX243542,N,Y,38.827792,-77.06137
PAST SALE,June-10-2021,Single Family Residential,302 E Alexandria Ave,Alexandria,VA,22301,1250000,5,3.0,BRENTON,2312,5240,1930,178,541,,Sold,,,https://www.redfin.com/VA/Alexandria/302-E-Alexandria-Ave-22301/home/11846410,BRIGHT MLS,VAAX259908,N,Y,38.8187576,-77.0581778
PAST SALE,December-3-2021,Townhouse,211 Commonwealth Ave,Alexandria,VA,22301,725000,2,2.0,ROSEMONT,1257,1533,1940,2,577,,Sold,,,https://www.redfin.com/VA/Alexandria/211-Commonwealth-Ave-22301/home/11843332,BRIGHT MLS,VAAX2002594,N,Y,38.8104402,-77.0606963
PAST SALE,August-27-2020,Townhouse,728 Diamond Ave,Alexandria,VA,22301,1049000,3,3.5,POTOMAC YARD,2454,1565,2013,465,427,116,Sold,,,https://www.redfin.com/VA/Alexandria/728-Diamond-Ave-22301/home/39967164,BRIGHT MLS,VAAX246362,N,Y,38.8256917,-77.0480923
PAST SALE,March-31-2021,Single Family Residential,9 W Monroe Ave,Alexandria,VA,22301,1357000,4,3.0,DEL RAY,2624,6969,1930,249,517,,Sold,,,https://www.redfin.com/VA/Alexandria/9-W-Monroe-Ave-22301/home/11846241,BRIGHT MLS,VAAX256540,N,Y,38.8202073,-77.0639342
PAST SALE,May-10-2019,Townhouse,412 E Duncan Ave,Alexandria,VA,22301,625000,2,2.0,RIVER TERRACE,1326,2040,1940,940,471,,Sold,,,https://www.redfin.com/VA/Alexandria/412-E-Duncan-Ave-22301/home/11844003,BRIGHT MLS,VAAX234166,N,Y,38.8229577,-77.0532645
PAST SALE,December-21-2018,Single Family Residential,107 W Uhler Ter,Alexandria,VA,22301,1375000,4,4.0,GROVES,2980,6219,1930,1080,461,,Sold,,,https://www.redfin.com/VA/Alexandria/107-W-Uhler-Ter-22301/home/11846999,BRIGHT MLS,VAAX192374,N,Y,38.8289369,-77.0643839
PAST SALE,July-9-2020,Townhouse,724 E Custis Ave,Alexandria,VA,22301,1269000,4,3.5,POTOMAC YARD,3280,2064,2013,514,387,116,Sold,,,https://www.redfin.com/VA/Alexandria/724-E-Custis-Ave-22301/home/39967187,BRIGHT MLS,VAAX246854,N,Y,38.8264928,-77.0482497
PAST SALE,May-17-2021,Townhouse,2007 Richmond Hwy #102,Alexandria,VA,22301,935000,3,2.5,POTOMAC YARD,2885,,2014,202,324,272,Sold,,,https://www.redfin.com/VA/Alexandria/2007-Richmond-Hwy-22301/unit-102/home/101387770,BRIGHT MLS,VAAX257918,N,Y,38.8249737,-77.0498878
PAST SALE,,Condo/Co-op,2409 Richmond Hwy #102,Alexandria,VA,22301,825000,3,3.0,,2805,,2016,,294,,,,,https://www.redfin.com/VA/Alexandria/2409-Richmond-Hwy-22301/unit-102/home/113546497,,,N,Y,38.8279361,-77.0502876
PAST SALE,May-14-2021,Townhouse,6 W Caton Ave,Alexandria,VA,22301,740000,3,2.0,GROVES MT,1071,2500,1955,205,691,,Sold,,,https://www.redfin.com/VA/Alexandria/6-W-Caton-Ave-22301/home/11846511,BRIGHT MLS,VAAX258592,N,Y,38.826837,-77.061939
PAST SALE,December-30-2020,Single Family Residential,705 Wayne St,Alexandria,VA,22301,775000,2,1.5,ROSEMONT PARK,1501,4328,1930,340,516,,Sold,,,https://www.redfin.com/VA/Alexandria/705-Wayne-St-22301/home/11843897,BRIGHT MLS,VAAX252094,N,Y,38.8139623,-77.0592234
PAST SALE,October-19-2020,Townhouse,237 E Monroe Ave,Alexandria,VA,22301,755000,3,2.0,BIRDIE MAY MASON,1352,3465,1945,412,558,,Sold,,,https://www.redfin.com/VA/Alexandria/237-E-Monroe-Ave-22301/home/11846344,BRIGHT MLS,VAAX250122,N,Y,38.8203187,-77.0583914
PAST SALE,March-12-2021,Single Family Residential,109 E Walnut St,Alexandria,VA,22301,1455000,4,3.5,ROSEMONT,3246,4400,2013,268,448,,Sold,,,https://www.redfin.com/VA/Alexandria/109-E-Walnut-St-22301/home/11843493,BRIGHT MLS,VAAX254266,N,Y,38.8122422,-77.0577731
PAST SALE,September-28-2021,Condo/Co-op,1707 Dewitt Ave Unit G,Alexandria,VA,22301,285000,1,1.0,ALEXANDRIA SQUARE,509,,1940,68,560,395,Sold,,,https://www.redfin.com/VA/Alexandria/1707-Dewitt-Ave-22301/unit-G/home/11870947,BRIGHT MLS,VAAX2002132,N,Y,38.8223551,-77.0556818
PAST SALE,May-7-2021,Condo/Co-op,1800 Mount Vernon Ave #219,Alexandria,VA,22301,440000,1,1.0,DEL RAY PLACE,599,,2019,212,735,269,Sold,,,https://www.redfin.com/VA/Alexandria/1800-Mt-Vernon-Ave-22301/unit-219/home/171305111,BRIGHT MLS,VAAX259500,N,Y,38.8225575,-77.0582003
PAST SALE,May-2-2019,Townhouse,1400 Wayne St,Alexandria,VA,22301,715000,3,2.5,POTOMAC MEWS,1452,2500,1979,948,492,,Sold,,,https://www.redfin.com/VA/Alexandria/1400-Wayne-St-22301/home/11861980,BRIGHT MLS,VAAX234680,N,Y,38.8187287,-77.0604264
PAST SALE,July-15-2020,Townhouse,1821 Main Line Blvd #101,Alexandria,VA,22301,799000,3,2.5,POTOMAC  YARDS,1890,,2015,508,423,272,Sold,,,https://www.redfin.com/VA/Alexandria/1821-Main-Line-Blvd-22301/unit-101/home/113546574,BRIGHT MLS,VAAX247276,N,Y,38.823679,-77.048799
PAST SALE,July-22-2020,Single Family Residential,121 Hume Ave,Alexandria,VA,22301,1255000,4,4.0,EMMA P HUME,3059,5250,1930,501,410,,Sold,,,https://www.redfin.com/VA/Alexandria/121-Hume-Ave-22301/home/11845052,BRIGHT MLS,VAAX247120,N,Y,38.8308239,-77.0573908
PAST SALE,April-14-2021,Single Family Residential,105 W Masonic View Ave,Alexandria,VA,22301,976000,3,2.5,ROSEMONT,1485,6000,1929,235,657,,Sold,,,https://www.redfin.com/VA/Alexandria/105-W-Masonic-View-Ave-22301/home/11848277,BRIGHT MLS,VAAX256102,N,Y,38.8141299,-77.065643
PAST SALE,June-12-2019,Single Family Residential,1 W Bellefonte Ave,Alexandria,VA,22301,915000,3,2.5,ROSECREST,1940,8257,1928,907,472,,Sold,,,https://www.redfin.com/VA/Alexandria/1-W-Bellefonte-Ave-22301/home/11846802,BRIGHT MLS,VAAX233618,N,Y,38.8229646,-77.0634395
PAST SALE,October-23-2019,Townhouse,205-A E Spring St,Alexandria,VA,22301,681200,2,2.0,TEMPLE PARK,1190,2500,1950,774,572,,Sold,,,https://www.redfin.com/VA/Alexandria/205a-E-Spring-St-22301/home/147008569,BRIGHT MLS,VAAX239164,N,Y,38.8157104,-77.059043
PAST SALE,April-26-2019,Single Family Residential,103 W Howell Ave,Alexandria,VA,22301,925000,4,1.5,ROSECREST,2188,5750,1947,954,423,,Sold,,,https://www.redfin.com/VA/Alexandria/103-W-Howell-Ave-22301/home/11846725,BRIGHT MLS,VAAX226942,N,Y,38.8235329,-77.0649235
PAST SALE,May-26-2021,Single Family Residential,100 E Custis Ave,Alexandria,VA,22301,930000,2,2.0,DEL RAY,1848,4313,1925,193,503,,Sold,,,https://www.redfin.com/VA/Alexandria/100-E-Custis-Ave-22301/home/11846660,BRIGHT MLS,VAAX258566,N,Y,38.8254339,-77.0600217
PAST SALE,June-15-2021,Townhouse,506 E Howell Ave Unit A,Alexandria,VA,22301,720000,2,2.0,RIVER TERRACE,1206,1680,1940,173,597,,Sold,,,https://www.redfin.com/VA/Alexandria/506-E-Howell-Ave-22301/unit-A/home/11844779,BRIGHT MLS,VAAX259528,N,Y,38.8246392,-77.0516004
PAST SALE,June-24-2021,Townhouse,8 W Chapman St,Alexandria,VA,22301,825000,3,3.0,ROSEMONT PARK,2079,2250,1974,164,397,,Sold,,,https://www.redfin.com/VA/Alexandria/8-W-Chapman-St-22301/home/11846054,BRIGHT MLS,VAAX259034,N,Y,38.8133937,-77.0627897
PAST SALE,October-24-2019,Single Family Residential,221 E Mason Ave,Alexandria,VA,22301,840000,2,2.0,COTTAGE PARK,1434,7050,1936,773,586,,Sold,,,https://www.redfin.com/VA/Alexandria/221-E-Mason-Ave-22301/home/11846278,BRIGHT MLS,VAAX238236,N,Y,38.8212247,-77.0589084
PAST SALE,April-25-2019,Single Family Residential,217 E Nelson Ave,Alexandria,VA,22301,1300000,5,2.5,BRENTON,3118,9976,1934,955,417,,Sold,,,https://www.redfin.com/VA/Alexandria/217-E-Nelson-Ave-22301/home/11846394,BRIGHT MLS,VAAX227530,N,Y,38.8193206,-77.0588974
PAST SALE,,Single Family Residential,219 E Oxford Ave,Alexandria,VA,22301,600000,,2.0,,969,4255,1930,,619,,,,,https://www.redfin.com/VA/Alexandria/219-E-Oxford-Ave-22301/home/11844327,,,N,Y,38.8268637,-77.0570085
PAST SALE,August-30-2021,Townhouse,2016 Main Line Blvd,Alexandria,VA,22301,1320000,4,4.5,POTOMAC  YARDS,3560,1879,2014,97,371,116,Sold,,,https://www.redfin.com/VA/Alexandria/2016-Main-Line-Blvd-22301/home/49794524,BRIGHT MLS,VAAX2001508,N,Y,38.825292,-77.0494528
PAST SALE,August-30-2019,Townhouse,43 W Del Ray Ave,Alexandria,VA,22301,725000,4,3.5,OAK CLUSTER,2398,1462,1979,828,302,150,Sold,,,https://www.redfin.com/VA/Alexandria/43-W-Del-Ray-Ave-22301/home/11861969,BRIGHT MLS,VAAX100099,N,Y,38.826552,-77.064809
PAST SALE,October-12-2021,Single Family Residential,16 E Del Ray Ave,Alexandria,VA,22301,1305000,3,3.0,DEL RAY,1888,8625,1920,54,691,,Sold,,,https://www.redfin.com/VA/Alexandria/16-E-Del-Ray-Ave-22301/home/11846583,BRIGHT MLS,VAAX2003278,N,Y,38.8260873,-77.0608312
PAST SALE,August-29-2019,Townhouse,119 E Maple St,Alexandria,VA,22301,815000,3,2.0,ROSEMONT PARK,1837,3450,1949,829,444,,Sold,,,https://www.redfin.com/VA/Alexandria/119-E-Maple-St-22301/home/11843479,BRIGHT MLS,VAAX238482,N,Y,38.8115429,-77.0570357
PAST SALE,October-26-2020,Townhouse,123 E Maple St,Alexandria,VA,22301,685000,3,1.5,ROSEMONT PARK,1260,4127,1949,405,544,,Sold,,,https://www.redfin.com/VA/Alexandria/123-E-Maple-St-22301/home/11843481,BRIGHT MLS,VAAX252456,N,Y,38.8115837,-77.0569186
PAST SALE,December-28-2018,Townhouse,2011 Jefferson Davis Hwy #102,Alexandria,VA,22301,800000,3,2.5,POTOMAC YARD,2885,,2014,1073,277,105,Sold,,,https://www.redfin.com/VA/Alexandria/2011-Jefferson-Davis-HWY-22301/unit-102/home/171732554,BRIGHT MLS,VAAX100130,N,Y,38.82468755,-77.0500502
PAST SALE,August-7-2019,Single Family Residential,111 W Maple St,Alexandria,VA,22301,1745000,5,4.5,ROSEMONT,3900,6000,1925,851,447,,Sold,,,https://www.redfin.com/VA/Alexandria/111-W-Maple-St-22301/home/11843179,BRIGHT MLS,VAAX236926,N,Y,38.8108995,-77.0651484
PAST SALE,July-31-2019,Townhouse,506 E Glendale Ave,Alexandria,VA,22301,700000,3,2.0,BRENTON,1326,1610,1945,858,528,,Sold,,,https://www.redfin.com/VA/Alexandria/506-E-Glendale-Ave-22301/home/11843714,BRIGHT MLS,VAAX238006,N,Y,38.8176899,-77.0543659
PAST SALE,July-30-2021,Townhouse,335 Mount Vernon Ave,Alexandria,VA,22301,689000,2,2.0,ROSEMONT,970,1349,1946,128,710,,Sold,,,https://www.redfin.com/VA/Alexandria/335-Mt-Vernon-Ave-22301/home/11843273,BRIGHT MLS,VAAX260124,N,Y,38.8116742,-77.0563271
PAST SALE,March-15-2021,Single Family Residential,11 W Glendale Ave,Alexandria,VA,22301,1055000,3,2.0,TEMPLE PARK,2327,6030,1954,265,453,,Sold,,,https://www.redfin.com/VA/Alexandria/11-W-Glendale-Ave-22301/home/11845742,BRIGHT MLS,VAAX255668,N,Y,38.8164498,-77.0637543
PAST SALE,October-8-2020,Townhouse,18-1/2 W Wyatt Ave,Alexandria,VA,22301,675000,2,2.0,GROVES MT,1428,2500,1920,423,473,,Sold,,,https://www.redfin.com/VA/Alexandria/18-1-2-W-Wyatt-Ave-22301/home/167110813,BRIGHT MLS,VAAX250128,N,Y,38.826564,-77.063486
PAST SALE,June-28-2019,Townhouse,11-1/2 E Myrtle St,Alexandria,VA,22301,698600,3,1.5,TEMPLE PARK,1155,2500,1960,891,605,,Sold,,,https://www.redfin.com/VA/Alexandria/11-E-Myrtle-St-22301/unit-1-2/home/11845958,BRIGHT MLS,VAAX236208,N,Y,38.814767,-77.061319
PAST SALE,August-2-2019,Single Family Residential,27 W Spring St,Alexandria,VA,22301,740000,3,1.0,TEMPLE PARK,1196,4233,1935,856,619,,Sold,,,https://www.redfin.com/VA/Alexandria/27-W-Spring-St-22301/home/11845850,BRIGHT MLS,VAAX235944,N,Y,38.8155061,-77.0650135
PAST SALE,June-14-2019,Townhouse,48 E Rosemont Ave,Alexandria,VA,22301,572100,2,1.5,ROSEMONT,952,1292,1950,905,601,,Sold,,,https://www.redfin.com/VA/Alexandria/48-E-Rosemont-Ave-22301/home/11843557,BRIGHT MLS,VAAX235274,N,Y,38.8103203,-77.058737
PAST SALE,August-1-2019,Townhouse,109 E Linden St,Alexandria,VA,22301,559000,2,2.0,ROSEMONT,1100,1600,1945,857,508,,Sold,,,https://www.redfin.com/VA/Alexandria/109-E-Linden-St-22301/home/11843307,BRIGHT MLS,VAAX236264,N,Y,38.8107366,-77.0577072
PAST SALE,May-20-2019,Single Family Residential,228 W Windsor Ave,Alexandria,VA,22301,2000000,6,5.5,WINDSOR OAKS,6867,15405,2001,930,291,,Sold,,,https://www.redfin.com/VA/Alexandria/228-W-Windsor-Ave-22301/home/11872068,BRIGHT MLS,VAAX218332,N,Y,38.823436,-77.068168
PAST SALE,September-1-2021,Townhouse,717 Watson St,Alexandria,VA,22301,1285000,4,4.5,POTOMAC YARD,3355,1677,2017,95,383,105,Sold,,,https://www.redfin.com/VA/Alexandria/717-Watson-St-22301/home/112996549,BRIGHT MLS,VAAX2001416,N,Y,38.8287293,-77.0489159
PAST SALE,December-4-2020,Townhouse,231 E Mason Ave,Alexandria,VA,22301,695000,2,1.5,RUST,1350,2310,1939,366,515,,Sold,,,https://www.redfin.com/VA/Alexandria/231-E-Mason-Ave-22301/home/11846283,BRIGHT MLS,VAAX252422,N,Y,38.8212228,-77.0583914
PAST SALE,May-4-2021,Townhouse,510 E Bellefonte Ave E Unit A,Alexandria,VA,22301,711000,2,2.5,RIVER TERRACE,1638,2875,1940,215,434,,Sold,,,https://www.redfin.com/VA/Alexandria/510-E-Bellefonte-Ave-22301/unit-A/home/11844794,BRIGHT MLS,VAAX257262,N,Y,38.8239473,-77.0514317
PAST SALE,October-8-2019,Townhouse,2308 Main Line Blvd,Alexandria,VA,22301,1350000,4,4.5,POTOMAC YARD,4120,2525,2013,789,328,116,Sold,,,https://www.redfin.com/VA/Alexandria/2308-Main-Line-Blvd-22301/home/49733845,BRIGHT MLS,VAAX239400,N,Y,38.8272057,-77.0496777
PAST SALE,May-31-2019,Townhouse,2 E Oxford Ave,Alexandria,VA,22301,817000,3,2.5,DEL RAY,1338,5664,1974,919,611,,Sold,,,https://www.redfin.com/VA/Alexandria/2-E-Oxford-Ave-22301/home/11846535,BRIGHT MLS,VAAX235248,N,Y,38.8268346,-77.0611347
PAST SALE,February-9-2021,Townhouse,2608 E Randolph Ave,Alexandria,VA,22301,577000,2,1.5,ABINGDON,1326,2300,1940,299,435,,Sold,,,https://www.redfin.com/VA/Alexandria/2608-E-Randolph-Ave-22301/home/11845204,BRIGHT MLS,VAAX255104,N,Y,38.82923,-77.055311
PAST SALE,July-13-2020,Single Family Residential,107 W Masonic View Ave,Alexandria,VA,22301,1250000,4,4.0,MOUNT VERNON PARK,2980,6000,1926,510,419,,Sold,,,https://www.redfin.com/VA/Alexandria/107-W-Masonic-View-Ave-22301/home/11848278,BRIGHT MLS,VAAX246584,N,Y,38.8141099,-77.0658229
PAST SALE,July-15-2021,Townhouse,6 E Bellefonte Ave,Alexandria,VA,22301,720000,2,2.0,DEL RAY,1296,2889,1939,143,556,,Sold,,,https://www.redfin.com/VA/Alexandria/6-E-Bellefonte-Ave-22301/home/11846833,BRIGHT MLS,VAAX2000108,N,Y,38.822964,-77.0623602
PAST SALE,April-12-2021,Townhouse,8 E Masonic View Ave Unit 1/2,Alexandria,VA,22301,715000,2,2.0,TEMPLE PARK,1114,2500,1940,237,642,,Sold,,,https://www.redfin.com/VA/Alexandria/8-E-Masonic-View-Ave-22301/unit-1-2/home/11845984,BRIGHT MLS,VAAX258462,N,Y,38.8144495,-77.0616856
PAST SALE,September-16-2021,Townhouse,13 W Chapman St Unit A,Alexandria,VA,22301,902500,3,3.0,ROSEMONT PARK,2268,2950,1974,80,398,,Sold,,,https://www.redfin.com/VA/Alexandria/13-W-Chapman-St-22301/unit-A/home/11846000,BRIGHT MLS,VAAX2002046,N,Y,38.8136655,-77.0634482
PAST SALE,March-19-2020,Single Family Residential,23 E Walnut St,Alexandria,VA,22301,780000,2,1.0,ROSEMONT PARK,1770,4400,1918,626,441,,Sold,,,https://www.redfin.com/VA/Alexandria/23-E-Walnut-St-22301/home/11843419,BRIGHT MLS,VAAX243478,N,Y,38.8121175,-77.059527
PAST SALE,October-28-2020,Townhouse,105 Mount Vernon Ave,Alexandria,VA,22301,615000,2,1.0,ROSEMONT,952,1360,1950,403,646,,Sold,,,https://www.redfin.com/VA/Alexandria/105-Mt-Vernon-Ave-22301/home/11843600,BRIGHT MLS,VAAX251312,N,Y,38.8093115,-77.0584332
PAST SALE,March-29-2021,Single Family Residential,300 Summers Dr,Alexandria,VA,22301,1175000,3,3.0,MOUNT VERNON PARK,2414,5000,1926,251,487,,Sold,,,https://www.redfin.com/VA/Alexandria/300-Summers-Dr-22301/home/11848235,BRIGHT MLS,VAAX255562,N,Y,38.8150902,-77.0673969
PAST SALE,August-17-2021,Townhouse,30 Mount Vernon Ave,Alexandria,VA,22301,720000,2,2.0,ROSEMONT,1642,1955,1951,110,438,,Sold,,,https://www.redfin.com/VA/Alexandria/30-Mt-Vernon-Ave-22301/home/11843643,BRIGHT MLS,VAAX2001118,N,Y,38.8091354,-77.0593206
PAST SALE,July-12-2019,Single Family Residential,7 W Mason Ave,Alexandria,VA,22301,1575000,6,5.0,DEL RAY,3534,7500,1920,877,446,,Sold,,,https://www.redfin.com/VA/Alexandria/7-W-Mason-Ave-22301/home/11848353,BRIGHT MLS,VAAX236874,N,Y,38.8211666,-77.0638892
PAST SALE,December-9-2020,Townhouse,2401 Terrett Ave,Alexandria,VA,22301,815000,3,2.0,DEL RAY,2270,4489,1930,361,359,,Sold,,,https://www.redfin.com/VA/Alexandria/2401-Terrett-Ave-22301/home/11871985,BRIGHT MLS,VAAX252122,N,Y,38.8272795,-77.0553445
PAST SALE,November-1-2019,Townhouse,618 E Custis Ave,Alexandria,VA,22301,1058000,3,4.5,POTOMAC YARD,3011,1412,2014,765,351,116,Sold,,,https://www.redfin.com/VA/Alexandria/618-E-Custis-Ave-22301/home/49794576,BRIGHT MLS,VAAX238552,N,Y,38.826367,-77.0497227
PAST SALE,February-22-2019,Townhouse,313 Mount Vernon Ave,Alexandria,VA,22301,565000,2,2.0,ROSEMONT,1200,1234,1946,1017,471,,Sold,,,https://www.redfin.com/VA/Alexandria/313-Mt-Vernon-Ave-22301/home/11843261,BRIGHT MLS,VAAX226972,N,Y,38.8112065,-77.0566246
PAST SALE,August-19-2021,Single Family Residential,301 W Masonic View Ave,Alexandria,VA,22301,1050000,3,2.0,MOUNT VERNON PARK,2018,6000,1926,108,520,,Sold,,,https://www.redfin.com/VA/Alexandria/301-W-Masonic-View-Ave-22301/home/11848286,BRIGHT MLS,VAAX2002896,N,Y,38.813985,-77.067217
PAST SALE,May-6-2021,Single Family Residential,105 Uhler Ter,Alexandria,VA,22301,1650000,5,4.0,GROVES,3361,6899,2018,213,491,,Sold,,,https://www.redfin.com/VA/Alexandria/105-W-Uhler-Ter-22301/home/160922803,BRIGHT MLS,VAAX259404,N,Y,38.828869,-77.064188
PAST SALE,May-19-2021,Townhouse,12 E Chapman St Unit A,Alexandria,VA,22301,1020000,3,3.5,ROSEMONT,1886,2500,1992,200,541,,Sold,,,https://www.redfin.com/VA/Alexandria/12-E-Chapman-St-22301/unit-A/home/11846030,BRIGHT MLS,VAAX257800,N,Y,38.8138314,-77.061191
PAST SALE,July-3-2020,Single Family Residential,2603 Terrett Ave,Alexandria,VA,22301,750000,3,1.5,ABINGDON,1941,5200,1935,520,386,,Sold,,,https://www.redfin.com/VA/Alexandria/2603-Terrett-Ave-22301/home/11845210,BRIGHT MLS,VAAX247836,N,Y,38.8290375,-77.0556144
PAST SALE,April-26-2021,Townhouse,604 E Alexandria Ave,Alexandria,VA,22301,1060000,3,3.5,POTOMAC YARD,2300,1000,2015,223,461,116,Sold,,,https://www.redfin.com/VA/Alexandria/604-E-Alexandria-Ave-22301/home/49794710,BRIGHT MLS,VAAX257462,N,Y,38.8189687,-77.0517353
PAST SALE,October-4-2019,Single Family Residential,406 E Luray Ave,Alexandria,VA,22301,905000,3,2.5,BRENTON,2414,5000,1930,793,375,,Sold,,,https://www.redfin.com/VA/Alexandria/406-E-Luray-Ave-22301/home/11844212,BRIGHT MLS,VAAX239366,N,Y,38.8181038,-77.0566487
PAST SALE,July-1-2021,Townhouse,561 E Nelson Ave,Alexandria,VA,22301,685000,3,2.0,LINDEN GARDENS,1248,3552,1939,157,549,,Sold,,,https://www.redfin.com/VA/Alexandria/561-E-Nelson-Ave-22301/home/11844155,BRIGHT MLS,VAAX258588,N,Y,38.8197482,-77.0531026
PAST SALE,October-25-2019,Townhouse,31 W Del Ray Ave,Alexandria,VA,22301,825000,3,3.5,OAK CLUSTER,1832,1858,1977,772,450,213,Sold,,,https://www.redfin.com/VA/Alexandria/31-W-Del-Ray-Ave-22301/home/11859131,BRIGHT MLS,VAAX239246,N,Y,38.8266392,-77.0644963
PAST SALE,January-4-2021,Single Family Residential,116 Stewart Ave,Alexandria,VA,22301,1500000,3,3.5,ABINGDON,1684,11250,1925,335,891,,Sold,,,https://www.redfin.com/VA/Alexandria/116-Stewart-Ave-22301/home/11845186,BRIGHT MLS,VAAX253844,N,Y,38.8287323,-77.0575482
PAST SALE,January-6-2021,Townhouse,225 E Monroe Ave,Alexandria,VA,22301,791000,3,2.0,BIRDIE MAY MASON,1469,2205,1945,333,538,,Sold,,,https://www.redfin.com/VA/Alexandria/225-E-Monroe-Ave-22301/home/11846338,BRIGHT MLS,VAAX253744,N,Y,38.8202661,-77.0588187
PAST SALE,September-4-2020,Townhouse,507 E Custis Ave,Alexandria,VA,22301,688500,2,2.0,DEL RAY,1207,2875,1936,457,570,,Sold,,,https://www.redfin.com/VA/Alexandria/507-E-Custis-Ave-22301/home/11844743,BRIGHT MLS,VAAX248826,N,Y,38.8258461,-77.0519325
PAST SALE,May-7-2021,Townhouse,710 E Custis Ave,Alexandria,VA,22301,1400000,5,3.5,POTOMAC YARD,3384,2157,2012,212,414,116,Sold,,,https://www.redfin.com/VA/Alexandria/710-E-Custis-Ave-22301/home/39967181,BRIGHT MLS,VAAX256450,N,Y,38.8264939,-77.0488319
PAST SALE,June-25-2021,Townhouse,2310A E Randolph Ave,Alexandria,VA,22301,685000,2,1.5,DEL RAY,1296,2875,1935,163,529,,Sold,,,https://www.redfin.com/VA/Alexandria/2310-E-Randolph-Ave-22301/unit-A/home/11844598,BRIGHT MLS,VAAX258414,N,Y,38.8272429,-77.0528709
PAST SALE,July-2-2020,Townhouse,220 E Nelson Ave,Alexandria,VA,22301,730000,2,2.5,BIRDIE MAY MASON,1447,2310,1940,521,504,,Sold,,,https://www.redfin.com/VA/Alexandria/220-E-Nelson-Ave-22301/home/11846349,BRIGHT MLS,VAAX245546,N,Y,38.8197174,-77.0588524
PAST SALE,August-25-2021,Townhouse,105 E Del Ray Ave Unit B,Alexandria,VA,22301,724000,3,2.0,DEL RAY,1360,2875,1962,102,532,,Sold,,,https://www.redfin.com/VA/Alexandria/105-E-Del-Ray-Ave-22301/unit-B/home/11846648,BRIGHT MLS,VAAX2001822,N,Y,38.8258178,-77.0596497
PAST SALE,July-30-2020,Single Family Residential,13 W Del Ray Ave,Alexandria,VA,22301,1080000,5,3.0,ROSECREST,2450,5000,1920,493,441,,Sold,,,https://www.redfin.com/VA/Alexandria/13-W-Del-Ray-Ave-22301/home/11846568,BRIGHT MLS,VAAX247690,N,Y,38.8261387,-77.0630797
PAST SALE,March-12-2021,Single Family Residential,2500 Dewitt Ave,Alexandria,VA,22301,1500000,4,3.5,DEL RAY,2656,9422,1930,268,565,,Sold,,,https://www.redfin.com/VA/Alexandria/2500-Dewitt-Ave-22301/home/11844305,BRIGHT MLS,VAAX256218,N,Y,38.8276295,-77.0568511
PAST SALE,,Single Family Residential,109 E Mason Ave,Alexandria,VA,22301,650000,,1.0,,1021,6750,1940,,637,,,,,https://www.redfin.com/VA/Alexandria/109-E-Mason-Ave-22301/home/11846257,,,N,Y,38.8210093,-77.0606963
PAST SALE,October-30-2019,Townhouse,1804 Potomac Ave,Alexandria,VA,22301,820000,3,2.5,POTOMAC  YARDS,2832,,2016,767,290,272,Sold,,,https://www.redfin.com/VA/Alexandria/1804-Potomac-Ave-22305/home/113546540,BRIGHT MLS,VAAX240024,N,Y,38.82315,-77.04862
PAST SALE,September-17-2019,Townhouse,2303-A Burke Ave,Alexandria,VA,22301,715000,2,2.0,DEL RAY,1377,3025,1940,810,519,,Sold,,,https://www.redfin.com/VA/Alexandria/2303-Burke-Ave-22301/unit-A/home/11844606,BRIGHT MLS,VAAX238492,N,Y,38.826903,-77.053259
PAST SALE,December-3-2021,Single Family Residential,800 Junior St,Alexandria,VA,22301,1300000,5,3.0,ROSEMONT,2441,4316,1925,2,533,,Sold,,,https://www.redfin.com/VA/Alexandria/800-Junior-St-22301/home/11848299,BRIGHT MLS,VAAX2000073,N,Y,38.8138901,-77.0685211
PAST SALE,,Condo/Co-op,2107 Main Line Blvd #102,Alexandria,VA,22301,734900,3,3.0,,2930,,2013,,251,,,,,https://www.redfin.com/VA/Alexandria/2107-Main-Line-Blvd-22301/unit-102/home/55740483,,,N,Y,38.825802,-77.049083
PAST SALE,,Townhouse,106 E Glendale Ave,Alexandria,VA,22301,845000,3,2.0,,952,2500,1954,,888,,,,,https://www.redfin.com/VA/Alexandria/106-E-Glendale-Ave-22301/home/11845791,,,N,Y,38.817095,-77.0609829
PAST SALE,October-16-2019,Single Family Residential,209 Uhler Ter,Alexandria,VA,22301,875000,3,1.5,GROVES,1864,4600,1935,781,469,,Sold,,,https://www.redfin.com/VA/Alexandria/209-W-Uhler-Ter-22301/home/11847003,BRIGHT MLS,VAAX239048,N,Y,38.8292588,-77.0654632
PAST SALE,October-30-2020,Condo/Co-op,400 Commonwealth Ave #207,Alexandria,VA,22301,420000,2,1.0,ROSEMONT STATION,900,,1938,401,467,513,Sold,,,https://www.redfin.com/VA/Alexandria/400-Commonwealth-Ave-22301/unit-207/home/11879464,BRIGHT MLS,VAAX250600,N,Y,38.8116885,-77.0617805
PAST SALE,May-30-2019,Townhouse,1501 Hancock Ave,Alexandria,VA,22301,710000,2,2.0,DEL RAY,1230,4200,1940,920,577,,Sold,,,https://www.redfin.com/VA/Alexandria/1501-Hancock-Ave-22301/home/11846295,BRIGHT MLS,VAAX234470,N,Y,38.8192554,-77.0637087
PAST SALE,January-31-2019,Townhouse,704 Little St,Alexandria,VA,22301,856000,4,3.5,TEMPLE PARK,1920,2892,1963,1039,446,,Sold,,,https://www.redfin.com/VA/Alexandria/704-Little-St-22301/home/11843884,BRIGHT MLS,VAAX192908,N,Y,38.8139786,-77.0588201
PAST SALE,August-12-2021,Townhouse,2218 Main Line Blvd,Alexandria,VA,22301,1525000,5,4.5,POTOMAC YARD,4040,2520,2013,115,377,116,Sold,,,https://www.redfin.com/VA/Alexandria/2218-Main-Line-Blvd-22301/home/49794596,BRIGHT MLS,VAAX2001154,N,Y,38.8268453,-77.049599
PAST SALE,December-20-2018,Townhouse,414 Bellefonte Ave E,Alexandria,VA,22301,650000,2,2.0,RIVER TERRACE,1516,2875,1938,1081,429,,Sold,,,https://www.redfin.com/VA/Alexandria/414-E-Bellefonte-Ave-22301/home/11844697,BRIGHT MLS,1009993668,N,Y,38.8238276,-77.0528709
PAST SALE,August-26-2021,Townhouse,33 E Bellefonte Ave,Alexandria,VA,22301,801000,3,2.5,CAYLOR-SPAULDING,1572,2417,1982,101,510,,Sold,,,https://www.redfin.com/VA/Alexandria/33-E-Bellefonte-Ave-22301/home/11866031,BRIGHT MLS,VAAX2001930,N,Y,38.822814,-77.060573
PAST SALE,July-1-2020,Townhouse,2014 Potomac Ave,Alexandria,VA,22301,805000,3,2.5,POTOMAC YARD,1948,,2014,522,413,321,Sold,,,https://www.redfin.com/VA/Alexandria/2014-Potomac-Ave-22301/home/101387787,BRIGHT MLS,VAAX246690,N,Y,38.825426,-77.047805
PAST SALE,June-16-2021,Single Family Residential,10 W Oak St,Alexandria,VA,22301,1200000,4,3.0,ROSEMONT,2144,6650,1938,172,560,,Sold,,,https://www.redfin.com/VA/Alexandria/10-W-Oak-St-22301/home/11843236,BRIGHT MLS,VAAX258062,N,Y,38.8126014,-77.0627649
PAST SALE,August-19-2019,Single Family Residential,108 W Bellefonte Ave,Alexandria,VA,22301,925000,3,2.0,ROSECREST,1632,6875,1933,839,567,,Sold,,,https://www.redfin.com/VA/Alexandria/108-W-Bellefonte-Ave-22301/home/11848337,BRIGHT MLS,VAAX237622,N,Y,38.8224206,-77.0655756
PAST SALE,June-22-2021,Single Family Residential,500 Commonwealth Ave,Alexandria,VA,22301,1175000,5,2.5,ROSEMONT,1736,3600,1936,166,677,,Sold,,,https://www.redfin.com/VA/Alexandria/500-Commonwealth-Ave-22301/home/11843241,BRIGHT MLS,VAAX259966,N,Y,38.8123499,-77.0619555
PAST SALE,August-1-2019,Single Family Residential,12 Rosecrest Ave,Alexandria,VA,22301,1875000,6,5.5,ROSECREST,1064,7770,2019,857,1762,,Sold,,,https://www.redfin.com/VA/Alexandria/12-Rosecrest-Ave-22301/home/11846665,BRIGHT MLS,VAAX238676,N,Y,38.8252149,-77.0637993
PAST SALE,October-23-2020,Single Family Residential,102 E Linden St,Alexandria,VA,22301,822500,2,2.5,ROSEMONT,1160,4600,1918,408,709,,Sold,,,https://www.redfin.com/VA/Alexandria/102-E-Linden-St-22301/home/11843487,BRIGHT MLS,VAAX251060,N,Y,38.8110581,-77.0580541
PAST SALE,August-29-2019,Townhouse,708-B Mount Vernon Ave,Alexandria,VA,22301,750000,3,3.5,DEL RAY,1600,1609,1997,829,469,100,Sold,,,https://www.redfin.com/VA/Alexandria/708B-Mount-Vernon-Ave-22301/home/172951359,BRIGHT MLS,VAAX238012,N,Y,38.8144222,-77.0567247
PAST SALE,September-10-2020,Townhouse,715 Watson St,Alexandria,VA,22301,999000,3,3.5,POTOMAC YARD,2790,1219,2017,451,358,116,Sold,,,https://www.redfin.com/VA/Alexandria/715-Watson-St-22301/home/112996550,BRIGHT MLS,VAAX249622,N,Y,38.8287229,-77.0489988
PAST SALE,March-16-2020,Townhouse,6 E Chapman St,Alexandria,VA,22301,780900,3,3.0,ROSEMONT PARK,1674,3069,1957,629,466,,Sold,,,https://www.redfin.com/VA/Alexandria/6-E-Chapman-St-22301/home/11846034,BRIGHT MLS,VAAX243394,N,Y,38.8138086,-77.0616026
PAST SALE,May-12-2021,Single Family Residential,106 W Howell Ave,Alexandria,VA,22301,1036250,3,2.5,ROSECREST,1908,5750,1934,207,543,,Sold,,,https://www.redfin.com/VA/Alexandria/106-W-Howell-Ave-22301/home/11846785,BRIGHT MLS,VAAX258478,N,Y,38.8232116,-77.0652833
PAST SALE,May-3-2021,Townhouse,1410 Mount Vernon Ave,Alexandria,VA,22301,890000,3,2.0,DEL RAY,1476,2040,1940,216,603,,Sold,,,https://www.redfin.com/VA/Alexandria/1410-Mt-Vernon-Ave-22301/home/11846423,BRIGHT MLS,VAAX257452,N,Y,38.8192823,-77.0576606
PAST SALE,August-19-2020,Townhouse,510 E Luray Ave,Alexandria,VA,22301,665900,2,2.0,BRENTON,1317,1504,1944,473,506,,Sold,,,https://www.redfin.com/VA/Alexandria/510-E-Luray-Ave-22301/home/11844242,BRIGHT MLS,VAAX248156,N,Y,38.818367,-77.054378
PAST SALE,,Single Family Residential,5 W Uhler Ave,Alexandria,VA,22301,690000,,2.0,,1340,5100,1920,,515,,,,,https://www.redfin.com/VA/Alexandria/5-W-Uhler-Ave-22301/home/11847018,,,N,Y,38.8278707,-77.0616856
PAST SALE,October-6-2020,Single Family Residential,106 Summers Dr,Alexandria,VA,22301,1310000,5,5.0,MOUNT VERNON PARK,3467,5000,1927,425,378,,Sold,,,https://www.redfin.com/VA/Alexandria/106-Summers-Dr-22301/home/11848241,BRIGHT MLS,VAAX249760,N,Y,38.8151751,-77.0663626
PAST SALE,November-13-2020,Single Family Residential,415 E Custis Ave,Alexandria,VA,22301,1250000,4,4.5,DEL RAY,2981,5750,1938,387,419,,Sold,,,https://www.redfin.com/VA/Alexandria/415-E-Custis-Ave-22301/home/11844648,BRIGHT MLS,VAAX249300,N,Y,38.8257012,-77.0530958
PAST SALE,May-7-2021,Townhouse,310 E Braddock Rd,Alexandria,VA,22301,880000,4,3.5,MOUNT VERNON GATE,2101,2865,1997,212,419,75,Sold,,,https://www.redfin.com/VA/Alexandria/310-E-Braddock-Rd-22301/home/11873402,BRIGHT MLS,VAAX257822,N,Y,38.8140042,-77.0566433
PAST SALE,December-12-2019,Single Family Residential,2500 Sanford St,Alexandria,VA,22301,746250,3,2.5,GROVES,1540,6409,1952,724,485,,Sold,,,https://www.redfin.com/VA/Alexandria/2500-Sanford-St-22301/home/11846997,BRIGHT MLS,VAAX239960,N,Y,38.8282836,-77.0635744
PAST SALE,,Single Family Residential,204 W Mt Ida Ave,Alexandria,VA,22305,565000,,1.0,,1537,4600,1930,,368,,,,,https://www.redfin.com/VA/Alexandria/204-W-Mt-Ida-Ave-22305/home/11846988,,,N,Y,38.8294333,-77.0648029
PAST SALE,March-16-2020,Single Family Residential,506 Summers Ct,Alexandria,VA,22301,1575000,4,3.5,SUMMIT,4208,8034,1977,629,374,,Sold,,,https://www.redfin.com/VA/Alexandria/506-Summers-Ct-22301/home/11864004,BRIGHT MLS,VAAX243586,N,Y,38.8150265,-77.0711292
PAST SALE,May-19-2020,Townhouse,511 E Bellefonte Ave,Alexandria,VA,22301,681000,2,2.0,RIVER TERRACE,1264,1152,1950,565,539,,Sold,,,https://www.redfin.com/VA/Alexandria/511-E-Bellefonte-Ave-22301/home/11844283,BRIGHT MLS,VAAX245274,N,Y,38.8235494,-77.0517353
PAST SALE,September-27-2019,Single Family Residential,204 Uhler Ter,Alexandria,VA,22301,770000,3,1.5,GROVES,2016,4000,1958,800,382,,Sold,,,https://www.redfin.com/VA/ALEXANDRIA/204-UHLER-TER-22301/home/11847032,BRIGHT MLS,VAAX238612,N,Y,38.828764,-77.065222
PAST SALE,April-10-2020,Single Family Residential,2416 Sanford St,Alexandria,VA,22301,875000,3,3.5,GROVES,1897,5520,1939,604,461,,Sold,,,https://www.redfin.com/VA/Alexandria/2416-Sanford-St-22301/home/11847039,BRIGHT MLS,VAAX244108,N,Y,38.8279773,-77.0637093
PAST SALE,October-15-2020,Single Family Residential,211 E Raymond Ave,Alexandria,VA,22301,976000,6,3.0,ABINGDON,2940,7515,1930,416,332,,Sold,,,https://www.redfin.com/VA/Alexandria/211-E-Raymond-Ave-22301/home/11845134,BRIGHT MLS,VAAX250912,N,Y,38.8302681,-77.0558392
PAST SALE,December-31-2020,Single Family Residential,214 E Randolph Ave,Alexandria,VA,22301,850000,3,1.0,ABINGDON,2122,8357,1930,339,401,,Sold,,,https://www.redfin.com/VA/Alexandria/214-E-Randolph-Ave-22301/home/11845148,BRIGHT MLS,VAAX254548,N,Y,38.829841,-77.0556144
PAST SALE,August-4-2021,Single Family Residential,110 E Randolph Ave,Alexandria,VA,22301,1025000,5,3.0,ABINGDON,2716,7306,1930,123,377,,Sold,,,https://www.redfin.com/VA/Alexandria/110-E-Randolph-Ave-22301/home/11845126,BRIGHT MLS,VAAX260906,N,Y,38.8296366,-77.0580879
PAST SALE,April-17-2020,Single Family Residential,2619 Randolph Ave,Alexandria,VA,22301,1160000,3,2.0,ABINGDON,1230,5002,1930,597,943,,Sold,,,https://www.redfin.com/VA/Alexandria/2619-E-Randolph-Ave-22301/home/171304990,BRIGHT MLS,VAAX244968,N,Y,38.8297593,-77.0553333
PAST SALE,October-11-2021,Townhouse,314 E Mason Ave,Alexandria,VA,22301,870000,4,2.0,BRADDOCK,1609,4440,1942,55,541,,Sold,,,https://www.redfin.com/VA/Alexandria/314-E-Mason-Ave-22301/home/11844025,BRIGHT MLS,VAAX2002834,N,Y,38.8217497,-77.0569012
PAST SALE,August-10-2020,Single Family Residential,3 W Uhler Ave,Alexandria,VA,22301,975000,4,2.0,MOUNT IDA,1849,5100,1922,482,527,,Sold,,,https://www.redfin.com/VA/Alexandria/3-W-Uhler-Ave-22301/home/11847017,BRIGHT MLS,VAAX247616,N,Y,38.8278505,-77.0615058
PAST SALE,May-3-2021,Single Family Residential,2503 Terrett Ave,Alexandria,VA,22301,1318750,4,3.0,ABINGDON,2020,4840,1924,216,653,,Sold,,,https://www.redfin.com/VA/Alexandria/2503-Terrett-Ave-22301/home/11844561,BRIGHT MLS,VAAX2003020,N,Y,38.8280932,-77.0554345
PAST SALE,September-22-2021,Single Family Residential,2007 Commonwealth Ave,Alexandria,VA,22301,852500,3,2.5,DEL RAY,1606,7508,1920,74,531,,Sold,,,https://www.redfin.com/VA/Alexandria/2007-Commonwealth-Ave-22301/home/11846748,BRIGHT MLS,VAAX2003462,N,Y,38.8241745,-77.0624052
PAST SALE,May-29-2020,Townhouse,2719 Mount Vernon Ave,Alexandria,VA,22301,915000,2,2.0,DEL RAY,1640,,2012,555,558,301,Sold,,,https://www.redfin.com/VA/Alexandria/2719-Mt-Vernon-Ave-22301/home/49672932,BRIGHT MLS,VAAX245984,N,Y,38.8295091,-77.0590646
PAST SALE,May-29-2020,Single Family Residential,411 E Timber Branch Pkwy,Alexandria,VA,22302,969000,4,4.5,BRADDOCK HEIGHTS,3150,28644,2021,555,308,,Sold,,,https://www.redfin.com/VA/Alexandria/411-E-Timber-Branch-Pkwy-22302/home/11848229,BRIGHT MLS,VAAX245036,N,Y,38.81637577125512,-77.06846584620989
PAST SALE,,Single Family Residential,105 E Randolph Ave,Alexandria,VA,22301,935000,,2.0,,2990,8250,1928,,313,,,,,https://www.redfin.com/VA/Alexandria/105-E-Randolph-Ave-22301/home/171304991,,,N,Y,38.82923,-77.0584027
PAST SALE,,Single Family Residential,2603 Terrett Ave,Alexandria,VA,22301,1597353,3,2.0,,1941,5206,1935,,823,,,,,https://www.redfin.com/VA/Alexandria/2603-Terrett-Ave-22301/home/175713515,,,N,Y,38.8290375,-77.0556144
PAST SALE,August-6-2021,Townhouse,321 Hume Ave,Alexandria,VA,22301,609000,2,1.0,ST ELMO,986,2625,1950,121,618,,Sold,,,https://www.redfin.com/VA/Alexandria/321-Hume-Ave-22301/home/11845081,BRIGHT MLS,VAAX260460,N,Y,38.8311179,-77.0540989
PAST SALE,February-20-2020,Single Family Residential,316 Hume Ave,Alexandria,VA,22301,825000,3,1.5,WILMAR PARK,1440,5250,1925,654,573,,Sold,,,https://www.redfin.com/VA/Alexandria/316-Hume-Ave-22301/home/11845023,BRIGHT MLS,VAAX243708,N,Y,38.831466,-77.054631
PAST SALE,October-23-2020,Townhouse,314 Hume Ave Unit A,Alexandria,VA,22301,680000,3,1.5,ST ELMO,1377,2625,1963,408,494,,Sold,,,https://www.redfin.com/VA/Alexandria/314-Hume-Ave-22301/unit-A/home/11845024,BRIGHT MLS,VAAX249702,N,Y,38.831453,-77.054761
PAST SALE,,Multi-Family (5+ Unit),2900 Main Line Blvd,Alexandria,VA,22301,44000000,,,,56572,,2015,,778,,,,,https://www.redfin.com/VA/Alexandria/2900-Main-Line-Blvd-22301/home/145284399,,,N,Y,38.8316884,-77.0504198
PAST SALE,,Condo/Co-op,2900 Main Line Blvd Unit R,Alexandria,VA,22301,82000000,,,,217464,,2015,,377,,,,,https://www.redfin.com/VA/Alexandria/2900-Main-Line-Blvd-22301/unit-R/home/113546627,,,N,Y,38.8316884,-77.0504198
PAST SALE,September-18-2020,Single Family Residential,308 E Raymond Ave,Alexandria,VA,22301,733500,3,2.0,WILMAR PARK,1424,5250,1935,443,515,,Sold,,,https://www.redfin.com/VA/Alexandria/308-E-Raymond-Ave-22301/home/11845093,BRIGHT MLS,VAAX247538,N,Y,38.8306918,-77.0547823
PAST SALE,August-14-2020,Townhouse,412 E Raymond Ave Unit B,Alexandria,VA,22301,635000,2,3.5,DEL RAY,1462,2625,1989,478,434,,Sold,,,https://www.redfin.com/VA/Alexandria/412-E-Raymond-Ave-22301/unit-B/home/11869932,BRIGHT MLS,VAAX246548,N,Y,38.8309792,-77.0525111
PAST SALE,May-24-2019,Townhouse,2406 Burke Ave,Alexandria,VA,22301,685000,3,2.0,ABINGDON,1377,3025,1935,926,497,,Sold,,,https://www.redfin.com/VA/Alexandria/2406-Burke-Ave-22301/home/11844573,BRIGHT MLS,VAAX234726,N,Y,38.8277105,-77.0538154
PAST SALE,March-26-2021,Townhouse,2407 Richmond Hwy #102,Alexandria,VA,22301,955000,3,2.5,POTOMAC YARD,2805,,2016,254,340,272,Sold,,,https://www.redfin.com/VA/Alexandria/2407-Richmond-Hwy-22301/unit-102/home/113546637,BRIGHT MLS,VAAX256342,N,Y,38.8279235,-77.0502019
PAST SALE,April-16-2021,Townhouse,204 E Bellefonte Ave Unit A,Alexandria,VA,22301,903500,2,3.5,CAYLOR-SPAULDING,1625,2875,1990,233,556,,Sold,,,https://www.redfin.com/VA/Alexandria/204-E-Bellefonte-Ave-22301/unit-A/home/11844409,BRIGHT MLS,VAAX257040,N,Y,38.8234353,-77.0575343
PAST SALE,December-10-2020,Single Family Residential,400 N View Ter,Alexandria,VA,22301,1525000,5,3.5,ROSEMONT,5267,13000,1910,360,290,,Sold,,,https://www.redfin.com/VA/Alexandria/400-N-View-Ter-22301/home/11843138,BRIGHT MLS,VAAX246078,N,Y,38.8103775,-77.0662277
PAST SALE,November-19-2020,Townhouse,1309 Van Valkenburgh Ln,Alexandria,VA,22301,1005000,3,3.5,POTOMAC YARD,2362,989,2016,381,425,116,Sold,,,https://www.redfin.com/VA/Alexandria/1309-Van-Valkenburgh-Ln-22301/home/49794662,BRIGHT MLS,VAAX252164,N,Y,38.8184365,-77.0521342
PAST SALE,January-29-2021,Townhouse,726 Bluemont Ave,Alexandria,VA,22301,1075000,4,4.5,POTOMAC YARD,2576,1000,2016,310,417,116,Sold,,,https://www.redfin.com/VA/Alexandria/726-Bluemont-Ave-22301/home/108956854,BRIGHT MLS,VAAX254722,N,Y,38.8285349,-77.0486033
PAST SALE,June-7-2021,Townhouse,2109 Main Line Blvd #102,Alexandria,VA,22301,945000,3,2.5,POTOMAC  YARDS,2930,,2013,181,323,125,Sold,,,https://www.redfin.com/VA/Alexandria/2109-Main-Line-Blvd-22301/unit-102/home/52735136,BRIGHT MLS,VAAX259848,N,Y,38.825858,-77.049078
PAST SALE,November-13-2020,Condo/Co-op,400 Commonwealth Ave #203,Alexandria,VA,22301,435000,2,1.0,ROSEMONT STATION,990,,1938,387,439,563,Sold,,,https://www.redfin.com/VA/Alexandria/400-Commonwealth-Ave-22301/unit-203/home/11879460,BRIGHT MLS,VAAX250986,N,Y,38.8116885,-77.0617805
PAST SALE,,Townhouse,710 E Howell Ave,Alexandria,VA,22301,1200000,3,3.5,,2995,1484,2014,,401,,,,,https://www.redfin.com/VA/Alexandria/710-E-Howell-Ave-22301/home/39967199,,,N,Y,38.8249702,-77.0486437
PAST SALE,September-18-2020,Single Family Residential,603 Hilltop Ter,Alexandria,VA,22301,815000,3,2.0,GEORGE WASHINGTON PARK,1806,5000,1940,443,451,,Sold,,,https://www.redfin.com/VA/Alexandria/603-Hilltop-Ter-22301/home/11848014,BRIGHT MLS,VAAX249666,N,Y,38.8113991,-77.0703198
PAST SALE,October-18-2021,Single Family Residential,2514 King St,Alexandria,VA,22301,1940000,7,5.5,GEORGE WASHINGTON PARK,5000,7500,1920,48,388,,Sold,,,https://www.redfin.com/VA/Alexandria/2514-King-St-22301/home/11847910,BRIGHT MLS,VAAX2003468,N,Y,38.8127278,-77.0701624
PAST SALE,January-21-2021,Single Family Residential,207 Duncan Ave,Alexandria,VA,22301,1550000,1,1.0,Alexandria,,4674,,318,,,Sold,,,https://www.redfin.com/VA/Alexandria/207-E-Duncan-Ave-22301/home/143760486,BRIGHT MLS,VAAX255362,N,Y,38.82222,-77.057137
PAST SALE,March-13-2019,Townhouse,2202 Potomac Ave,Alexandria,VA,22301,900000,3,4.0,POTOMAC YARD,2548,1404,2011,998,353,116,Sold,,,https://www.redfin.com/VA/Alexandria/2202-Potomac-Ave-22301/home/39967130,BRIGHT MLS,VAAX209496,N,Y,38.8265438,-77.0478237
PAST SALE,October-20-2020,Single Family Residential,605 N View Ter,Alexandria,VA,22301,1538460,4,4.5,ROSEMONT PARK,1808,5640,1920,411,851,,Sold,,,https://www.redfin.com/VA/Alexandria/605-N-View-Ter-22301/home/11847987,BRIGHT MLS,VAAX252236,N,Y,38.8124475,-77.0667673
PAST SALE,February-26-2021,Single Family Residential,21 E Walnut St,Alexandria,VA,22301,1027500,3,3.0,ROSEMONT PARK,1838,4400,1917,282,559,,Sold,,,https://www.redfin.com/VA/Alexandria/21-E-Walnut-St-22301/home/11843418,BRIGHT MLS,VAAX255554,N,Y,38.8121377,-77.0597069
PAST SALE,February-26-2020,Townhouse,11 E Cliff St,Alexandria,VA,22301,770000,3,2.5,DEL RAY,1771,1428,1968,648,435,,Sold,,,https://www.redfin.com/VA/Alexandria/11-E-Cliff-St-22301/home/11846204,BRIGHT MLS,VAAX243060,N,Y,38.8214108,-77.0625738
PAST SALE,September-18-2020,Townhouse,1930 Main Line Blvd,Alexandria,VA,22301,859900,3,2.5,POTOMAC YARD,2723,,2015,443,316,272,Sold,,,https://www.redfin.com/VA/Alexandria/1930-Main-Line-Blvd-22301/home/113546616,BRIGHT MLS,VAAX249698,N,Y,38.8244344,-77.0492257
PAST SALE,December-12-2018,Condo/Co-op,1807 Dewitt Ave Unit C,Alexandria,VA,22301,239000,1,1.0,ALEXANDRIA SQUARE,509,,1940,1089,470,351,Sold,,,https://www.redfin.com/VA/Alexandria/1807-Dewitt-Ave-22301/unit-C/home/11870968,BRIGHT MLS,1009926104,N,Y,38.8231689,-77.0557718
PAST SALE,May-15-2020,Single Family Residential,224 W Windsor Ave,Alexandria,VA,22301,2300000,6,6.5,WINDSOR OAKS,6450,19940,2001,569,357,,Sold,,,https://www.redfin.com/VA/Alexandria/224-W-Windsor-Ave-22301/home/11872072,BRIGHT MLS,VAAX242634,N,Y,38.8236508,-77.0675816
PAST SALE,May-14-2021,Single Family Residential,2402 Sanford St,Alexandria,VA,22301,770000,3,1.5,MOUNT IDA,1495,5520,1939,205,515,,Sold,,,https://www.redfin.com/VA/Alexandria/2402-Sanford-St-22301/home/11847046,BRIGHT MLS,VAAX252104,N,Y,38.8272542,-77.0640691
PAST SALE,April-30-2021,Single Family Residential,5 W Del Ray Ave,Alexandria,VA,22301,1000000,3,2.5,ROSECREST,1490,5000,1920,219,671,,Sold,,,https://www.redfin.com/VA/Alexandria/5-W-Del-Ray-Ave-22301/home/11846564,BRIGHT MLS,VAAX258152,N,Y,38.8259827,-77.0624052
PAST SALE,November-15-2019,Single Family Residential,2211 Commonwealth Ave,Alexandria,VA,22301,925000,3,2.5,DEL RAY,2934,4229,1992,751,315,,Sold,,,https://www.redfin.com/VA/Alexandria/2211-Commonwealth-Ave-22301/home/11871060,BRIGHT MLS,VAAX240334,N,Y,38.8253596,-77.0618655
PAST SALE,January-6-2021,Single Family Residential,1 E Oxford Ave,Alexandria,VA,22301,1250000,6,3.0,DEL RAY,2844,5750,1998,333,440,,Sold,,,https://www.redfin.com/VA/Alexandria/1-E-Oxford-Ave-22301/home/11846574,BRIGHT MLS,VAAX252568,N,Y,38.8264542,-77.0612359
PAST SALE,January-22-2021,Single Family Residential,26 W Del Ray Ave,Alexandria,VA,22301,777500,2,1.0,ROSECREST,820,5278,1925,317,948,,Sold,,,https://www.redfin.com/VA/Alexandria/26-W-Del-Ray-Ave-22301/home/11846595,BRIGHT MLS,VAAX254314,N,Y,38.8261142,-77.0642939
PAST SALE,March-15-2021,Single Family Residential,16 W Del Ray Ave,Alexandria,VA,22301,815000,3,1.5,ROSECREST,1181,5200,1925,265,690,,Sold,,,https://www.redfin.com/VA/Alexandria/16-W-Del-Ray-Ave-22301/home/11846601,BRIGHT MLS,VAAX253654,N,Y,38.825943,-77.0634845
PAST SALE,October-29-2020,Single Family Residential,19 W Custis Ave,Alexandria,VA,22301,862000,3,2.0,ROSECREST,1408,6050,1918,402,612,,Sold,,,https://www.redfin.com/VA/Alexandria/19-W-Custis-Ave-22301/home/11846669,BRIGHT MLS,VAAX250630,N,Y,38.8250295,-77.0646537
PAST SALE,May-13-2020,Single Family Residential,2201 Russell Rd,Alexandria,VA,22301,810000,3,1.5,ROSECREST,1400,6500,1922,571,579,,Sold,,,https://www.redfin.com/VA/Alexandria/2201-Russell-Rd-22301/home/11846670,BRIGHT MLS,VAAX245264,N,Y,38.8250121,-77.065036
PAST SALE,April-21-2020,Single Family Residential,105 E Oxford Ave,Alexandria,VA,22301,1510000,5,4.5,DEL RAY,3800,4313,2019,593,397,,Sold,,,https://www.redfin.com/VA/Alexandria/105-E-Oxford-Ave-22301/home/11846587,BRIGHT MLS,VAAX243302,N,Y,38.8265337,-77.0597968
PAST SALE,July-5-2020,Single Family Residential,205 E Oxford Ave,Alexandria,VA,22301,1550000,5,4.5,DEL RAY,3378,5750,1930,518,459,,Sold,,,https://www.redfin.com/VA/Alexandria/205-E-Oxford-Ave-22301/home/11844321,BRIGHT MLS,VAAX247372,N,Y,38.8267488,-77.0581329
PAST SALE,August-13-2021,Townhouse,101 E Oxford Ave,Alexandria,VA,22301,729000,3,2.0,DEL RAY,1530,2875,1962,114,476,,Sold,,,https://www.redfin.com/VA/Alexandria/101-E-Oxford-Ave-22301/home/11846584,BRIGHT MLS,VAAX2000672,N,Y,38.826523,-77.0601779
PAST SALE,August-4-2020,Single Family Residential,218 E Custis Ave,Alexandria,VA,22301,733000,2,1.5,DEL RAY,1548,3105,1928,488,474,,Sold,,,https://www.redfin.com/VA/Alexandria/218-E-Custis-Ave-22301/home/11844349,BRIGHT MLS,VAAX249134,N,Y,38.8256884,-77.0569186
PAST SALE,October-30-2020,Townhouse,17 E Del Ray Ave,Alexandria,VA,22301,960000,4,2.0,DEL RAY,2000,5750,1920,401,480,,Sold,,,https://www.redfin.com/VA/Alexandria/17-E-Del-Ray-Ave-22301/home/11846634,BRIGHT MLS,VAAX250698,N,Y,38.8258135,-77.0607188
PAST SALE,January-6-2021,Single Family Residential,20 W Custis Ave,Alexandria,VA,22301,927500,3,2.0,ROSECREST,2157,5750,1926,333,430,,Sold,,,https://www.redfin.com/VA/Alexandria/20-W-Custis-Ave-22301/home/11846677,BRIGHT MLS,VAAX253760,N,Y,38.824738,-77.064204
PAST SALE,September-24-2020,Single Family Residential,211 E Oak St,Alexandria,VA,22301,1500000,5,3.5,ROSEMONT PARK,1040,5000,1939,437,1442,,Sold,,,https://www.redfin.com/VA/Alexandria/211-E-Oak-St-22301/home/11843521,BRIGHT MLS,VAAX251520,N,Y,38.8128854,-77.0581329
PAST SALE,December-17-2020,Single Family Residential,5 W Windsor Ave,Alexandria,VA,22301,1600000,5,4.5,ROSECREST,4205,5750,2008,353,380,,Sold,,,https://www.redfin.com/VA/Alexandria/5-W-Windsor-Ave-22301/home/21648973,BRIGHT MLS,VAAX247216,N,Y,38.8244562,-77.0631247
PAST SALE,November-12-2020,Single Family Residential,19 W Windsor Ave,Alexandria,VA,22301,862106,3,2.0,ROSECREST,1380,5750,1932,388,625,,Sold,,,https://www.redfin.com/VA/Alexandria/19-W-Windsor-Ave-22301/home/11846693,BRIGHT MLS,VAAX251946,N,Y,38.8243513,-77.0643389
PAST SALE,December-17-2020,Townhouse,7 E Howell Ave,Alexandria,VA,22301,770000,3,2.5,DEL RAY,1657,3986,1963,353,465,,Sold,,,https://www.redfin.com/VA/Alexandria/7-E-Howell-Ave-22301/home/11846812,BRIGHT MLS,VAAX253276,N,Y,38.8233936,-77.0620386
PAST SALE,June-30-2021,Single Family Residential,113 W Bellefonte Ave,Alexandria,VA,22301,1005000,5,3.0,ROSECREST,2464,10233,1967,158,408,,Sold,,,https://www.redfin.com/VA/Alexandria/113-W-Bellefonte-Ave-22301/home/11846794,BRIGHT MLS,VAAX259670,N,Y,38.8228099,-77.065643
PAST SALE,June-30-2021,Single Family Residential,1810 Commonwealth Ave,Alexandria,VA,22301,850000,4,2.0,ROSECREST,2393,6333,1951,158,355,,Sold,,,https://www.redfin.com/VA/Alexandria/1810-Commonwealth-Ave-22301/home/11848348,BRIGHT MLS,VAAX260420,N,Y,38.8223618,-77.0634395
PAST SALE,,Condo/Co-op,210 E Windsor Ave,Alexandria,VA,22301,1350000,,,,4922,,1928,,274,,,,,https://www.redfin.com/VA/Alexandria/210-E-Windsor-Ave-22301/home/11844376,,,N,Y,38.8248876,-77.0574807
PAST SALE,March-19-2019,Single Family Residential,308 W Myrtle St,Alexandria,VA,22301,1075000,3,2.5,ROSEMONT,3033,6000,1929,992,354,,Sold,,,https://www.redfin.com/VA/Alexandria/308-W-Myrtle-St-22301/home/11848260,BRIGHT MLS,VAAX169104,N,Y,38.814357,-77.0680264
PAST SALE,,Single Family Residential,105 E Raymond Ave,Alexandria,VA,22301,605700,,2.0,,1120,2693,1940,,541,,,,,https://www.redfin.com/VA/Alexandria/105-E-Raymond-Ave-22301/home/28607359,,,N,Y,38.8300436,-77.0584926
