SALE TYPE,SOLD DATE,PROPERTY TYPE,ADDRESS,CITY,STATE OR PROVINCE,ZIP OR POSTAL CODE,PRICE,BEDS,BATHS,LOCATION,SQUARE FEET,LOT SIZE,YEAR BUILT,DAYS ON MARKET,$/SQUARE FEET,HOA/MONTH,STATUS,NEXT OPEN HOUSE START TIME,NEXT OPEN HOUSE END TIME,URL (SEE https://www.redfin.com/buy-a-home/comparative-market-analysis FOR INFO ON PRICING),SOURCE,MLS#,FAVORITE,INTERESTED,LATITUDE,LONGITUDE
MLS Listing,,Townhouse,1820 Autumn Glo Ter,Severn,MD,21144,479000,3,3.0,BOYERS RIDGE,2656,2160,2014,3,180,95,Active,,,https://www.redfin.com/MD/Severn/1820-Autumn-Glo-Ter-21144/home/52914750,BRIGHT MLS,MDAA2015094,N,Y,39.1378376,-76.7119839
PAST SALE,August-17-2021,Townhouse,7215 Greenfitch Way,Hanover,MD,21076,540000,3,4.0,OXFORD SQUARE,2600,1818,2017,110,208,185,Sold,,,https://www.redfin.com/MD/Hanover/7215-Greenfitch-Way-21076/home/108519278,BRIGHT MLS,MDHW296376,N,Y,39.1833149,-76.7398481
PAST SALE,July-28-2020,Townhouse,7210 Brinley Way,Hanover,MD,21076,450000,3,3.5,OXFORD SQUARE,2360,1558,2015,495,191,185,Sold,,,https://www.redfin.com/MD/Hanover/7210-Brinley-Way-21076/home/95950222,BRIGHT MLS,MDHW281260,N,Y,39.183621,-76.7372707
PAST SALE,June-30-2021,Single Family Residential,1709 Maco Dr,Hanover,MD,21076,650000,4,3.5,RIDGE FOREST GLEN,4898,10016,2004,158,133,21,Sold,,,https://www.redfin.com/MD/Hanover/1709-Maco-Dr-21076/home/10478845,BRIGHT MLS,MDAA468896,N,Y,39.1448304,-76.7195338
PAST SALE,January-31-2019,Condo/Co-op,7559 Stoney Run Dr #203,Hanover,MD,21076,243000,3,2.0,STONEY RUN,1407,1407,2009,1039,173,289,Sold,,,https://www.redfin.com/MD/Hanover/7559-Stoney-Run-Dr-21076/unit-203/home/28499203,BRIGHT MLS,MDAA100906,N,Y,39.149285,-76.724932
PAST SALE,September-29-2020,Single Family Residential,7708 Hennepin Ct,Hanover,MD,21076,665000,5,4.5,CHAPEL RIDGE,5174,9007,2006,432,129,65,Sold,,,https://www.redfin.com/MD/Hanover/7708-Hennepin-Ct-21076/home/10482070,BRIGHT MLS,MDAA444686,N,Y,39.1521845,-76.7186206
PAST SALE,July-7-2021,Single Family Residential,7735 Aragorn Ct,Hanover,MD,21076,430000,4,2.5,HARMANS WOODS,1901,10825,1984,151,226,,Sold,,,https://www.redfin.com/MD/Hanover/7735-Aragorn-Ct-21076/home/10336572,BRIGHT MLS,MDAA469224,N,Y,39.1428218,-76.7157137
PAST SALE,December-11-2020,Townhouse,1115 Bayberry Ln,Hanover,MD,21076,415000,3,3.0,BUCKINGHAM,2000,1400,2012,359,208,108,Sold,,,https://www.redfin.com/MD/Hanover/1115-Bayberry-Ln-21076/home/18988357,BRIGHT MLS,MDAA449092,N,Y,39.1529695,-76.6938865
PAST SALE,December-20-2018,Single Family Residential,1463 Fairbanks Dr,Hanover,MD,21076,309900,3,2.5,HARMANS WOODS,1600,5973,1988,1081,194,,Sold,,,https://www.redfin.com/MD/Hanover/1463-Fairbanks-Dr-21076/home/10337591,BRIGHT MLS,1004101318,N,Y,39.1431514,-76.7040462
PAST SALE,September-8-2021,Townhouse,7865 Crystal Brook Way,Hanover,MD,21076,519000,3,3.5,POINTE AT ARUNDEL PRESER,2530,1804,2012,88,205,120,Sold,,,https://www.redfin.com/MD/Hanover/7865-Crystal-Brook-Way-21076/home/44617246,BRIGHT MLS,MDAA2002492,N,Y,39.1440868,-76.7492421
PAST SALE,October-9-2020,Townhouse,2613 Maple Rock Rd,Hanover,MD,21076,475000,3,2.5,THE ENCLAVE AT ARUNDEL P,2640,1941,2018,422,180,121,Sold,,,https://www.redfin.com/MD/Hanover/2613-Maple-Rock-Rd-21076/home/40015803,BRIGHT MLS,MDAA434764,N,Y,39.1447897,-76.7478876
PAST SALE,July-30-2020,Townhouse,7860 Fletcher Way,Hanover,MD,21076,370000,3,2.5,KATHERINE B EGGERL,1600,1575,2018,493,231,92,Sold,,,https://www.redfin.com/MD/Hanover/7860-Fletcher-Way-21076/home/145644332,BRIGHT MLS,MDAA438694,N,Y,39.1314534,-76.7521649
PAST SALE,February-22-2021,Townhouse,7445 Saint Margarets Blvd,Hanover,MD,21076,525000,4,3.5,OXFORD SQUARE,2332,1818,2016,286,225,185,Sold,,,https://www.redfin.com/MD/Hanover/7445-St-Margarets-Blvd-21076/home/105540459,BRIGHT MLS,MDHW288234,N,Y,39.1837267,-76.7400888
PAST SALE,January-25-2021,Townhouse,2716 Amber Crest Rd,Hanover,MD,21076,466000,3,2.5,POINTE AT ARUNDEL PRESER,2450,2296,2012,314,190,120,Sold,,,https://www.redfin.com/MD/Hanover/2716-Amber-Crest-Rd-21076/home/44628076,BRIGHT MLS,MDAA454240,N,Y,39.1439176,-76.7496824
PAST SALE,February-19-2021,Single Family Residential,1604 Hekla Ln,Hanover,MD,21076,595000,5,3.5,HARMANS RIDGE,3798,4482,2018,289,157,48,Sold,,,https://www.redfin.com/MD/Hanover/1604-Hekla-Ln-21076/home/110085169,BRIGHT MLS,MDAA456528,N,Y,39.1486347,-76.7072484
PAST SALE,November-9-2021,Townhouse,7646 Elmcrest Rd,Hanover,MD,21076,546500,4,3.5,THE ENCLAVE AT ARUNDEL P,2544,1941,2014,26,215,120,Sold,,,https://www.redfin.com/MD/Hanover/7646-Elmcrest-Rd-21076/home/40015641,BRIGHT MLS,MDAA2010908,N,Y,39.1469674,-76.7460742
PAST SALE,May-6-2021,Townhouse,7872 Fletcher Way,Hanover,MD,21076,415000,3,2.5,KATHERINE B EGGERL,1600,1575,2018,213,259,88,Sold,,,https://www.redfin.com/MD/Hanover/7872-Fletcher-Way-21076/home/145644327,BRIGHT MLS,MDAA464016,N,Y,39.131346,-76.752202
PAST SALE,,Single Family Residential,1406 Boulder Ct,Hanover,MD,21076,415000,,2.5,,1746,8591,1987,,238,,,,,https://www.redfin.com/MD/Hanover/1406-Boulder-Ct-21076/home/10337369,,,N,Y,39.1413912,-76.6995359
PAST SALE,May-28-2021,Townhouse,7114 Tilbury Way,Hanover,MD,21076,518000,4,4.5,OXFORD SQUARE,2654,1380,2019,191,195,185,Sold,,,https://www.redfin.com/MD/Hanover/7114-Tilbury-Way-21076/home/165854805,BRIGHT MLS,MDHW292146,N,Y,39.1871175,-76.738103
PAST SALE,October-30-2019,Townhouse,7507 Dogwood Ln,Hanover,MD,21076,372500,3,3.0,BUCKINGHAM,2008,1400,2015,767,186,108,Sold,,,https://www.redfin.com/MD/Hanover/7507-Dogwood-Ln-21076/home/18988364,BRIGHT MLS,MDAA412500,N,Y,39.1532215,-76.6946823
PAST SALE,June-14-2019,Single Family Residential,1460 Mordor Ln,Hanover,MD,21076,374900,6,3.0,HARMANS WOODS,2400,6885,1982,905,156,,Sold,,,https://www.redfin.com/MD/Hanover/1460-Mordor-Ln-21076/home/10336239,BRIGHT MLS,MDAA342962,N,Y,39.1438448,-76.7069327
PAST SALE,June-4-2019,Townhouse,1762 Winsford Ct,Hanover,MD,21076,379900,3,2.5,VILLAGES OF DORCHESTER,2074,2570,2009,915,183,107,Sold,,,https://www.redfin.com/MD/Hanover/1762-Winsford-Ct-21076/home/12521411,BRIGHT MLS,MDAA397294,N,Y,39.1574799,-76.7403368
PAST SALE,December-18-2020,Townhouse,1010 Linden Dr,Hanover,MD,21076,425000,4,3.5,DORCHESTER VIEW,2200,1660,2017,352,193,58,Sold,,,https://www.redfin.com/MD/Hanover/1010-Linden-Dr-21076/home/110083709,BRIGHT MLS,MDAA451968,N,Y,39.1664281,-76.7297752
PAST SALE,September-3-2021,Condo/Co-op,7202 Islip Way Unit A,Hanover,MD,21076,465000,3,2.5,Hanover,2544,,2019,93,183,230,Sold,,,https://www.redfin.com/MD/Hanover/7202-Islip-Way-21076/unit-A/home/170696129,BRIGHT MLS,MDHW2001978,N,Y,39.1850654,-76.739357
PAST SALE,November-12-2020,Townhouse,7501 Moraine Dr,Hanover,MD,21076,375000,4,3.0,RIDGE COMMONS,2052,2282,1997,388,183,90,Sold,,,https://www.redfin.com/MD/Hanover/7501-Moraine-Dr-21076/home/10365514,BRIGHT MLS,MDAA446226,N,Y,39.157939,-76.712666
PAST SALE,July-23-2021,Townhouse,8261 Meadowood Dr,Hanover,MD,21076,555000,4,4.5,SHIPLEY HOMESTEAD,2224,2295,2018,135,250,74,Sold,,,https://www.redfin.com/MD/Hanover/8261-Meadowood-Dr-21076/home/143870917,BRIGHT MLS,MDAA2000450,N,Y,39.136334,-76.738664
PAST SALE,November-22-2021,Townhouse,1518 Hurley Ct,Hanover,MD,21076,505000,4,4.0,VILLAGES OF DORCHESTER,3000,2160,2006,13,168,107,Sold,,,https://www.redfin.com/MD/Hanover/1518-Hurley-Ct-21076/home/17362458,BRIGHT MLS,MDAA2011550,N,Y,39.160234,-76.7339609
PAST SALE,July-17-2020,Townhouse,7557 Maidenhead Dr,Hanover,MD,21076,384900,99,180.0,VILLAGES OF DORCHESTER,1720,2394,2021,506,224,107,Sold,,,https://www.redfin.com/MD/Hanover/7557-Maidenhead-Dr-21076/home/12522400,BRIGHT MLS,MDAA435682,N,Y,39.158674,-76.739057
PAST SALE,June-21-2019,Single Family Residential,1614 Severn Rd,Severn,MD,21144,520000,5,3.5,SEVERN RIDGE,2995,15000,2013,898,174,,Sold,,,https://www.redfin.com/MD/Severn/1614-Severn-Rd-21144/home/40016034,BRIGHT MLS,MDAA394216,N,Y,39.137922786,-76.72008426
PAST SALE,July-20-2020,Townhouse,1502 Rutland Way,Hanover,MD,21076,415000,3,3.0,VILLAGES OF DORCH,2742,2160,2006,503,151,107,Sold,,,https://www.redfin.com/MD/Hanover/1502-Rutland-Way-21076/home/17362509,BRIGHT MLS,MDAA434302,N,Y,39.1609644,-76.733319
PAST SALE,December-4-2020,Townhouse,1441 Misty Lake Ct,Hanover,MD,21076,263000,3,2.5,HARMANS WOODS,1670,2000,1985,366,157,32,Sold,,,https://www.redfin.com/MD/Hanover/1441-Misty-Lake-Ct-21076/home/10337230,BRIGHT MLS,MDAA450762,N,Y,39.143218,-76.698542
PAST SALE,September-21-2021,Single Family Residential,60 Greenknoll Blvd,Hanover,MD,21076,409000,3,2.5,GREENBRIAR,1702,6137,1991,75,240,9,Sold,,,https://www.redfin.com/MD/Hanover/60-Greenknoll-Blvd-21076/home/10335447,BRIGHT MLS,MDAA2006590,N,Y,39.1540771,-76.7083296
PAST SALE,April-26-2019,Townhouse,7241 Fair Oak Dr,Hanover,MD,21076,359500,3,2.5,VILLAGES OF DORCHESTER,2000,1440,2006,954,180,107,Sold,,,https://www.redfin.com/MD/Hanover/7241-Fair-Oak-Dr-21076/home/10482501,BRIGHT MLS,MDAA375848,N,Y,39.1632416,-76.7332077
PAST SALE,April-23-2021,Townhouse,7817 Otterbein Way,Hanover,MD,21076,600000,4,4.5,KATHERINE B EGGERL,3110,2349,2018,226,193,88,Sold,,,https://www.redfin.com/MD/Hanover/7817-Otterbein-Way-21076/home/143870695,BRIGHT MLS,MDAA461044,N,Y,39.134416,-76.751861
PAST SALE,June-26-2020,Single Family Residential,7801 Halehaven Ct,Severn,MD,21144,498000,5,4.5,THE PEACH ORCHARD,3766,15249,1990,527,132,,Sold,,,https://www.redfin.com/MD/Severn/7801-Halehaven-Ct-21144/home/10354036,BRIGHT MLS,MDAA429382,N,Y,39.1397136,-76.7136976
PAST SALE,March-31-2020,Townhouse,2706 Amber Crest Rd,Hanover,MD,21076,405000,3,3.0,POINTE AT ARUNDEL PRESER,2532,1804,2012,614,160,120,Sold,,,https://www.redfin.com/MD/Hanover/2706-Amber-Crest-Rd-21076/home/44628064,BRIGHT MLS,MDAA425626,N,Y,39.1437105,-76.749395
PAST SALE,November-30-2021,Single Family Residential,1625 Deer Meadow Ct,Hanover,MD,21076,580000,4,2.5,RIDGE FOREST,3874,19612,1997,5,150,19,Sold,,,https://www.redfin.com/MD/Hanover/1625-Deer-Meadow-Ct-21076/home/10366330,BRIGHT MLS,MDAA2011670,N,Y,39.1450092,-76.721098
PAST SALE,June-11-2021,Townhouse,3064 Bretons Ridge Way,Hanover,MD,21076,519000,4,3.5,KATHERINE B EGGERL,2344,2430,2020,177,221,91,Sold,,,https://www.redfin.com/MD/Hanover/3064-Bretons-Ridge-Way-21076/home/166051193,BRIGHT MLS,MDAA466372,N,Y,39.134731,-76.753685
PAST SALE,October-15-2020,Townhouse,7855 Patterson Way,Hanover,MD,21076,418000,3,2.5,KATHERINE B EGGERL,2154,1800,2016,416,194,91,Sold,,,https://www.redfin.com/MD/Hanover/7855-Patterson-Way-21076/home/108440386,BRIGHT MLS,MDAA444898,N,Y,39.131405,-76.749457
PAST SALE,May-3-2021,Townhouse,7811 Otterbein Way,Hanover,MD,21076,540000,3,2.5,KATHERINE B EGGERL,3110,1742,2018,216,174,88,Sold,,,https://www.redfin.com/MD/Hanover/7811-Otterbein-Way-21076/home/143870698,BRIGHT MLS,MDAA457976,N,Y,39.134319,-76.751629
PAST SALE,March-13-2020,Townhouse,7534 Stoney Run Dr Unit B,Hanover,MD,21076,329900,3,2.5,STONEY RUN,2730,,2009,632,121,238,Sold,,,https://www.redfin.com/MD/Hanover/7534-Stoney-Run-Dr-21076/unit-B/home/170215502,BRIGHT MLS,MDAA421704,N,Y,39.148728,-76.725602
PAST SALE,November-19-2021,Townhouse,2647 Richmond Way,Hanover,MD,21076,450000,3,2.5,KATHERINE B EGGERL,2300,1800,2017,16,196,91,Sold,,,https://www.redfin.com/MD/Hanover/2647-Richmond-Way-21076/home/110085526,BRIGHT MLS,MDAA2008358,N,Y,39.130547,-76.747318
PAST SALE,August-19-2021,Single Family Residential,7503 Sandalwood Ct,Hanover,MD,21076,393902,3,1.5,SANDALWOOD,2220,7084,1978,108,177,,Sold,,,https://www.redfin.com/MD/Hanover/7503-Sandalwood-Ct-21076/home/10373697,BRIGHT MLS,MDAA2000592,N,Y,39.158034168,-76.70557691
PAST SALE,May-26-2021,Townhouse,1709 Hayle Dr,Hanover,MD,21076,456000,3,3.5,VILLAGES OF DORCHESTER,1757,2713,2007,193,260,107,Sold,,,https://www.redfin.com/MD/Hanover/1709-Hayle-Dr-21076/home/17362715,BRIGHT MLS,MDAA466310,N,Y,39.158296,-76.738125
PAST SALE,January-8-2021,Single Family Residential,14 Greenknoll Blvd,Hanover,MD,21076,400000,3,2.5,GREENBRIAR,2004,5284,1990,331,200,9,Sold,,,https://www.redfin.com/MD/Hanover/14-Greenknoll-Blvd-21076/home/10335359,BRIGHT MLS,MDAA454382,N,Y,39.1532241,-76.7054894
PAST SALE,September-22-2020,Single Family Residential,7721 Suffolk Way,Hanover,MD,21076,523000,4,2.5,WILLOWBEND,2752,7107,2007,439,190,45,Sold,,,https://www.redfin.com/MD/Hanover/7721-Suffolk-Way-21076/home/10482675,BRIGHT MLS,MDAA441240,N,Y,39.1477689,-76.7299997
PAST SALE,March-1-2021,Townhouse,8316 Meadowood Dr,Hanover,MD,21076,525000,3,3.0,SHIPLEY HOMESTEAD,2904,2465,2019,279,181,74,Sold,,,https://www.redfin.com/MD/Hanover/8316-Meadowood-Dr-21076/home/143870877,BRIGHT MLS,MDAA456726,N,Y,39.136407,-76.740479
PAST SALE,June-26-2020,Single Family Residential,1819 Beech Ave,Hanover,MD,21076,329900,3,1.0,LENNOX PARK,2016,16553,1949,527,164,,Sold,,,https://www.redfin.com/MD/Hanover/1819-Beech-Ave-21076/home/10340641,BRIGHT MLS,MDAA435220,N,Y,39.173319,-76.7442707
PAST SALE,October-8-2019,Single Family Residential,1369 Ridge Commons Blvd,Hanover,MD,21076,405000,3,3.5,RIDGE COMMONS,2267,16107,2000,789,179,18,Sold,,,https://www.redfin.com/MD/Hanover/1369-Ridge-Commons-Blvd-21076/home/10365433,BRIGHT MLS,MDAA408300,N,Y,39.156073,-76.7121643
PAST SALE,June-24-2021,Condo/Co-op,7206 Islip Way Unit B,Hanover,MD,21076,415000,3,2.5,OXFORD SQUARE,1651,,2019,164,251,230,Sold,,,https://www.redfin.com/MD/Hanover/7206-Islip-Way-21076/unit-B/home/170696139,BRIGHT MLS,MDHW294668,N,Y,39.184999056,-76.73914632
PAST SALE,September-8-2021,Single Family Residential,2137 Nottoway Dr,Hanover,MD,21076,710000,5,5.0,SHIPLEY,3510,7282,2018,88,202,50,Sold,,,https://www.redfin.com/MD/Hanover/2137-Nottoway-Dr-21076/home/143871154,BRIGHT MLS,MDAA2004836,N,Y,39.1376072,-76.7398612
PAST SALE,February-13-2019,Townhouse,7540 Stoney Run Dr Unit A,Hanover,MD,21076,292000,3,2.5,STONEY RUN,1648,1868,2009,1026,177,221,Sold,,,https://www.redfin.com/MD/Hanover/7540-Stoney-Run-Dr-21076/unit-A/home/166536468,BRIGHT MLS,MDAA283610,N,Y,39.148728,-76.725602
PAST SALE,February-3-2021,Single Family Residential,1503 Gollum Rd,Hanover,MD,21076,425000,4,2.0,HARMANS WOODS,2124,10057,1983,305,200,,Sold,,,https://www.redfin.com/MD/Hanover/1503-Gollum-Rd-21076/home/10336422,BRIGHT MLS,MDAA453878,N,Y,39.1427405,-76.7134099
PAST SALE,July-2-2021,Townhouse,7207 Winding Hills Dr,Hanover,MD,21076,480000,4,3.5,KATHERINE B EGGERL,2950,1600,2014,156,163,88,Sold,,,https://www.redfin.com/MD/Hanover/7207-Winding-Hills-Dr-21076/home/69076128,BRIGHT MLS,MDAA465634,N,Y,39.1321804,-76.7439551
PAST SALE,January-29-2021,Townhouse,2262 Brimstone Pl,Hanover,MD,21076,500000,3,3.5,THE ENCLAVE AT ARUNDEL P,2764,2056,2011,310,181,121,Sold,,,https://www.redfin.com/MD/Hanover/2262-Brimstone-Pl-21076/home/11750856,BRIGHT MLS,MDAA452488,N,Y,39.1476632,-76.7440023
PAST SALE,,Single Family Residential,1523 BURNELL DR,HANOVER,MD,21076,529990,,2.5,,3432,3200,2019,,154,,,,,https://www.redfin.com/MD/HANOVER/1523-BURNELL-DR-21076/home/143871518,,,N,Y,39.150645,-76.727592
PAST SALE,February-28-2019,Single Family Residential,1572 Redhaven Dr,Severn,MD,21144,435000,4,2.5,THE PEACH ORCHARD,2442,16596,1989,1011,178,2,Sold,,,https://www.redfin.com/MD/Severn/1572-Redhaven-Dr-21144/home/10354070,BRIGHT MLS,MDAA301724,N,Y,39.1372228,-76.7128859
PAST SALE,May-22-2019,Townhouse,7554 Stoney Run Dr Unit B,Hanover,MD,21076,322900,3,2.5,STONEY RUN,2715,2935,2010,928,119,225,Sold,,,https://www.redfin.com/MD/Hanover/7554-Stoney-Run-Dr-21076/unit-B/home/40015998,BRIGHT MLS,MDAA394286,N,Y,39.1490159,-76.7256503
PAST SALE,September-22-2021,Townhouse,1514 Hurley Ct,Hanover,MD,21076,508000,4,4.0,VILLAGES OF DORCHESTER,3285,1760,2006,74,155,107,Sold,,,https://www.redfin.com/MD/Hanover/1514-Hurley-Ct-21076/home/17362456,BRIGHT MLS,MDAA2004542,N,Y,39.160339,-76.734037
MLS Listing,,Townhouse,Valley Ford Way,Hanover,MD,21076,428990,3,3.5,PARKSIDE,1687,1000,2022,1,254,88,Active,,,https://www.redfin.com/MD/Hanover/Valley-Ford-WAY-21076/home/175578550,BRIGHT MLS,MDAA2015870,N,Y,39.13302699,-76.75542774
MLS Listing,,Townhouse,7930 Silver Oak Rd,Hanover,MD,21076,450000,3,3.0,POINTE AT ARUNDEL PRESER,2100,1280,2013,2,214,120,Active,,,https://www.redfin.com/MD/Hanover/7930-Silver-Oak-Rd-21076/home/44628004,BRIGHT MLS,MDAA2015648,N,Y,39.1428454,-76.7502559
MLS Listing,,Townhouse,7767 Crystal Brook Way,Hanover,MD,21076,510000,4,3.5,THE ENCLAVE AT ARUNDEL P,1856,2003,2013,3,275,121,Active,,,https://www.redfin.com/MD/Hanover/7767-Crystal-Brook-Way-21076/home/11750885,BRIGHT MLS,MDAA2015046,N,Y,39.147246,-76.74478
MLS Listing,,Townhouse,7565 Crowley St,Hanover,MD,21076,520000,4,3.5,OXFORD SQUARE,2562,1503,2017,3,203,185,Active,December-5-2021 01:00 PM,December-5-2021 03:00 PM,https://www.redfin.com/MD/Hanover/7565-Crowley-St-21076/home/110027192,BRIGHT MLS,MDHW2007088,N,Y,39.1836066,-76.7398201
MLS Listing,,Townhouse,1439 Strahorn Rd,Hanover,MD,21076,390000,2,2.5,Hanover,1600,1040,2019,3,244,99,Active,December-5-2021 01:00 PM,December-5-2021 03:00 PM,https://www.redfin.com/MD/Hanover/1439-Strahorn-Rd-21076/home/166050237,BRIGHT MLS,MDAA2013922,N,Y,39.158443,-76.715803
MLS Listing,,Single Family Residential,7837 Metacomet Rd,Hanover,MD,21076,375000,4,2.0,RIDGEFIELD,1465,15000,1983,6,256,,Active,,,https://www.redfin.com/MD/Hanover/7837-Metacomet-Rd-21076/home/10365867,BRIGHT MLS,MDAA2014662,N,Y,39.1374527,-76.7359743
MLS Listing,,Townhouse,7224 Dorchester Woods Ln,Hanover,MD,21076,458999,3,2.5,DORCHESTER WOODS,2100,1625,2012,12,219,50,Active,,,https://www.redfin.com/MD/Hanover/7224-Dorchester-Woods-Ln-21076/home/40015604,BRIGHT MLS,MDAA2015086,N,Y,39.1643526,-76.7336183
MLS Listing,,Single Family Residential,1953 Pometacom Dr,Hanover,MD,21076,405000,4,3.0,RIDGEFIELD,1726,15000,1983,16,235,,Active,,,https://www.redfin.com/MD/Hanover/1953-Pometacom-Dr-21076/home/10366002,BRIGHT MLS,MDAA2014814,N,Y,39.1440078,-76.7377328
MLS Listing,,Townhouse,2526 Rolling Forest Dr,Hanover,MD,21076,509990,4,3.5,KATHERINE B EGGERL,2446,2248,2014,22,208,88,Active,,,https://www.redfin.com/MD/Hanover/2526-Rolling-Forest-Dr-21076/home/69075987,BRIGHT MLS,MDAA2014292,N,Y,39.1317838,-76.7457135
MLS Listing,,Condo/Co-op,2834 Waverly Creek Ln,Hanover,MD,21076,499990,3,2.5,PARKSIDE,2309,,2021,40,217,268,Active,,,https://www.redfin.com/MD/Unknown/2834-Bakers-Creek-Ln-21076/home/177288274,BRIGHT MLS,MDAA2012966,N,Y,39.134619,-76.749365
MLS Listing,,Condo/Co-op,2832 Waverly Creek Ln,Hanover,MD,21076,413990,3,2.5,PARKSIDE,1581,,2021,40,262,268,Active,,,https://www.redfin.com/MD/Hanover/2832-Waverly-Creek-LN-21076/home/177306227,BRIGHT MLS,MDAA2012964,N,Y,39.134619,-76.749365
MLS Listing,,Vacant Land,1900 Severn Rd,Severn,MD,21144,3490000,,,Severn,,379843,,51,,,Active,,,https://www.redfin.com/MD/Severn/1900-Severn-Rd-21144/home/10320971,BRIGHT MLS,MDAA2012108,N,Y,39.142429,-76.724852
MLS Listing,,Single Family Residential,6444 Hanover Rd,Hanover,MD,21076,619990,4,3.5,Hanover,,7953,2021,56,,42,Active,,,https://www.redfin.com/MD/Hanover/6444-Hanover-Rd-21076/home/64351728,BRIGHT MLS,MDHW2000197,N,Y,39.1942233,-76.7244634
MLS Listing,,Single Family Residential,7416 Thames River Dr,Hanover,MD,21076,749500,6,3.5,VICTORIA LANDING,4634,7200,2009,59,162,85,Active,,,https://www.redfin.com/MD/Hanover/7416-Thames-River-Dr-21076/home/12522424,BRIGHT MLS,MDAA2010860,N,Y,39.1502725,-76.7202503
MLS Listing,,Townhouse,8357 Meadowood Dr,Hanover,MD,21076,599990,3,4.5,SHIPLEY HOMESTEAD,2864,2400,,62,209,74,Active,December-5-2021 01:00 PM,December-5-2021 05:00 PM,https://www.redfin.com/MD/Hanover/8357-Meadowood-Dr-21076/home/176623676,BRIGHT MLS,MDAA2012008,N,Y,39.13496,-76.739425
MLS Listing,,Townhouse,8361 Meadowood Dr,Hanover,MD,21076,594710,3,4.5,SHIPLEY HOMESTEAD,2864,2400,,62,208,74,Active,December-5-2021 01:00 PM,December-5-2021 05:00 PM,https://www.redfin.com/MD/Hanover/8361-Meadowood-Dr-21076/home/174489249,BRIGHT MLS,MDAA2011994,N,Y,39.13496,-76.739425
MLS Listing,,Townhouse,8353 Meadowood Dr,Hanover,MD,21076,619990,3,4.5,SHIPLEY HOMESTEAD,2864,2400,,69,216,74,Active,December-5-2021 01:00 PM,December-5-2021 05:00 PM,https://www.redfin.com/MD/Hanover/8353-Meadowood-Dr-21076/home/174489253,BRIGHT MLS,MDAA2011338,N,Y,39.13496,-76.739425
MLS Listing,,Townhouse,8363 Meadowood Dr,Hanover,MD,21076,569990,3,3.5,SHIPLEY HOMESTEAD,2412,2600,,69,236,74,Active,December-5-2021 01:00 PM,December-5-2021 05:00 PM,https://www.redfin.com/MD/Hanover/8363-Meadowood-Dr-21076/home/174489248,BRIGHT MLS,MDAA2011288,N,Y,39.13496,-76.739425
MLS Listing,,Single Family Residential,108 Chesapeake Mobile Ct,Hanover,MD,21076,55000,2,1.0,CHESAPEAKE MOBILE PARK,1000,4356,1986,72,55,,Active,,,https://www.redfin.com/MD/Hanover/108-Chesapeake-Mobile-Ct-21076/unit-108/home/147465042,BRIGHT MLS,MDAA2011092,N,Y,39.1493925,-76.718921
MLS Listing,,Single Family Residential,8205 Meadowood Dr,Hanover,MD,21076,749500,5,3.5,SHIPLEY HOMESTEAD,4081,5097,2018,74,184,58,Active,,,https://www.redfin.com/MD/Hanover/8205-Meadowood-Dr-21076/home/143870965,BRIGHT MLS,MDAA2010870,N,Y,39.133878,-76.735539
MLS Listing,,Townhouse,7120 Tilbury Way,Hanover,MD,21076,475000,3,3.5,OXFORD SQUARE,2014,1080,2019,75,236,189,Active,,,https://www.redfin.com/MD/Hanover/7120-Tilbury-Way-21076/home/165824884,BRIGHT MLS,MDHW2005004,N,Y,39.1872062,-76.7382401
MLS Listing,,Townhouse,Mine Run Rd,Hanover,MD,21076,537990,4,3.5,PARKSIDE,2700,,2022,101,199,88,Active,,,https://www.redfin.com/MD/Hanover/Mine-Run-RD-21076/home/174793267,BRIGHT MLS,MDAA2008234,N,Y,39.13302048,-76.75583035
MLS Listing,,Vacant Land,Dorsey Rd,Hanover,MD,21076,180000,,,Hanover,,22651,,163,,,Active,,,https://www.redfin.com/MD/HANOVER/DORSEY-RD-21076/home/10340629,BRIGHT MLS,MDAA2001432,N,Y,39.176296,-76.742114
MLS Listing,,Townhouse,1904 Red Jasper Rd,Hanover,MD,21076,513990,3,2.5,THE RIDGE,2189,1500,2021,195,235,95,Active,,,https://www.redfin.com/MD/Hanover/1904-Red-Jasper-Rd-21076/home/167633362,BRIGHT MLS,MDAA469540,N,Y,39.191883,-76.7033753
MLS Listing,,Townhouse,1906 Red Jasper Rd,Hanover,MD,21076,460990,3,2.5,THE RIDGE,2059,1500,2021,195,224,95,Active,,,https://www.redfin.com/MD/Hanover/1906-Red-Jasper-Rd-21076/home/167633360,BRIGHT MLS,MDAA469536,N,Y,39.191883,-76.7033753
MLS Listing,,Condo/Co-op,2802 Brewers Crossing Ln,Hanover,MD,21076,456990,3,2.5,PARKSIDE,2309,,2021,282,198,268,Active,,,https://www.redfin.com/MD/Hanover/2802-Brewers-Crossing-LN-21076/home/174552673,BRIGHT MLS,MDAA460108,N,Y,39.13483091,-76.74937999
MLS Listing,,Condo/Co-op,2800 Brewers Crossing Ln,Hanover,MD,21076,389990,3,2.5,PARKSIDE,1581,,2021,282,247,268,Active,,,https://www.redfin.com/MD/Hanover/2800-Brewers-Crossing-Ln-21076/home/174552619,BRIGHT MLS,MDAA2000178,N,Y,39.1345637,-76.7509644
MLS Listing,,Vacant Land,7320 Race Rd,Hanover,MD,21076,2812000,,,Hanover,,330184,,284,,,Active,,,https://www.redfin.com/MD/Hanover/7320-Race-Rd-21076/home/10387241,BRIGHT MLS,MDAA2000034,N,Y,39.1762591,-76.7358391
New Construction Home,,Condo/Co-op,2838 Waverly Creek Ln,Hanover,MD,21076,494990,3,2.5,Parkside,2309,,2021,17,214,,Active,,,https://www.redfin.com/MD/Unknown/2838-Split-Creek-Ln-21076/home/177271872,NewHomeSource.com,2108322,N,Y,39.134619,-76.749365
New Construction Plan,,Townhouse,Strauss,Hanover,MD,21076,504990,3,2.5,Parkside Reserve,2285,,,,221,,Active,,,https://www.redfin.com/MD/Hanover/Parkside-Reserve/Strauss/home/177499587,NewHomeSource.com,Plan-181782919,N,Y,39.131169,-76.755562
New Construction Plan,,Townhouse,Mozart,Hanover,MD,21076,489990,3,2.5,Parkside Reserve,1943,,,,252,,Active,,,https://www.redfin.com/MD/Hanover/Parkside-Reserve/Mozart/home/177490007,NewHomeSource.com,Plan-181782918,N,Y,39.131169,-76.755562
New Construction Plan,,Townhouse,Potomac,Hanover,MD,21076,458990,3,2.5,The Ridge,2059,,,,223,,Active,,,https://www.redfin.com/MD/Hanover/The-Ridge/Potomac/home/177068953,NewHomeSource.com,Plan-181768839,N,Y,39.1932475,-76.7030775
New Construction Plan,,Townhouse,St. Michael (Ext.),Hanover,MD,21076,512990,3,2.5,The Ridge,2189,,,,234,,Active,,,https://www.redfin.com/MD/Hanover/The-Ridge/St-Michael-Ext/home/177068954,NewHomeSource.com,Plan-181768838,N,Y,39.1932475,-76.7030775
New Construction Plan,,Townhouse,Serenade,Hanover,MD,21076,555990,3,2.5,Parkside Reserve,2178,,,,255,,Active,,,https://www.redfin.com/MD/Hanover/Parkside-Reserve/Serenade/home/177481288,NewHomeSource.com,Plan-181901343,N,Y,39.131169,-76.755562
New Construction Plan,,Multi-Family (2-4 Unit),The Everett,Hanover,MD,21076,569990,3,3.5,Shipley Homestead,2412,,,,236,,Active,,,https://www.redfin.com/MD/Hanover/Shipley-Homestead/The-Everett/home/177436618,NewHomeSource.com,Plan-181892030,N,Y,39.13496,-76.739425
New Construction Plan,,Townhouse,Clarendon,Hanover,MD,21076,422990,3,3.5,Parkside Row,1687,,,,251,,Active,,,https://www.redfin.com/MD/Hanover/Parkside-Row/Clarendon/home/177063336,NewHomeSource.com,Plan-171903487,N,Y,39.13019,-76.754835
New Construction Plan,,Condo/Co-op,Riva,Hanover,MD,21076,383990,2,2.5,Parkside,1581,,,,243,,Active,,,https://www.redfin.com/MD/Unknown/Parkside/Riva/home/176074460,NewHomeSource.com,Plan-171881435,N,Y,39.134619,-76.749365
New Construction Plan,,Condo/Co-op,Taylor,Hanover,MD,21076,449990,3,2.5,Parkside,2309,,,,195,,Active,,,https://www.redfin.com/MD/Unknown/Parkside/Taylor/home/176074461,NewHomeSource.com,Plan-171881434,N,Y,39.134619,-76.749365
PAST SALE,,Townhouse,2616 Maple Rock Rd,Hanover,MD,21076,500000,,2.5,,2016,1423,2017,,248,,,,,https://www.redfin.com/MD/Hanover/2616-Maple-Rock-Rd-21076/home/40015785,,,N,Y,39.1450703,-76.7477761
PAST SALE,December-16-2020,Townhouse,2566 Debert Cir,Hanover,MD,21076,498984,3,3.5,SHIPLEY,2300,1742,2020,354,217,90,Sold,,,https://www.redfin.com/MD/Hanover/2566-Debert-Cir-21076/home/143871088,BRIGHT MLS,MDAA455676,N,Y,39.137542,-76.741404
PAST SALE,May-21-2021,Single Family Residential,7713 Suffolk Way,Hanover,MD,21076,567100,5,3.5,WILLOWBEND,3437,7750,2007,198,165,35,Sold,,,https://www.redfin.com/MD/Hanover/7713-Suffolk-Way-21076/home/10482679,BRIGHT MLS,MDAA462976,N,Y,39.148455,-76.729887
PAST SALE,June-30-2019,Townhouse,2804 Etley Ct,Hanover,MD,21076,386590,3,3.5,SHIPLEY HOMESTEAD,1584,1742,2019,889,244,74,Sold,,,https://www.redfin.com/MD/HANOVER/2804-ETLEY-CT-21076/home/143870988,BRIGHT MLS,MDAA378436,N,Y,39.134839,-76.743698
PAST SALE,June-20-2019,Townhouse,1437 Pangbourne Way,Hanover,MD,21076,327000,4,2.5,VILLAGES OF DORCHESTER,2414,1600,2005,899,135,102,Sold,,,https://www.redfin.com/MD/Hanover/1437-Pangbourne-Way-21076/home/10480168,BRIGHT MLS,MDAA395130,N,Y,39.1622086,-76.7300727
PAST SALE,December-11-2018,Single Family Residential,7715 Hennepin Ct,Hanover,MD,21076,465000,5,3.5,CHAPEL RIDGE,2928,11131,2006,1090,159,75,Sold,,,https://www.redfin.com/MD/Hanover/7715-Hennepin-Ct-21076/home/10482074,BRIGHT MLS,1009941436,N,Y,39.152772,-76.7191859
PAST SALE,February-28-2020,Townhouse,2718 Wessex Cir #031,Hanover,MD,21076,411820,3,2.5,SHIPLEY HOMESTEAD,1968,1742,2019,646,209,74,Sold,,,https://www.redfin.com/MD/Hanover/2718-Wessex-Cir-21076/unit-31/home/167186407,BRIGHT MLS,MDAA415250,N,Y,39.133485,-76.736257
PAST SALE,August-5-2021,Single Family Residential,1443 Boulder Ln,Hanover,MD,21076,450000,4,2.5,HARMANS WOODS,2138,6201,1987,122,210,,Sold,,,https://www.redfin.com/MD/Hanover/1443-Boulder-Ln-21076/home/10337349,BRIGHT MLS,MDAA466312,N,Y,39.1427042,-76.7033618
PAST SALE,May-26-2020,Townhouse,8319 Meadowood Dr,Hanover,MD,21076,457493,3,3.0,SHIPLEY HOMESTEAD,2000,1760,2020,558,229,,Sold,,,https://www.redfin.com/MD/Hanover/8319-Meadowood-Dr-21076/home/143870890,BRIGHT MLS,MDAA456126,N,Y,39.13656,-76.740909
PAST SALE,,Single Family Residential,1522 BURNELL DR,HANOVER,MD,21076,499340,,2.5,,2912,3426,2019,,171,,,,,https://www.redfin.com/MD/HANOVER/1522-BURNELL-DR-21076/home/143871521,,,N,Y,39.150971,-76.727666
PAST SALE,January-10-2019,Townhouse,2286 Brimstone Pl,Hanover,MD,21076,445000,3,4.0,THE ENCLAVE AT ARUNDEL P,3164,2046,2011,1060,141,105,Sold,,,https://www.redfin.com/MD/Hanover/2286-Brimstone-Pl-21076/home/11750869,BRIGHT MLS,MDAA121764,N,Y,39.147297,-76.7430849
PAST SALE,June-1-2020,Single Family Residential,1927 Pometacom Dr,Hanover,MD,21076,278948,4,2.0,RIDGEFIELD,1416,15000,1983,552,197,,Sold,,,https://www.redfin.com/MD/Hanover/1927-Pometacom-Dr-21076/home/10366063,BRIGHT MLS,MDAA427598,N,Y,39.1422451,-76.7356136
PAST SALE,February-26-2021,Townhouse,1368 Hill Born Dr,Hanover,MD,21076,360000,4,2.5,RIDGE COMMONS,1868,1606,2000,282,193,42,Sold,,,https://www.redfin.com/MD/Hanover/1368-Hill-Born-Dr-21076/home/10365579,BRIGHT MLS,MDAA455386,N,Y,39.1564958,-76.7114315
PAST SALE,March-26-2021,Townhouse,2966 Cornfield Ave,Hanover,MD,21076,481430,3,2.5,PARKSIDE,2285,,2021,254,211,91,Sold,,,https://www.redfin.com/MD/Hanover/2966-Cornfield-Ave-21076/home/165843092,BRIGHT MLS,MDAA450730,N,Y,39.132033,-76.75238
PAST SALE,April-1-2019,Townhouse,1714 Thurston Ter,Severn,MD,21144,408000,3,3.0,BOYERS RIDGE,2420,1998,2015,979,169,110,Sold,,,https://www.redfin.com/MD/Severn/1714-Thurston-Ter-21144/home/52914791,BRIGHT MLS,1009997260,N,Y,39.1386754,-76.7119068
PAST SALE,March-27-2020,Townhouse,1117 Bayberry Ln,Hanover,MD,21076,410000,3,3.5,BUCKINGHAM,2400,1750,2012,618,171,108,Sold,,,https://www.redfin.com/MD/Hanover/1117-Bayberry-Ln-21076/home/18988430,BRIGHT MLS,MDAA425232,N,Y,39.1531257,-76.6936836
PAST SALE,,Single Family Residential,6068 Adcock Ln,Hanover,MD,21076,545000,,3.5,,2595,9092,1990,,210,,,,,https://www.redfin.com/MD/Hanover/6068-Adcock-Ln-21076/home/9873847,,,N,Y,39.2055944,-76.7185231
PAST SALE,March-29-2019,Townhouse,7769 Willow Oak Ct,Hanover,MD,21076,450000,3,4.0,ARUNDEL GROVE,2950,2025,2018,982,153,87,Sold,,,https://www.redfin.com/MD/Hanover/7769-Willow-Oak-Ct-21076/home/110085839,BRIGHT MLS,1009957718,N,Y,39.1442126,-76.7463329
PAST SALE,,Single Family Residential,1840 Montevideo Rd,Jessup,MD,20794,310000,,1.0,,950,41382,1955,,326,,,,,https://www.redfin.com/MD/Jessup/1840-Montevideo-Rd-20794/home/10319881,,,N,Y,39.152504,-76.7572
PAST SALE,November-19-2021,Townhouse,1311 Hill Born Dr,Hanover,MD,21076,370000,4,3.0,RIDGE COMMONS,1848,1427,1997,16,200,42,Sold,,,https://www.redfin.com/MD/Hanover/1311-Hill-Born-Dr-21076/home/10365483,BRIGHT MLS,MDAA2000653,N,Y,39.1573685,-76.7129197
PAST SALE,June-30-2020,Single Family Residential,1612 Severn Rd,Severn,MD,21144,599000,4,3.5,SEVERN FOREST,2690,15246,2020,523,223,,Sold,,,https://www.redfin.com/MD/Severn/1612-Severn-Rd-21144/home/10482472,BRIGHT MLS,MDAA432820,N,Y,39.1378585,-76.7196768
PAST SALE,January-6-2021,Townhouse,1487 Pangbourne Way,Hanover,MD,21076,366800,2,3.0,VILLAGES OF DORCHESTER,2310,1500,2004,333,159,103,Sold,,,https://www.redfin.com/MD/Hanover/1487-Pangbourne-Way-21076/home/10480192,BRIGHT MLS,MDAA447884,N,Y,39.1638663,-76.7301106
PAST SALE,January-9-2020,Townhouse,7546 Maiden Head Dr,Hanover,MD,21076,365000,3,3.5,VILLAGES OF DORCHESTER,2500,2697,2008,696,146,107,Sold,,,https://www.redfin.com/MD/Hanover/7546-Maidenhead-Dr-21076/home/23420980,BRIGHT MLS,MDAA398452,N,Y,39.159106,-76.739208
PAST SALE,,Townhouse,,Hanover,MD,21076,354390,,,,,1120,,,,,,,,https://www.redfin.com/MD/Hanover/Unknown-21076/home/146080146,,,N,Y,39.15968,-76.72206
PAST SALE,January-15-2019,Single Family Residential,1479 Mordor Ln,Hanover,MD,21076,315000,4,2.0,HARMANS WOODS,1434,7099,1982,1055,220,,Sold,,,https://www.redfin.com/MD/Hanover/1479-Mordor-Ln-21076/home/10336210,BRIGHT MLS,MDAA101508,N,Y,39.1432268,-76.7091877
PAST SALE,October-30-2019,Townhouse,7128 Tilbury,Hanover,MD,21076,455215,3,4.0,OXFORD SQUARE,2014,1380,2019,767,226,,Sold,,,https://www.redfin.com/MD/Hanover/7128-Tilbury-Way-21076/home/165854807,BRIGHT MLS,MDHW276074,N,Y,39.1873121,-76.7384656
PAST SALE,August-26-2019,Townhouse,7220 Islip Way,Hanover,MD,21076,351865,3,2.5,Hanover,1651,,2018,832,213,,Sold,,,https://www.redfin.com/MD/Elkridge/7220-Islip-Way-21076/home/169254914,BRIGHT MLS,MDHW271080,N,Y,39.15979496,-76.72235338
PAST SALE,July-15-2021,Townhouse,3008 Cornfield Ave,Hanover,MD,21076,533853,3,2.5,PARKSIDE,2285,,2021,143,234,91,Sold,,,https://www.redfin.com/MD/Hanover/3008-Cornfield-Ave-21076/home/165991328,BRIGHT MLS,MDAA462164,N,Y,39.1325149,-76.7537861
PAST SALE,July-8-2020,Townhouse,8308 Meadowood Dr,Hanover,MD,21076,470346,3,2.5,SHIPLEY HOMESTEAD,2700,2178,2019,515,174,74,Sold,,,https://www.redfin.com/MD/Hanover/8308-Meadowood-Dr-21076/home/143870880,BRIGHT MLS,MDAA422408,N,Y,39.1366028,-76.7403737
PAST SALE,October-28-2021,Single Family Residential,1419 Cambium Ct,Hanover,MD,21076,395000,3,2.0,HARMANS WOODS SOUTH,1332,8295,1985,38,297,,Sold,,,https://www.redfin.com/MD/Hanover/1419-Cambium-Ct-21076/home/10335835,BRIGHT MLS,MDAA2007518,N,Y,39.1406772,-76.7095936
PAST SALE,,Condo/Co-op,,Hanover,MD,21076,441115,,,,,,,,,,,,,https://www.redfin.com/MD/Hanover/Unknown-21076/home/146876776,,,N,Y,39.1955042,-76.7228227
PAST SALE,,Townhouse,1501 Pangbourne Way,Hanover,MD,21076,385000,,2.5,,1820,2000,2004,,212,,,,,https://www.redfin.com/MD/Hanover/1501-Pangbourne-Way-21076/home/10480198,,,N,Y,39.1639178,-76.7314088
PAST SALE,January-31-2019,Townhouse,2910 Koens Ct #6,Hanover,MD,21076,460520,3,3.0,SHIPLEY HOMESTEAD,1968,1742,2018,1039,234,70,Sold,,,https://www.redfin.com/MD/Hanover/2910-Koens-Ct-21076/unit-6/home/148568244,BRIGHT MLS,MDAA302048,N,Y,39.1346921,-76.7444768
PAST SALE,May-19-2021,Townhouse,2822 Brewers Crossing Way,Hanover,MD,21076,484270,3,2.5,PARKSIDE,2309,,2021,200,210,288,Sold,,,https://www.redfin.com/MD/Hanover/2822-Brewers-Crossing-WAY-21076/home/175538962,BRIGHT MLS,MDAA2001220,N,Y,39.13491064,-76.7496853
PAST SALE,October-15-2019,Condo/Co-op,7557 Stoney Run Dr #302,Hanover,MD,21076,249000,2,2.0,STONEY RUN,1407,1407,2009,782,177,289,Sold,,,https://www.redfin.com/MD/Hanover/7557-Stoney-Run-Dr-21076/unit-302/home/28499360,BRIGHT MLS,MDAA406204,N,Y,39.148949,-76.7248768
PAST SALE,February-26-2021,Townhouse,1603 Sun High Ter,Severn,MD,21144,433000,3,3.0,BOYERS RIDGE,,2188,2015,282,,98,Sold,,,https://www.redfin.com/MD/Severn/1603-Sun-High-Ter-21144/home/52914796,BRIGHT MLS,MDAA456968,N,Y,39.1388689,-76.712306
PAST SALE,,Condo/Co-op,1622 Hardwick Ct Unit 1622-3,Hanover,MD,21076,255900,,,,1407,,2011,,182,,,,,https://www.redfin.com/MD/Hanover/1622-Hardwick-Ct-21076/unit-1622-3/home/44628043,,,N,Y,39.1503037,-76.7235929
PAST SALE,September-24-2021,Single Family Residential,7158 Forest Ave,Hanover,MD,21076,675000,6,4.0,LENNOX PARK,4206,130680,1930,72,160,,Sold,,,https://www.redfin.com/MD/Hanover/7158-Forest-Ave-21076/home/10340500,BRIGHT MLS,MDAA2005972,N,Y,39.1719835,-76.7468858
PAST SALE,March-10-2020,Townhouse,1808 Autumn Glo Ter,Severn,MD,21144,425000,3,3.0,BOYERS RIDGE,2656,1760,2014,635,160,97,Sold,,,https://www.redfin.com/MD/Severn/1808-Autumn-Glo-Ter-21144/home/52914748,BRIGHT MLS,MDAA421002,N,Y,39.1379401,-76.7114878
PAST SALE,March-20-2020,Townhouse,7838 Sunhaven Way,Severn,MD,21144,425000,3,3.0,BOYERS RIDGE,2656,1804,2014,625,160,97,Sold,,,https://www.redfin.com/MD/Severn/7838-Sunhaven-Way-21144/home/52914739,BRIGHT MLS,MDAA421966,N,Y,39.1382311,-76.7125363
PAST SALE,,Condo/Co-op,1714 Fieldstone Ct,Hanover,MD,21076,377000,,,,2303,,2016,,164,,,,,https://www.redfin.com/MD/Hanover/1714-Fieldstone-Ct-21076/home/143870872,,,N,Y,39.1510873,-76.7222249
PAST SALE,April-24-2020,Single Family Residential,1908 Marqueen Way,Severn,MD,21144,589000,5,3.5,BOYERS RIDGE,3440,6000,2016,590,171,82,Sold,,,https://www.redfin.com/MD/Severn/1908-Marqueen-Way-21144/home/52914732,BRIGHT MLS,MDAA428490,N,Y,39.1375051,-76.7115966
PAST SALE,August-23-2019,Townhouse,7803 Sunhaven Way,Severn,MD,21144,410000,3,2.5,BOYERS RIDGE,2420,1998,2015,835,169,97,Sold,,,https://www.redfin.com/MD/Severn/7803-Sunhaven-Way-21144/home/52914718,BRIGHT MLS,MDAA404422,N,Y,39.1395197,-76.7123313
PAST SALE,February-1-2019,Townhouse,7595 Taunton Ct,Hanover,MD,21076,377500,3,3.5,VILLAGES OF DORCHESTER,2574,1760,2009,1038,147,107,Sold,,,https://www.redfin.com/MD/Hanover/7595-Taunton-Ct-21076/home/12522418,BRIGHT MLS,MDAA101602,N,Y,39.1567175,-76.7406524
PAST SALE,July-11-2019,Single Family Residential,7623 Deepnotch Way,Hanover,MD,21076,571521,4,3.5,SHIPLEY HOMESTEAD,3572,4950,2018,878,160,45,Sold,,,https://www.redfin.com/MD/HANOVER/7623-DEEPNOTCH-WAY-21076/home/143871224,BRIGHT MLS,MDAA374834,N,Y,39.138345,-76.740246
PAST SALE,November-5-2021,Single Family Residential,1890 Cedar Dr,Severn,MD,21144,375000,3,2.0,SEVERN RIDGE,1596,44431,1992,30,235,,Sold,,,https://www.redfin.com/MD/Severn/1890-Cedar-Dr-21144/home/10379645,BRIGHT MLS,MDAA2011636,N,Y,39.1398215,-76.7236189
PAST SALE,July-17-2019,Single Family Residential,7862 Sunhaven Way,Severn,MD,21144,520000,4,2.5,BOYERS RIDGE,2284,5616,2017,872,228,82,Sold,,,https://www.redfin.com/MD/Severn/7862-Sunhaven-Way-21144/home/52914516,BRIGHT MLS,MDAA397274,N,Y,39.1367104,-76.7122545
PAST SALE,September-20-2019,Single Family Residential,7860 Sunhaven Way,Severn,MD,21144,548300,5,4.5,BOYERS RIDGE,3622,5367,2017,807,151,82,Sold,,,https://www.redfin.com/MD/Severn/7860-Sunhaven-Way-21144/home/52914515,BRIGHT MLS,MDAA100053,N,Y,39.136843,-76.7123976
PAST SALE,August-24-2021,Single Family Residential,1333 Hanover Rd,Hanover,MD,21076,280000,1,1.0,HANOVER,984,43560,1938,103,285,,Sold,,,https://www.redfin.com/MD/Hanover/1333-Hanover-Rd-21076/home/10385675,BRIGHT MLS,MDAA2005148,N,Y,39.184416,-76.7126229
PAST SALE,September-27-2019,Single Family Residential,7858 Sunhaven Way,Severn,MD,21144,527500,4,4.5,BOYERS RIDGE,3840,,2014,800,137,82,Sold,,,https://www.redfin.com/MD/Severn/7858-Sunhaven-Way-21144/home/52914514,BRIGHT MLS,MDAA409620,N,Y,39.1370109,-76.7124349
PAST SALE,,Single Family Residential,,Hanover,MD,21076,324990,,,,,1365,,,,,,,,https://www.redfin.com/MD/Hanover/Unknown-21076/home/146228960,,,N,Y,39.1955042,-76.7228227
PAST SALE,August-11-2021,Townhouse,7212 Howison Hill Ln,Hanover,MD,21076,500000,3,3.5,KATHERINE B EGGERL,2000,1800,2017,116,250,91,Sold,,,https://www.redfin.com/MD/HANOVER/7212-HOWISON-HILL-LN-21076/home/110085148,BRIGHT MLS,MDAA2002392,N,Y,39.129787,-76.746975
PAST SALE,May-11-2021,Townhouse,7656 Fairbanks Ct,Hanover,MD,21076,265000,2,1.5,HARMANS WOODS,1280,1513,1984,208,207,32,Sold,,,https://www.redfin.com/MD/Hanover/7656-Fairbanks-Ct-21076/home/10337012,BRIGHT MLS,MDAA461746,N,Y,39.1403776,-76.698803
PAST SALE,,Condo/Co-op,1622 Hardwick Ct Unit 1622-4,Hanover,MD,21076,255000,,,,1407,,2011,,181,,,,,https://www.redfin.com/MD/Hanover/1622-Hardwick-Ct-21076/unit-1622-4/home/44628044,,,N,Y,39.1503037,-76.7235929
PAST SALE,,Condo/Co-op,1624 Hardwick Ct Unit 1624-2,Hanover,MD,21076,249300,,,,1407,,2011,,177,,,,,https://www.redfin.com/MD/Hanover/1624-Hardwick-Ct-21076/unit-1624-2/home/44617218,,,N,Y,39.150541,-76.7228748
PAST SALE,December-21-2018,Townhouse,1724 Sunningdale Ln,Hanover,MD,21076,365000,4,3.5,VILLAGES OF DORCHESTER,2814,2275,2007,1080,130,107,Sold,,,https://www.redfin.com/MD/Hanover/1724-Sunningdale-Ln-21076/home/17362723,BRIGHT MLS,1009942828,N,Y,39.158445,-76.738826
PAST SALE,August-30-2019,Single Family Residential,1517 Katla Ct,Hanover,MD,21076,510000,4,2.5,HARMANS RIDGE,2590,4482,2019,828,197,48,Sold,,,https://www.redfin.com/MD/Hanover/1517-Katla-Ct-21076/home/110086023,BRIGHT MLS,MDAA398074,N,Y,39.1458946,-76.705259
PAST SALE,September-30-2021,Single Family Residential,8208 Meadowood Dr,Hanover,MD,21076,735000,6,4.5,SHIPLEY HOMESTEAD,3870,6287,2017,66,190,58,Sold,,,https://www.redfin.com/MD/Hanover/8208-Meadowood-Dr-21076/home/143870962,BRIGHT MLS,MDAA2003142,N,Y,39.1342869,-76.7359826
PAST SALE,,Single Family Residential,,Hanover,MD,21076,299990,,,,,1040,,,,,,,,https://www.redfin.com/MD/Hanover/Unknown-21076/home/146228962,,,N,Y,39.1955042,-76.7228227
PAST SALE,September-30-2020,Single Family Residential,1435 Fairbanks Dr,Hanover,MD,21076,330000,3,2.0,HARMANS WOODS,1572,6028,1987,431,210,,Sold,,,https://www.redfin.com/MD/Hanover/1435-Fairbanks-Dr-21076/home/10337528,BRIGHT MLS,MDAA435640,N,Y,39.1413328,-76.7028284
PAST SALE,September-27-2021,Single Family Residential,2245 Nottoway Dr,Hanover,MD,21076,655000,5,3.5,SHIPLEY HOMESTEAD,3351,5225,2019,69,195,49,Sold,,,https://www.redfin.com/MD/Hanover/2245-Nottoway-Dr-21076/home/143871186,BRIGHT MLS,MDAA2000526,N,Y,39.1385175,-76.741032
PAST SALE,,Townhouse,,Hanover,MD,21076,457115,,,,,1380,,,,,,,,https://www.redfin.com/MD/Hanover/Unknown-21076/home/146876752,,,N,Y,39.1869,-76.7347
PAST SALE,July-16-2021,Townhouse,1567 Rutland Way,Hanover,MD,21076,455000,3,3.5,VILLAGES OF DORCHESTER,2016,1760,2007,142,226,108,Sold,,,https://www.redfin.com/MD/Hanover/1567-Rutland-Way-21076/home/17362814,BRIGHT MLS,MDAA471546,N,Y,39.1590778,-76.7340685
PAST SALE,August-15-2019,Townhouse,2951 Timberneck Way,Hanover,MD,21076,427990,3,3.0,KATHERINE B EGGERL,1920,1920,2018,843,223,86,Sold,,,https://www.redfin.com/MD/Hanover/2951-Timberneck-Way-21076/home/143870660,BRIGHT MLS,MDAA394324,N,Y,39.135383,-76.752347
PAST SALE,August-11-2020,Single Family Residential,5901 Florey Rd,Hanover,MD,21076,554460,4,2.5,Hanover,2774,7000,2020,481,200,45,Sold,,,https://www.redfin.com/MD/Hanover/5901-Florey-Rd-21076/home/169789744,BRIGHT MLS,MDHW283696,N,Y,39.201067,-76.715693
PAST SALE,,Single Family Residential,1714 Allerford Dr,Hanover,MD,21076,460000,,2.5,,2244,6000,2007,,205,,,,,https://www.redfin.com/MD/Hanover/1714-Allerford-Dr-21076/home/11751224,,,N,Y,39.1552808,-76.7384994
PAST SALE,March-8-2021,Single Family Residential,7146 Wedmore Ct,Hanover,MD,21076,753000,7,6.5,VILLAGES OF DORCHESTER,6836,12905,2006,272,110,74,Sold,,,https://www.redfin.com/MD/Hanover/7146-Wedmore-Ct-21076/home/10482558,BRIGHT MLS,MDAA457768,N,Y,39.151889,-76.735361
PAST SALE,August-27-2019,Condo/Co-op,7149 Beaumont Pl,Hanover,MD,21076,350000,3,2.5,OXFORD SQUARE,,,2019,831,,175,Sold,,,https://www.redfin.com/MD/HANOVER/7149-BEAUMONT-PL-21076/unit-A/home/161063856,BRIGHT MLS,MDHW272628,N,Y,39.184909,-76.739365
PAST SALE,,Single Family Residential,1317 German Driveway,Hanover,MD,21076,175000,,2.5,,2416,42427,2008,,72,,,,,https://www.redfin.com/MD/Hanover/1317-German-Driveway-21076/home/174492017,,,N,Y,39.2002304,-76.7045551
PAST SALE,February-12-2019,Townhouse,7833 Chanceford Dr,Hanover,MD,21076,432500,3,3.0,PARKSIDE,2034,,2018,1027,213,86,Sold,,,https://www.redfin.com/MD/Hanover/7833-Chanceford-Dr-21076/home/166051152,BRIGHT MLS,MDAA373870,N,Y,39.132222,-76.751084
PAST SALE,December-20-2018,Single Family Residential,8204 Meadowood Dr #0,Hanover,MD,21076,642500,5,4.5,SHIPLEY HOMESTEAD,3729,4950,2018,1081,172,45,Sold,,,https://www.redfin.com/MD/Hanover/8204-Meadowood-Dr-21076/unit-1/home/108324196,BRIGHT MLS,MDAA100408,N,Y,39.1338703,-76.7357152
PAST SALE,June-11-2021,Townhouse,2102 Split Creek Ln,Hanover,MD,21076,499995,4,3.5,THE ENCLAVE AT ARUNDEL P,2623,2250,2007,177,191,120,Sold,,,https://www.redfin.com/MD/Hanover/2102-Split-Creek-Ln-21076/home/11750763,BRIGHT MLS,MDAA465914,N,Y,39.1506685,-76.7462996
PAST SALE,September-25-2020,Townhouse,1910 Red Jasper Rd,Hanover,MD,21076,447500,4,3.5,Hanover,2059,1600,2020,436,217,95,Sold,,,https://www.redfin.com/MD/Hanover/1910-Red-Jasper-Rd-21076/home/167633357,BRIGHT MLS,MDAA444562,N,Y,39.191883,-76.7033753
PAST SALE,August-25-2020,Townhouse,7604 Stemhart Ln,Hanover,MD,21076,413295,2,2.0,Hanover,,,2020,467,,,Sold,,,https://www.redfin.com/MD/Hanover/7604-Stemhart-Ln-21076/home/173332193,BRIGHT MLS,MDAA448516,N,Y,39.1502988,-76.7270414
PAST SALE,August-19-2021,Townhouse,1719 Hayle Dr,Hanover,MD,21076,445000,3,3.0,VILLAGES OF DORCHESTER,2614,2275,2007,108,170,108,Sold,,,https://www.redfin.com/MD/Hanover/1719-Hayle-Dr-21076/home/17362719,BRIGHT MLS,MDAA2003540,N,Y,39.158593,-76.738506
PAST SALE,March-5-2021,Townhouse,1118 Bay Berry Ln Ln,Hanover,MD,21076,431750,3,3.0,BUCKINGHAM,2000,1400,2016,275,216,108,Sold,,,https://www.redfin.com/MD/Hanover/1118-Bayberry-Ln-21076/home/18988621,BRIGHT MLS,MDAA457562,N,Y,39.153351,-76.6937974
PAST SALE,October-21-2019,Townhouse,7121 Elmthorpe Way,Hanover,MD,21076,458000,3,4.0,OXFORD SQUARE,2332,1481,2015,776,196,185,Sold,,,https://www.redfin.com/MD/Hanover/7121-Elmthorpe-Way-21076/home/103473904,BRIGHT MLS,MDHW269146,N,Y,39.1828322,-76.7386002
PAST SALE,September-29-2020,Townhouse,1912 Red Jasper Rd,Hanover,MD,21076,465990,3,3.0,THE RIDGE,2299,1600,2020,432,203,95,Sold,,,https://www.redfin.com/MD/Hanover/1912-Red-Jasper-Rd-21076/home/167633355,BRIGHT MLS,MDAA440818,N,Y,39.192487,-76.703136
PAST SALE,September-21-2021,Townhouse,7816 Sunhaven Way,Severn,MD,21144,460000,3,3.0,BOYERS RIDGE,2616,1804,2015,75,176,97,Sold,,,https://www.redfin.com/MD/Severn/7816-Sunhaven-Way-21144/home/52914706,BRIGHT MLS,MDAA2007720,N,Y,39.1389677,-76.7126443
PAST SALE,June-4-2020,Townhouse,7573 Taunton Ct,Hanover,MD,21076,380000,3,3.5,VILLAGES OF DORCHESTER,2500,1760,2009,549,152,108,Sold,,,https://www.redfin.com/MD/Hanover/7573-Taunton-Ct-21076/home/12523039,BRIGHT MLS,MDAA429204,N,Y,39.1571752,-76.7400324
PAST SALE,,Single Family Residential,1779 Simms Ln,Hanover,MD,21076,295000,,1.0,,1648,52272,1940,,179,,,,,https://www.redfin.com/MD/Hanover/1779-Simms-Ln-21076/home/10320943,,,N,Y,39.1603002,-76.7518903
PAST SALE,,Single Family Residential,Chanceford Dr,Hanover,MD,21076,417129,,,,,1626,,,,,,,,https://www.redfin.com/MD/Hanover/Chanceford-Dr-21076/home/147361564,,,N,Y,39.1324562,-76.751187
PAST SALE,November-8-2021,Townhouse,7752 Willow Oak Ct,Hanover,MD,21076,500000,3,3.5,ARUNDEL GROVE,2204,1650,2020,27,227,88,Sold,,,https://www.redfin.com/MD/Hanover/7752-Willow-Oak-Ct-21076/unit-T/home/110085106,BRIGHT MLS,MDAA2010206,N,Y,39.144095,-76.745474
PAST SALE,July-24-2020,Townhouse,7632 Sandhurst Ln,Hanover,MD,21076,381000,3,2.5,VILLAGES OF DORCHESTER,2104,1584,2008,499,181,108,Sold,,,https://www.redfin.com/MD/Hanover/7632-Sandhurst-Ln-21076/home/12522402,BRIGHT MLS,MDAA436746,N,Y,39.157424,-76.739155
PAST SALE,June-26-2020,Townhouse,1539 Rutland Way,Hanover,MD,21076,404000,3,3.5,VILLAGES OF DORCHESTER,3175,2160,2007,527,127,108,Sold,,,https://www.redfin.com/MD/Hanover/1539-Rutland-Way-21076/home/17362464,BRIGHT MLS,MDAA431554,N,Y,39.159931,-76.733369
PAST SALE,June-10-2020,Townhouse,1511 Martock Ln,Hanover,MD,21076,372000,3,2.5,VILLAGES OF DORCHESTER,2040,1440,2005,543,182,108,Sold,,,https://www.redfin.com/MD/Hanover/1511-Martock-Ln-21076/home/11224055,BRIGHT MLS,MDAA431882,N,Y,39.1628084,-76.7327728
PAST SALE,November-10-2021,Townhouse,2525 Debert Cir,Hanover,MD,21076,445000,3,3.5,SHIPLEY HOMESTEAD,,1200,2020,25,,74,Sold,,,https://www.redfin.com/MD/Hanover/2525-Debert-Cir-21076/home/143871071,BRIGHT MLS,MDAA2008480,N,Y,39.137174,-76.742196
PAST SALE,,Townhouse,2533 Debert Cir,Hanover,MD,21076,463811,,2.5,,2040,2175,2020,,227,,,,,https://www.redfin.com/MD/Hanover/2533-Debert-Cir-21076/home/143871068,,,N,Y,39.137111,-76.742011
PAST SALE,September-27-2021,Townhouse,7830 Mine Run Rd,Hanover,MD,21076,510718,3,2.5,PARKSIDE,2285,,2021,69,224,91,Sold,,,https://www.redfin.com/MD/HANOVER/7830-MINE-RUN-RD-21076/home/174486070,BRIGHT MLS,MDAA463170,N,Y,39.13283745,-76.75600395
PAST SALE,December-6-2019,Townhouse,2917 Davis Ridge Cts,Hanover,MD,21076,399990,3,2.5,PARKSIDE,2270,2386,2019,730,176,74,Sold,,,https://www.redfin.com/MD/HANOVER/2917-DAVIS-RIDGE-CT-21076/home/167625678,BRIGHT MLS,MDAA403210,N,Y,39.13035895,-76.74949202
PAST SALE,December-3-2020,Single Family Residential,5910 Florey Rd,Hanover,MD,21076,670855,4,4.5,Hanover,,8400,,367,,,Sold,,,https://www.redfin.com/MD/Hanover/5910-Florey-Rd-21076/home/9862277,BRIGHT MLS,MDHW289374,N,Y,39.200737,-76.715783
PAST SALE,January-30-2020,Single Family Residential,6390 Hanover Crossing Way,Hanover,MD,21076,520000,4,3.5,HANOVER CROSSING,2616,9318,1994,675,199,,Sold,,,https://www.redfin.com/MD/Hanover/6390-Hanover-Crossing-Way-21076/home/9892310,BRIGHT MLS,MDHW273370,N,Y,39.1952331,-76.7186584
PAST SALE,June-8-2020,Townhouse,1396 Magnolia Ct,Hanover,MD,21076,417990,3,3.0,DORCHESTER VIEW,,1772,2020,545,,58,Sold,,,https://www.redfin.com/MD/Hanover/1396-Magnolia-Ct-21076/home/172380311,BRIGHT MLS,MDAA439320,N,Y,39.16623,-76.73229
PAST SALE,January-28-2019,Townhouse,1028 Ironwood Ln,Hanover,MD,21076,366500,3,2.5,BUCKINGHAM,1920,1750,2010,1042,191,108,Sold,,,https://www.redfin.com/MD/Hanover/1028-Ironwood-Ln-21076/home/18988709,BRIGHT MLS,MDAA301446,N,Y,39.1522009,-76.6934994
PAST SALE,December-19-2018,Condo/Co-op,1620 Hardwick Ct #302,Hanover,MD,21076,240000,2,2.0,STONEY RUN,1407,,2011,1082,171,314,Sold,,,https://www.redfin.com/MD/Hanover/1620-Hardwick-Ct-21076/unit-302/home/39591330,BRIGHT MLS,1001903232,N,Y,39.1503981,-76.7233961
PAST SALE,February-6-2020,Townhouse,2644 Shade Branch Rd,Hanover,MD,21076,375000,3,2.5,POINTE AT ARUNDEL PRESER,1903,1280,2012,668,197,120,Sold,,,https://www.redfin.com/MD/Hanover/2644-Shade-Branch-Rd-21076/home/44617274,BRIGHT MLS,MDAA421974,N,Y,39.1440103,-76.748284
PAST SALE,December-16-2019,Townhouse,2629 Richmond Way,Hanover,MD,21076,390000,3,3.0,KATHERINE B EGGERL,2300,2250,2017,720,170,86,Sold,,,https://www.redfin.com/MD/Hanover/2629-Richmond-Way-21076/home/110085971,BRIGHT MLS,MDAA416522,N,Y,39.130442,-76.7467
PAST SALE,April-10-2020,Single Family Residential,1317 Sewell Farm Dr,Hanover,MD,21076,545000,4,2.5,HERITAGE CROSSING,3461,20000,2010,604,157,75,Sold,,,https://www.redfin.com/MD/Hanover/1317-Sewell-Farm-Dr-21076/home/23425994,BRIGHT MLS,MDAA423828,N,Y,39.1477532,-76.7127506
PAST SALE,May-31-2019,Single Family Residential,7731 Mellow Ct,Hanover,MD,21076,398000,4,2.5,HARMANS WOODS,2378,6748,1983,919,167,,Sold,,,https://www.redfin.com/MD/Hanover/7731-Mellow-Ct-21076/home/10336183,BRIGHT MLS,MDAA378956,N,Y,39.1426483,-76.7078121
PAST SALE,March-9-2020,Townhouse,2619 Hardaway Cir,Hanover,MD,21076,450550,3,3.5,SHIPLEY,2224,2175,2019,636,203,,Sold,,,https://www.redfin.com/MD/Hanover/2619-Hardaway-Cir-21076/home/143871034,BRIGHT MLS,MDAA457460,N,Y,39.136078,-76.742784
PAST SALE,August-9-2021,Townhouse,1429 Pangbourne Way,Hanover,MD,21076,420000,3,2.5,VILLAGES OF DORCHESTER,2412,2000,2005,118,174,108,Sold,,,https://www.redfin.com/MD/Hanover/1429-Pangbourne-Way-21076/home/10480164,BRIGHT MLS,MDAA2002536,N,Y,39.161963,-76.730524
PAST SALE,September-3-2021,Townhouse,2609 Maple Rock Rd,Hanover,MD,21076,590000,4,3.5,THE ENCLAVE AT ARUNDEL P,2887,1423,2018,93,204,121,Sold,,,https://www.redfin.com/MD/Hanover/2609-Maple-Rock-Rd-21076/home/40015805,BRIGHT MLS,MDAA2003976,N,Y,39.1446617,-76.7477099
PAST SALE,,Single Family Residential,7725 Rotherham Dr,Hanover,MD,21076,454000,,2.5,,2859,5264,2003,,159,,,,,https://www.redfin.com/MD/Hanover/7725-Rotherham-Dr-21076/home/10477705,,,N,Y,39.1498404,-76.7346216
PAST SALE,November-19-2021,Townhouse,7648 Elmcrest Rd,Hanover,MD,21076,545000,3,3.5,THE ENCLAVE AT ARUNDEL P,2894,1437,2014,16,188,121,Sold,,,https://www.redfin.com/MD/Hanover/7648-Elmcrest-Rd-21076/home/40015642,BRIGHT MLS,MDAA2011794,N,Y,39.1468776,-76.7460638
PAST SALE,August-7-2019,Townhouse,1523 Fair Oak Dr,Hanover,MD,21076,379900,3,3.0,VILLAGES OF DORCHESTER,1972,2520,2006,851,193,106,Sold,,,https://www.redfin.com/MD/Hanover/1523-Fair-Oak-Dr-21076/home/10482605,BRIGHT MLS,MDAA396330,N,Y,39.1606541,-76.7349252
PAST SALE,,Townhouse,7246 Brinley Way,Hanover,MD,21076,420000,,3.5,,2020,1247,2015,,208,,,,,https://www.redfin.com/MD/Hanover/7246-Brinley-Way-21076/home/92893642,,,N,Y,39.1839369,-76.7375863
PAST SALE,,Townhouse,1711 Spanish Oak Ct,Hanover,MD,21076,415000,,2.5,,2120,1650,2013,,196,,,,,https://www.redfin.com/MD/Hanover/1711-Spanish-Oak-Ct-21076/home/40015575,,,N,Y,39.1637622,-76.7335348
PAST SALE,,Other,2737 Annapolis Rd #1,Hanover,MD,21076,1568000,,,,,7928,,,,,,,,https://www.redfin.com/MD/Hanover/2737-Annapolis-Rd-21076/unit-1/home/174486017,,,N,Y,39.135176,-76.750603
PAST SALE,September-30-2021,Single Family Residential,7967 Max Blobs Park Rd,Jessup,MD,20794,575000,4,3.5,KATHERINE B EGGERL,3956,43560,1959,66,145,,Sold,,,https://www.redfin.com/MD/Jessup/7967-Max-Blobs-Park-Rd-20794/home/10338764,BRIGHT MLS,MDAA2007598,N,Y,39.1343159,-76.7544947
PAST SALE,October-13-2021,Townhouse,3775 Cedar Mountain Way,Hanover,MD,21076,439295,3,3.5,PARKSIDE,1687,1000,2021,53,260,88,Sold,,,https://www.redfin.com/MD/HANOVER/3775-CEDAR-MOUNTAIN-WAY-21076/home/174486085,BRIGHT MLS,MDAA2001046,N,Y,39.13019,-76.754835
PAST SALE,October-26-2021,Townhouse,7842 Mine Run Rd,Hanover,MD,21076,502913,3,2.5,PARKSIDE,1943,,2021,40,259,88,Sold,,,https://www.redfin.com/MD/HANOVER/7842-MINE-RUN-RD-21076/home/174486124,BRIGHT MLS,MDAA2007848,N,Y,39.13323529,-76.75556015
PAST SALE,October-21-2021,Townhouse,7844 Mine Run Rd,Hanover,MD,21076,553490,3,2.5,PARKSIDE,2285,,2021,45,242,91,Sold,,,https://www.redfin.com/MD/HANOVER/7844-MINE-RUN-RD-21076/home/174486125,BRIGHT MLS,MDAA465308,N,Y,39.13348561,-76.7558611
PAST SALE,October-25-2021,Townhouse,7848 Mine Run Rd,Hanover,MD,21076,513598,3,2.5,PARKSIDE,2285,,2021,41,225,91,Sold,,,https://www.redfin.com/MD/HANOVER/7848-MINE-RUN-RD-21076/home/174486128,BRIGHT MLS,MDAA465224,N,Y,39.13340465,-76.75558751
PAST SALE,September-18-2020,Condo/Co-op,1622 Hardwick Ct #303,Hanover,MD,21076,260000,2,2.0,STONEY RUN,1407,,2011,443,185,352,Sold,,,https://www.redfin.com/MD/Hanover/1622-Hardwick-Ct-21076/unit-303/home/39931594,BRIGHT MLS,MDAA440666,N,Y,39.1503982,-76.7234904
PAST SALE,,Townhouse,7168 Banbury Dr,Hanover,MD,21076,405240,,4.0,,2160,1080,2020,,188,,,,,https://www.redfin.com/MD/Hanover/7168-Banbury-Dr-21076/home/146876788,,,N,Y,39.1865638,-76.7406298
PAST SALE,January-29-2020,Townhouse,2918 Davis Ridge Ct,Hanover,MD,21076,425000,3,2.0,Hanover,2471,,2020,676,172,77,Sold,,,https://www.redfin.com/MD/HANOVER/2918-DAVIS-RIDGE-CT-21076/home/167625681,BRIGHT MLS,MDAA419254,N,Y,39.13001332,-76.74971191
PAST SALE,September-1-2021,Single Family Residential,7850 Sunhaven Way,Severn,MD,21144,679900,5,4.5,BOYERS RIDGE,5000,,2014,95,136,82,Sold,,,https://www.redfin.com/MD/Severn/7850-Sunhaven-Way-21144/home/52914510,BRIGHT MLS,MDAA467164,N,Y,39.1376553,-76.71248
PAST SALE,,Townhouse,7847 Crystal Brook Way,Hanover,MD,21076,500000,,4.0,,1860,1804,2015,,269,,,,,https://www.redfin.com/MD/Hanover/7847-Crystal-Brook-Way-21076/home/100775267,,,N,Y,39.1435062,-76.7486581
PAST SALE,February-25-2021,Townhouse,7223 Winding Hills Dr,Hanover,MD,21076,440000,4,3.5,KATHERINE B EGGERL,2336,1800,2014,283,188,91,Sold,,,https://www.redfin.com/MD/Hanover/7223-Winding-Hills-Dr-21076/home/54549702,BRIGHT MLS,MDAA455956,N,Y,39.1317564,-76.7443496
PAST SALE,October-26-2020,Townhouse,7515 Mundell Rd,Hanover,MD,21076,345000,2,2.5,Hanover,1600,1365,2018,405,216,99,Sold,,,https://www.redfin.com/MD/Hanover/7515-Mundell-Rd-21076/home/147598377,BRIGHT MLS,MDAA445448,N,Y,39.158264,-76.714806
PAST SALE,September-25-2020,Townhouse,2511 Rolling Forest Dr,Hanover,MD,21076,507000,4,4.5,KATHERINE B EGGERL,3376,1980,2014,436,150,91,Sold,,,https://www.redfin.com/MD/Hanover/2511-Rolling-Forest-Dr-21076/home/56283444,BRIGHT MLS,MDAA443392,N,Y,39.1311578,-76.745402
PAST SALE,June-10-2020,Single Family Residential,1379 Ridge Commons Blvd,Hanover,MD,21076,386000,3,2.5,RIDGE COMMONS,1856,10392,2001,543,208,19,Sold,,,https://www.redfin.com/MD/Hanover/1379-Ridge-Commons-Blvd-21076/home/10365420,BRIGHT MLS,MDAA432506,N,Y,39.1565419,-76.7131113
PAST SALE,May-14-2021,Townhouse,2521 Rolling Forest Dr,Hanover,MD,21076,510000,3,3.5,KATHERINE B EGGERL,2980,1980,2014,205,171,91,Sold,,,https://www.redfin.com/MD/Hanover/2521-Rolling-Forest-Dr-21076/home/59253447,BRIGHT MLS,MDAA463206,N,Y,39.1313647,-76.7458127
PAST SALE,February-10-2021,Townhouse,7218 Dorchester Woods Ln,Hanover,MD,21076,410000,3,2.5,DORCHESTER WOODS,2310,1300,2011,298,177,63,Sold,,,https://www.redfin.com/MD/Hanover/7218-Dorchester-Woods-Ln-21076/home/40015603,BRIGHT MLS,MDAA455710,N,Y,39.1644586,-76.7333252
PAST SALE,August-30-2019,Townhouse,1331 Bruley Rd,Hanover,MD,21076,325675,2,2.5,AA COUNTY,1600,,2019,828,204,99,Sold,,,https://www.redfin.com/MD/Hanover/1331-Bruley-Rd-21076/home/165902008,BRIGHT MLS,MDAA378606,N,Y,39.15896,-76.715435
PAST SALE,,Single Family Residential,2241 Nottoway Dr,Hanover,MD,21076,205020,,2.5,,3441,5225,2019,,60,,,,,https://www.redfin.com/MD/Hanover/2241-Nottoway-Dr-21076/home/143871184,,,N,Y,39.138639,-76.741358
PAST SALE,July-8-2019,Townhouse,1433 Strahorn Rd,Hanover,MD,21076,316200,2,2.5,Hanover,1650,,2019,881,192,99,Sold,,,https://www.redfin.com/MD/Hanover/1433-Strahorn-Rd-21076/home/165842005,BRIGHT MLS,MDAA182792,N,Y,39.158336,-76.715693
PAST SALE,August-27-2019,Townhouse,1335 Bruley Rd,Hanover,MD,21076,338990,3,3.5,AA COUNTY,1600,,2019,831,212,99,Sold,,,https://www.redfin.com/MD/Hanover/1335-Bruley-Rd-21076/home/165842027,BRIGHT MLS,MDAA400268,N,Y,39.159022,-76.715527
PAST SALE,September-4-2019,Single Family Residential,7613 Harmons Farm Ct,Hanover,MD,21076,450000,5,3.5,HARMANS FARM,2942,7107,2000,823,153,30,Sold,,,https://www.redfin.com/MD/Hanover/7613-Harmons-Farm-Ct-21076/home/10470496,BRIGHT MLS,MDAA100289,N,Y,39.150805,-76.7061219
PAST SALE,July-30-2019,Townhouse,2935 Hebron Ln,Hanover,MD,21076,411515,3,2.5,PARKSIDE,190,,2019,859,2166,86,Sold,,,https://www.redfin.com/MD/HANOVER/2935-HEBRON-LN-21076/home/165843056,BRIGHT MLS,MDAA375800,N,Y,39.132139,-76.751728
PAST SALE,August-15-2019,Townhouse,2933 Hebron Ln,Hanover,MD,21076,437180,3,2.5,PARKSIDE,190,,2019,843,2301,86,Sold,,,https://www.redfin.com/MD/HANOVER/2933-HEBRON-LN-21076/home/165843057,BRIGHT MLS,MDAA376988,N,Y,39.132109,-76.751668
PAST SALE,November-12-2019,Single Family Residential,6016 Bakers Pl,Hanover,MD,21076,380000,4,2.0,CANBURY WOODS,2206,13369,1989,754,172,15,Sold,,,https://www.redfin.com/MD/Hanover/6016-Bakers-Pl-21076/home/9873877,BRIGHT MLS,MDHW269138,N,Y,39.2046468,-76.717576
PAST SALE,June-20-2019,Townhouse,2952 Cornfield Ave,Hanover,MD,21076,407118,3,2.5,PARKSIDE,1932,,2018,899,211,86,Sold,,,https://www.redfin.com/MD/Hanover/2952-Cornfield-Ave-21076/home/165843053,BRIGHT MLS,MDAA182772,N,Y,39.1317701,-76.7518547
PAST SALE,August-5-2019,Townhouse,7912 Marietta Dr,Hanover,MD,21076,426000,3,3.0,PARKSIDE,2219,1980,2019,853,192,86,Sold,,,https://www.redfin.com/MD/Hanover/7912-Marietta-Dr-21076/home/165843085,BRIGHT MLS,MDAA392090,N,Y,39.132831,-76.751883
PAST SALE,September-25-2019,Townhouse,7910 Marietta Dr,Hanover,MD,21076,435000,3,3.0,KATHERINE B EGGERL,,1980,2019,802,,,Sold,,,https://www.redfin.com/MD/Hanover/7910-Marietta-Dr-21076/home/165843083,BRIGHT MLS,MDAA402022,N,Y,39.132891,-76.75187
PAST SALE,April-30-2019,Townhouse,7815 Chanceford Dr,Hanover,MD,21076,421665,3,3.0,PARKSIDE,2034,,2018,950,207,86,Sold,,,https://www.redfin.com/MD/Hanover/7815-Chanceford-Dr-21076/home/165843074,BRIGHT MLS,MDAA302840,N,Y,39.132754,-76.750884
PAST SALE,March-1-2021,Townhouse,7927 S Gladden Farm Way,Hanover,MD,21076,451000,3,3.0,KATHERINE B EGGERL,1863,1950,2021,279,242,91,Sold,,,https://www.redfin.com/MD/Hanover/7927-S-Gladden-Farm-Way-21076/home/165843121,BRIGHT MLS,MDAA445014,N,Y,39.133423,-76.753581
PAST SALE,August-13-2020,Townhouse,3022 Bretons Ridge Way,Hanover,MD,21076,442385,3,2.5,PARKSIDE,1943,,2020,479,228,91,Sold,,,https://www.redfin.com/MD/Hanover/3022-Bretons-Ridge-Way-21076/home/165843136,BRIGHT MLS,MDAA428100,N,Y,39.134149,-76.75228
PAST SALE,June-23-2020,Townhouse,3006 Bretons Ridge Way,Hanover,MD,21076,390685,3,2.5,PARKSIDE,1943,,2020,530,201,91,Sold,,,https://www.redfin.com/MD/Hanover/3006-Bretons-Ridge-Way-21076/home/165843141,BRIGHT MLS,MDAA424396,N,Y,39.133944,-76.751743
PAST SALE,,Townhouse,7918 N Gladden Farm Way,Hanover,MD,21076,835664,,2.5,,2340,2250,2020,,357,,,,,https://www.redfin.com/MD/Hanover/7918-N-Gladden-Farm-Way-21076/home/165843128,,,N,Y,39.133893,-76.753893
PAST SALE,August-31-2020,Townhouse,3056 Bretons Ridge Way,Hanover,MD,21076,481500,3,3.0,KATHERINE B EGGERL,,1980,2020,461,,91,Sold,,,https://www.redfin.com/MD/Hanover/3056-Bretons-Ridge-Way-21076/home/165843129,BRIGHT MLS,MDAA435458,N,Y,39.134615,-76.753404
PAST SALE,August-31-2020,Townhouse,3040 Bretons Ridge Way,Hanover,MD,21076,459000,3,3.0,KATHERINE B EGGERL,2189,2430,2020,461,210,91,Sold,,,https://www.redfin.com/MD/Hanover/3040-Bretons-Ridge-Way-21076/unit-350/home/165843132,BRIGHT MLS,MDAA433210,N,Y,39.134389,-76.752857
PAST SALE,July-8-2020,Townhouse,3027 Bretons Ridge Way,Hanover,MD,21076,362990,3,3.5,PARKSIDE,1600,,2020,515,227,91,Sold,,,https://www.redfin.com/MD/Hanover/3027-Bretons-Ridge-Way-21076/home/165843146,BRIGHT MLS,MDAA430314,N,Y,39.133803,-76.752362
PAST SALE,November-25-2019,Townhouse,2709 Amber Crest Rd,Hanover,MD,21076,392000,3,2.5,POINTE AT ARUNDEL PRESER,2564,1804,2012,741,153,105,Sold,,,https://www.redfin.com/MD/Hanover/2709-Amber-Crest-Rd-21076/home/44628072,BRIGHT MLS,MDAA409530,N,Y,39.1435447,-76.7497375
PAST SALE,October-8-2021,Single Family Residential,6193 Old Washington Rd,Elkridge,MD,21075,208000,3,3.0,ELKRIDGE,1117,12153,1920,58,186,,Sold,,,https://www.redfin.com/MD/Elkridge/6193-Old-Washington-Rd-21075/home/9861256,BRIGHT MLS,MDHW296182,N,Y,39.2074458,-76.7216219
PAST SALE,September-11-2020,Townhouse,1735 Theale Way,Hanover,MD,21076,395000,3,2.5,VILLAGES OF DORCHESTER,2094,1944,2008,450,189,107,Sold,,,https://www.redfin.com/MD/Hanover/1735-Theale-Way-21076/home/23425672,BRIGHT MLS,MDAA442336,N,Y,39.15768,-76.738997
PAST SALE,August-20-2021,Single Family Residential,7309 Musical Way,Severn,MD,21144,647000,4,2.5,MERRIWEATHER,2810,10002,1989,107,230,,Sold,,,https://www.redfin.com/MD/Severn/7309-Musical-Way-21144/home/10349484,BRIGHT MLS,MDAA2001822,N,Y,39.1519073,-76.6893751
PAST SALE,June-29-2020,Townhouse,7239 Fair Oak Dr,Hanover,MD,21076,380000,4,3.5,VILLAGES OF DORCHESTER,2014,1440,2006,524,189,107,Sold,,,https://www.redfin.com/MD/Hanover/7239-Fair-Oak-Dr-21076/home/10482500,BRIGHT MLS,MDAA425628,N,Y,39.1632208,-76.7332725
PAST SALE,July-8-2019,Townhouse,1444 Strahorn Rd,Hanover,MD,21076,328400,2,2.5,AA COUNTY,1600,,2019,881,205,99,Sold,,,https://www.redfin.com/MD/Hanover/1444-Strahorn-Rd-21076/home/165901995,BRIGHT MLS,MDAA399280,N,Y,39.158699,-76.715655
PAST SALE,January-8-2020,Townhouse,1313 Bruley Rd,Hanover,MD,21076,338890,2,2.5,Hanover,1600,,2020,697,212,99,Sold,,,https://www.redfin.com/MD/Hanover/1313-Bruley-Rd-21076/home/165902005,BRIGHT MLS,MDAA407560,N,Y,39.158698,-76.715035
PAST SALE,September-30-2019,Townhouse,1329 Bruley Rd,Hanover,MD,21076,337300,2,2.5,Hanover,1600,,2019,797,211,99,Sold,,,https://www.redfin.com/MD/Hanover/1329-Bruley-Rd-21076/home/165902007,BRIGHT MLS,MDAA409966,N,Y,39.158932,-76.715391
PAST SALE,January-10-2019,Townhouse,3010 Frayser Farm Rd,Hanover,MD,21076,350985,3,3.0,PARKSIDE,1612,1120,2018,1060,218,84,Sold,,,https://www.redfin.com/MD/Hanover/3010-Frayser-Farm-Rd-21076/home/165903337,BRIGHT MLS,MDAA302870,N,Y,39.130352,-76.75108
PAST SALE,January-10-2019,Townhouse,3012 Frayser Farm Rd,Hanover,MD,21076,353385,3,3.0,PARKSIDE,1612,1120,2018,1060,219,84,Sold,,,https://www.redfin.com/MD/Hanover/3012-Frayser-Farm-Rd-21076/home/165903340,BRIGHT MLS,MDAA302868,N,Y,39.1303577,-76.7511743
PAST SALE,March-15-2019,Townhouse,3025 Frayser Farm Rd,Hanover,MD,21076,351024,3,3.0,PARKSIDE,1570,,2018,996,224,84,Sold,,,https://www.redfin.com/MD/Hanover/3025-Frayser-Farm-Rd-21076/home/165903342,BRIGHT MLS,MDAA301744,N,Y,39.130389,-76.751774
PAST SALE,April-9-2019,Townhouse,3023 Frayser Farm Rd,Hanover,MD,21076,336990,3,3.0,PARKSIDE,1570,,2018,971,215,86,Sold,,,https://www.redfin.com/MD/Hanover/3023-Frayser-Farm-Rd-21076/home/165903346,BRIGHT MLS,MDAA395208,N,Y,39.130362,-76.751719
PAST SALE,July-5-2019,Townhouse,3007 Frayser Farm Rd,Hanover,MD,21076,353970,3,3.0,PARKSIDE,,,2018,884,,86,Sold,,,https://www.redfin.com/MD/Hanover/3007-Frayser-Farm-Rd-21076/home/165903352,BRIGHT MLS,MDAA303944,N,Y,39.130086,-76.751167
PAST SALE,August-14-2019,Townhouse,2939 Hebron Ln,Hanover,MD,21076,432987,3,2.5,PARKSIDE,190,,2019,844,2279,86,Sold,,,https://www.redfin.com/MD/HANOVER/2939-HEBRON-LN-21076/home/165903371,BRIGHT MLS,MDAA410076,N,Y,39.132202,-76.751855
PAST SALE,May-28-2019,Single Family Residential,1614 Hekla Ln,Hanover,MD,21076,493190,4,2.5,HARMANS RIDGE,2500,4482,2019,922,197,,Sold,,,https://www.redfin.com/MD/Hanover/1614-Hekla-Ln-21076/home/110085541,BRIGHT MLS,MDAA410288,N,Y,39.1480424,-76.706617
PAST SALE,May-8-2019,Townhouse,2566 Cherry Tree Rd,Hanover,MD,21076,375000,3,3.0,POINTE AT ARUNDEL PRESER,1616,1664,2013,942,232,105,Sold,,,https://www.redfin.com/MD/Hanover/2566-Cherry-Tree-Rd-21076/home/44628098,BRIGHT MLS,MDAA378814,N,Y,39.1443228,-76.7491507
PAST SALE,December-12-2019,Townhouse,2907 Davis Ridge Cts,Hanover,MD,21076,400000,3,2.5,PARKSIDE,2270,2386,2019,724,176,74,Sold,,,https://www.redfin.com/MD/HANOVER/2907-DAVIS-RIDGE-CT-21076/home/167625674,BRIGHT MLS,MDAA398678,N,Y,39.13031734,-76.74953494
PAST SALE,May-5-2021,Single Family Residential,7818 Metacomet Rd,Hanover,MD,21076,440000,3,3.0,RIDGEFIELD,2030,15000,1983,214,217,,Sold,,,https://www.redfin.com/MD/Hanover/7818-Metacomet-Rd-21076/home/10365895,BRIGHT MLS,MDAA464024,N,Y,39.1400632,-76.7373045
PAST SALE,March-15-2021,Townhouse,7441 Matapan Dr,Hanover,MD,21076,485000,3,3.0,KATHERINE B EGGERL,2600,2389,2014,265,187,88,Sold,,,https://www.redfin.com/MD/Hanover/7441-Matapan-Dr-21076/home/69076001,BRIGHT MLS,MDAA455870,N,Y,39.1323552,-76.7464236
PAST SALE,August-6-2021,Townhouse,7934 Silver Oak Rd,Hanover,MD,21076,430000,3,3.0,POINTE AT ARUNDEL PRESER,2080,1664,2013,121,207,120,Sold,,,https://www.redfin.com/MD/Hanover/7934-Silver-Oak-Rd-21076/home/44628002,BRIGHT MLS,MDAA465840,N,Y,39.1427472,-76.7503574
PAST SALE,June-18-2021,Townhouse,2503 Rolling Forest Dr,Hanover,MD,21076,540000,3,3.5,KATHERINE B EGGERL,3130,2430,2014,170,173,88,Sold,,,https://www.redfin.com/MD/Hanover/2503-Rolling-Forest-Dr-21076/home/56259409,BRIGHT MLS,MDAA467546,N,Y,39.1310194,-76.7451345
PAST SALE,March-12-2019,Townhouse,1608 Durham Way,Hanover,MD,21076,399900,3,3.5,VILLAGES OF DORCHESTER,1757,3791,2007,999,228,100,Sold,,,https://www.redfin.com/MD/Hanover/1608-Durham-Way-21076/home/12522420,BRIGHT MLS,MDAA302218,N,Y,39.157088,-76.737366
PAST SALE,February-2-2021,Townhouse,1420 Pangbourne Way,Hanover,MD,21076,370000,3,3.0,VILLAGES OF DORCHESTER,2414,1600,2005,306,153,108,Sold,,,https://www.redfin.com/MD/Hanover/1420-Pangbourne-Way-21076/home/10480152,BRIGHT MLS,MDAA454716,N,Y,39.1623454,-76.7306049
PAST SALE,July-1-2020,Townhouse,2615 Hardaway Cir #53,Hanover,MD,21076,448706,3,2.5,SHIPLEY HOMESTEAD,1968,1742,2020,522,228,74,Sold,,,https://www.redfin.com/MD/Hanover/2615-Hardaway-Cir-21076/unit-53/home/171305837,BRIGHT MLS,MDAA431204,N,Y,39.136206,-76.7426329
PAST SALE,May-6-2020,Townhouse,1508 Martock Ln,Hanover,MD,21076,348000,3,3.5,VILLAGES OF DORCHESTER,2014,1440,2006,578,173,107,Sold,,,https://www.redfin.com/MD/Hanover/1508-Martock-Ln-21076/home/10482524,BRIGHT MLS,MDAA410876,N,Y,39.1628768,-76.7330658
PAST SALE,December-21-2018,Townhouse,1334 Hawthorn Dr,Hanover,MD,21076,375800,3,3.0,DORCHESTER VIEW,2073,2194,2018,1080,181,58,Sold,,,https://www.redfin.com/MD/Hanover/1334-Hawthorn-Dr-21076/home/110083758,BRIGHT MLS,MDAA100834,N,Y,39.1658742,-76.7310749
PAST SALE,June-28-2019,Townhouse,1511 Rutland Way,Hanover,MD,21076,389900,4,3.5,VILLAGES OF DORCH,2960,1760,2006,891,132,108,Sold,,,https://www.redfin.com/MD/Hanover/1511-Rutland-Way-21076/home/17362473,BRIGHT MLS,MDAA402336,N,Y,39.1608375,-76.7328424
PAST SALE,,Other,7639 Stemhart Ln,Hanover,MD,21076,393875,,,,,18731,,,,,,,,https://www.redfin.com/MD/Hanover/7639-Stemhart-Ln-21076/home/143871516,,,N,Y,39.1505344,-76.7268892
PAST SALE,June-17-2019,Single Family Residential,1911 Ridgewood Rd,Hanover,MD,21076,501528,4,2.5,RIDGEWOOD ESTATES,3836,56628,1983,902,131,13,Sold,,,https://www.redfin.com/MD/Hanover/1911-Ridgewood-Rd-21076/home/10366655,BRIGHT MLS,MDAA399266,N,Y,39.1426381,-76.7320965
PAST SALE,August-30-2019,Townhouse,1363 Hawthorn Dr,Hanover,MD,21076,376990,3,3.0,DORCHESTER VIEW,2040,1658,2019,828,185,58,Sold,,,https://www.redfin.com/MD/Hanover/1363-Hawthorn-Dr-21076/home/110083716,BRIGHT MLS,MDAA401190,N,Y,39.165675,-76.732082
PAST SALE,September-9-2019,Single Family Residential,1846 Cedar Dr,Severn,MD,21144,350000,3,3.0,SEVERN RIDGE,2488,21475,1973,818,141,,Sold,,,https://www.redfin.com/MD/Severn/1846-Cedar-Dr-21144/home/10379714,BRIGHT MLS,MDAA397586,N,Y,39.1427558,-76.7192507
PAST SALE,September-25-2020,Townhouse,2240 Brimstone Pl,Hanover,MD,21076,535000,3,3.5,THE ENCLAVE AT ARUNDEL P,3816,2940,2008,436,140,121,Sold,,,https://www.redfin.com/MD/Hanover/2240-Brimstone-Pl-21076/home/11750827,BRIGHT MLS,MDAA443908,N,Y,39.148263,-76.743865
PAST SALE,August-6-2019,Single Family Residential,1206 Countryside Ct,Hanover,MD,21076,440000,4,2.5,FIELDSTONE MANOR,1996,8191,2017,852,220,17,Sold,,,https://www.redfin.com/MD/Hanover/1206-Countryside-Ct-21076/home/140786317,BRIGHT MLS,MDAA255528,N,Y,39.161445,-76.735569
PAST SALE,August-30-2019,Townhouse,7940 Patterson Way,Hanover,MD,21076,388920,3,2.5,PARKSIDE,2270,2386,2019,828,171,74,Sold,,,https://www.redfin.com/MD/Fort-Meade/7940-Patterson-Way-21076/home/167625529,BRIGHT MLS,MDAA377088,N,Y,39.1291756,-76.7501068
PAST SALE,April-23-2019,Townhouse,2801 Fredericksburg Rd,Hanover,MD,21076,403805,3,2.5,PARKSIDE,190,,2019,957,2125,86,Sold,,,https://www.redfin.com/MD/Hanover/2801-Fredericksburg-Rd-21076/home/110085694,BRIGHT MLS,MDAA397042,N,Y,39.1301616,-76.7490458
PAST SALE,June-22-2020,Townhouse,7511 Dogwood Ln,Hanover,MD,21076,379000,3,3.5,BUCKINGHAM,2000,1750,2015,531,190,108,Sold,,,https://www.redfin.com/MD/Hanover/7511-Dogwood-Ln-21076/home/18988416,BRIGHT MLS,MDAA406144,N,Y,39.1532913,-76.6945634
PAST SALE,December-2-2021,Condo/Co-op,1624 Hardwick Ct #403,Hanover,MD,21076,295000,2,2.0,STONEY RUN,1407,1407,2011,3,210,352,Sold,,,https://www.redfin.com/MD/Hanover/1624-Hardwick-Ct-21076/unit-403/home/40125298,BRIGHT MLS,MDAA2000445,N,Y,39.1505146,-76.7228991
PAST SALE,November-20-2020,Single Family Residential,2538-2538 Debert Cir,Hanover,MD,21076,390690,3,3.0,Hanover,2500,400,2020,380,156,,Sold,,,https://www.redfin.com/MD/Hanover/2538-Debert-Cir-21076/home/143871085,BRIGHT MLS,MDAA453794,N,Y,39.137314,-76.74153
PAST SALE,August-20-2019,Townhouse,1526 Martock Ln,Hanover,MD,21076,360000,3,2.5,VILLAGES OF DORCHESTER,2014,1440,2006,838,179,107,Sold,,,https://www.redfin.com/MD/Hanover/1526-Martock-Ln-21076/home/10482516,BRIGHT MLS,MDAA406906,N,Y,39.1631891,-76.732223
PAST SALE,August-12-2021,Townhouse,3116 Potters Hill Rd,Hanover,MD,21076,420000,3,3.5,KATHERINE B EGGERL,1624,1120,2019,115,259,88,Sold,,,https://www.redfin.com/MD/HANOVER/3116-POTTERS-HILL-RD-21076/home/167621592,BRIGHT MLS,MDAA2000446,N,Y,39.13010251,-76.75184695
PAST SALE,,Condo/Co-op,7038 Rackham Way,Hanover,MD,21076,411015,,,,,,,,,,,,,https://www.redfin.com/MD/Hanover/7038-Rackham-Way-21076/home/146876749,,,N,Y,39.1866439,-76.7380372
PAST SALE,June-16-2021,Single Family Residential,1214 Countryside Ct,Hanover,MD,21076,530000,4,2.5,FIELDSTONE MANOR,2198,7552,2017,172,241,17,Sold,,,https://www.redfin.com/MD/Hanover/1214-Countryside-Ct-21076/home/140786308,BRIGHT MLS,MDAA466156,N,Y,39.161898,-76.735955
PAST SALE,July-6-2021,Townhouse,2204 Hollowoak Dr,Hanover,MD,21076,496000,4,3.5,THE ENCLAVE AT ARUNDEL P,3600,2001,2008,152,138,121,Sold,,,https://www.redfin.com/MD/Hanover/2204-Hollow-Oak-Dr-21076/home/11750787,BRIGHT MLS,MDAA464102,N,Y,39.148994,-76.74549
PAST SALE,,Other,5920 Florey Rd,Hanover,MD,21076,220000,,,,,304092,,,,,,,,https://www.redfin.com/MD/Hanover/5920-Florey-Rd-21076/home/9859047,,,N,Y,39.2016416,-76.7168712
PAST SALE,February-18-2020,Townhouse,8119 Dalton Way,Hanover,MD,21076,439900,3,3.0,SHIPLEY HOMESTEAD,2701,1870,2017,656,163,73,Sold,,,https://www.redfin.com/MD/Hanover/8119-Dalton-Way-21076/home/110085347,BRIGHT MLS,MDAA399524,N,Y,39.134114,-76.736504
PAST SALE,July-26-2019,Townhouse,1035 Ironwood Ln,Hanover,MD,21076,384000,3,3.0,BUCKINGHAM,2000,1400,2014,863,192,108,Sold,,,https://www.redfin.com/MD/Hanover/1035-Ironwood-Ln-21076/home/18988374,BRIGHT MLS,MDAA400766,N,Y,39.152182,-76.693989
PAST SALE,,Single Family Residential,Frayser Farm Rd,Hanover,MD,21076,344975,,,,,1120,,,,,,,,https://www.redfin.com/MD/Hanover/Frayser-Farm-Rd-21076/home/147361533,,,N,Y,39.1303477,-76.7513789
PAST SALE,August-25-2020,Single Family Residential,6105 Adcock Ln,Hanover,MD,21076,453000,4,3.0,CANBURY WOODS,2524,8593,1992,467,179,15,Sold,,,https://www.redfin.com/MD/Hanover/6105-Adcock-Ln-21076/home/9875376,BRIGHT MLS,MDHW281706,N,Y,39.2044494,-76.7200113
PAST SALE,October-7-2021,Townhouse,7652 Sandhurst Ln,Hanover,MD,21076,440000,3,2.5,VILLAGES OF DORCHESTER,2068,2547,2008,59,213,107,Sold,,,https://www.redfin.com/MD/Hanover/7652-Sandhurst-Ln-21076/home/12523024,BRIGHT MLS,MDAA2007182,N,Y,39.15795,-76.739813
PAST SALE,May-15-2020,Townhouse,7530 Stoney Run Dr Unit A,Hanover,MD,21076,310000,3,2.5,STONEY RUN,1685,,2009,569,184,228,Sold,,,https://www.redfin.com/MD/Hanover/7530-Stoney-Run-Dr-21076/unit-A/home/147382069,BRIGHT MLS,MDAA424876,N,Y,39.148456,-76.7255629
PAST SALE,,Single Family Residential,1702 Calderdale Ct,Hanover,MD,21076,492000,,3.5,,2512,8573,2004,,196,,,,,https://www.redfin.com/MD/Hanover/1702-Calderdale-Ct-21076/home/10477728,,,N,Y,39.1490532,-76.7381837
PAST SALE,December-11-2019,Townhouse,2905 Davis Ridge Cts,Hanover,MD,21076,408671,3,2.5,PARKSIDE,2471,2386,2019,725,165,74,Sold,,,https://www.redfin.com/MD/HANOVER/2905-DAVIS-RIDGE-CT-21076/home/167625673,BRIGHT MLS,MDAA398684,N,Y,39.13018268,-76.74951494
PAST SALE,September-27-2021,Townhouse,7403 Matapan Dr,Hanover,MD,21076,518000,3,3.5,KATHERINE B EGGERL,2600,2344,2015,69,199,88,Sold,,,https://www.redfin.com/MD/Hanover/7403-Matapan-Dr-21076/home/59253697,BRIGHT MLS,MDAA2004828,N,Y,39.1332777,-76.7456621
PAST SALE,May-28-2020,Townhouse,1422 Pangbourne Way,Hanover,MD,21076,325000,3,3.0,VILLAGES OF DORCHESTER,1600,1600,2005,556,203,107,Sold,,,https://www.redfin.com/MD/Hanover/1422-Pangbourne-Way-21076/home/10480151,BRIGHT MLS,1001545190,N,Y,39.1623297,-76.7305352
PAST SALE,December-4-2019,Single Family Residential,7163 Somerton Ct,Hanover,MD,21076,660000,5,3.5,VILLAGES OF DORCHESTER,5396,7720,2007,732,122,74,Sold,,,https://www.redfin.com/MD/Hanover/7163-Somerton-Ct-21076/home/10482577,BRIGHT MLS,MDAA410882,N,Y,39.1516014,-76.736515
PAST SALE,April-7-2021,Single Family Residential,7718 Harmans Rd,Hanover,MD,21076,500000,4,2.5,HARMANS WOODS,3360,15243,1984,242,149,,Sold,,,https://www.redfin.com/MD/Hanover/7718-Harmans-Rd-21076/home/10336586,BRIGHT MLS,MDAA460476,N,Y,39.1428086,-76.7119613
PAST SALE,November-10-2021,Townhouse,7840 Mine Run Rd,Hanover,MD,21076,528755,3,2.5,PARKSIDE,2285,,2021,25,231,88,Sold,,,https://www.redfin.com/MD/HANOVER/7840-MINE-RUN-RD-21076/home/174486123,BRIGHT MLS,MDAA2004232,N,Y,39.13324801,-76.75533484
PAST SALE,,Townhouse,7272 Dorchester Woods Ln,Hanover,MD,21076,370000,3,3.0,,2380,1300,2013,,155,,,,,https://www.redfin.com/MD/Hanover/7272-Dorchester-Woods-Ln-21076/home/40015394,,,N,Y,39.1632591,-76.735446
PAST SALE,January-28-2020,Townhouse,1705 Fieldstone Ct #2,Hanover,MD,21076,300000,3,2.5,STONEY RUN,,,2017,677,,216,Sold,,,https://www.redfin.com/MD/Hanover/1705-Fieldstone-Ct-21076/unit-2/home/147361951,BRIGHT MLS,MDAA418986,N,Y,39.1509252,-76.7226401
PAST SALE,March-9-2019,Townhouse,7519 Mundell Rd,Hanover,MD,21076,323990,3,3.5,Hanover,1650,2000,2019,1002,196,99,Sold,,,https://www.redfin.com/MD/Hanover/7519-Mundell-Rd-21076/home/147361479,BRIGHT MLS,MDAA374832,N,Y,39.15841490875006,-76.71478820696787
PAST SALE,June-29-2020,Townhouse,3002 Bretons Ridge Way,Hanover,MD,21076,408920,3,2.5,PARKSIDE,1943,,2020,524,210,91,Sold,,,https://www.redfin.com/MD/Hanover/3002-Bretons-Ridge-Way-21076/home/166074866,BRIGHT MLS,MDAA424688,N,Y,39.133924,-76.751596
PAST SALE,,Single Family Residential,Oak Dr,Arnold,MD,21012,589990,,4.0,,3332,6955,2017,,177,,,,,https://www.redfin.com/MD/Arnold/Oak-Dr-21012/home/147361025,,,N,Y,39.14315,-76.74963
PAST SALE,March-31-2020,Townhouse,7839 Otterbein Way,Hanover,MD,21076,460000,3,2.5,KATHERINE B EGGERL,2824,1944,2019,614,163,91,Sold,,,https://www.redfin.com/MD/Hanover/7839-Otterbein-Way-21076/home/143870686,BRIGHT MLS,MDAA422100,N,Y,39.134761,-76.752692
PAST SALE,October-27-2021,Townhouse,2915 Glendale Ave,Hanover,MD,21076,425000,3,3.0,KATHERINE B EGGERL,1920,1470,2018,39,221,88,Sold,,,https://www.redfin.com/MD/Hanover/2915-Glendale-Ave-20794/home/146137963,BRIGHT MLS,MDAA2009904,N,Y,39.1306068,-76.7509556
PAST SALE,July-5-2021,Townhouse,1540 Speen Ct,Hanover,MD,21076,460000,3,2.5,VILLAGES OF DORCHESTER,2980,2970,2007,153,154,,Sold,,,https://www.redfin.com/MD/Hanover/1540-Speen-Ct-21076/home/10482621,BRIGHT MLS,MDAA468110,N,Y,39.1609475,-76.7364199
PAST SALE,February-6-2020,Single Family Residential,1306 Cresta Pl,Hanover,MD,21076,536900,5,3.5,RIDGE RETREAT,3094,7008,2019,668,174,16,Sold,,,https://www.redfin.com/MD/Hanover/1306-Cresta-Pl-21076/home/110085889,BRIGHT MLS,MDAA400340,N,Y,39.1581124,-76.7141934
PAST SALE,March-27-2019,Townhouse,3019 Glendale Ave,Hanover,MD,21076,348405,3,3.0,PARKSIDE,,,2018,984,,84,Sold,,,https://www.redfin.com/MD/Hanover/3019-Glendale-Ave-21076/home/147801902,BRIGHT MLS,1009984418,N,Y,39.1309481,-76.7513211
PAST SALE,June-27-2019,Townhouse,7811 Crystal Brook Way,Hanover,MD,21076,483000,3,2.5,THE ENCLAVE AT ARUNDEL P,,2410,2019,892,,120,Sold,,,https://www.redfin.com/MD/Hanover/7811-Crystal-Brook-Way-21076/home/40015755,BRIGHT MLS,MDAA405672,N,Y,39.1444285,-76.7471654
PAST SALE,May-25-2021,Townhouse,2984 Cornfield Ave,Hanover,MD,21076,450423,3,2.5,PARKSIDE,1943,,2021,194,232,91,Sold,,,https://www.redfin.com/MD/Hanover/2984-Cornfield-Ave-21076/home/166074847,BRIGHT MLS,MDAA456424,N,Y,39.1321851,-76.7530189
PAST SALE,March-10-2020,Townhouse,8310 Meadowood Ct #116,Hanover,MD,21076,444846,3,2.5,SHIPLEY HOMESTEAD,2700,2178,2019,635,165,75,Sold,,,https://www.redfin.com/MD/Hanover/8310-Meadowood-Dr-21076/unit-116/home/170274423,BRIGHT MLS,MDAA422588,N,Y,39.1362887,-76.7409256
PAST SALE,July-11-2019,Single Family Residential,7722 Siden Dr,Hanover,MD,21076,307000,4,2.0,HARMANS WOODS,1486,6076,1984,878,207,,Sold,,,https://www.redfin.com/MD/Hanover/7722-Siden-Dr-21076/home/10336305,BRIGHT MLS,MDAA400764,N,Y,39.1454608,-76.7015655
PAST SALE,September-30-2019,Single Family Residential,7930 Marietta Dr,Hanover,MD,21076,522720,3,3.0,KATHERINE B EGGERL,,2453,2019,797,,,Sold,,,https://www.redfin.com/MD/Hanover/7930-Marietta-Dr-21076/home/166074845,BRIGHT MLS,MDAA417072,N,Y,39.1322316,-76.7521947
PAST SALE,February-12-2021,Townhouse,7727 Duncannon Ln,Hanover,MD,21076,400000,2,3.5,KATHERINE B EGGERL,1760,1120,2015,296,227,88,Sold,,,https://www.redfin.com/MD/Hanover/7727-Duncannon-Ln-21076/home/69075852,BRIGHT MLS,MDAA455732,N,Y,39.1336725,-76.7488055
PAST SALE,April-17-2019,Townhouse,7805 Chanceford Dr,Hanover,MD,21076,419425,3,3.0,PARKSIDE,2034,,2019,963,206,84,Sold,,,https://www.redfin.com/MD/Hanover/7805-Chanceford-Dr-21076/home/147361586,BRIGHT MLS,MDAA302832,N,Y,39.1330078,-76.7509617
PAST SALE,July-8-2019,Townhouse,1450 Strahorn Rd,Hanover,MD,21076,356405,2,2.5,Hanover,1650,,2019,881,216,99,Sold,,,https://www.redfin.com/MD/Hanover/1450-Strahorn-Rd-21076/home/166074432,BRIGHT MLS,MDAA376884,N,Y,39.158809,-76.715764
PAST SALE,July-10-2020,Single Family Residential,7255 Wright Rd,Hanover,MD,21076,575368,5,3.5,WRIGHTMOORE,2303,3510,2020,513,250,74,Sold,,,https://www.redfin.com/MD/Hanover/7255-Wright-Rd-21076/home/113521704,BRIGHT MLS,MDAA416550,N,Y,39.1599268,-76.7372771
PAST SALE,March-18-2019,Townhouse,3023 Glendale Ave,Hanover,MD,21076,336990,3,3.0,PARKSIDE,,,2018,993,,84,Sold,,,https://www.redfin.com/MD/Hanover/3023-Glendale-Ave-21076/home/148570006,BRIGHT MLS,MDAA302136,N,Y,39.1309504,-76.7513262
PAST SALE,June-6-2020,Townhouse,3107 Potters Hill Rd,Hanover,MD,21076,345935,3,3.5,PARKSIDE,1600,,2019,547,216,91,Sold,,,https://www.redfin.com/MD/HANOVER/3107-POTTERS-HILL-RD-21076/home/167621605,BRIGHT MLS,MDAA436310,N,Y,39.135227,-76.751643
PAST SALE,,Unknown,7680 Arundel Mills Blvd,Hanover,MD,21076,5750000,,,,,,,,,,,,,https://www.redfin.com/MD/Hanover/7680-Arundel-Mills-Blvd-21076/home/28499288,,,N,Y,39.1532327,-76.728196
PAST SALE,July-21-2021,Townhouse,3006 Frayser Farm Rd,Hanover,MD,21076,399999,2,2.5,KATHERINE B EGGERL,1720,1120,2019,137,233,88,Sold,,,https://www.redfin.com/MD/Hanover/3006-Frayser-Farm-Rd-21076/home/166074825,BRIGHT MLS,MDAA467644,N,Y,39.130305,-76.750986
PAST SALE,,Condo/Co-op,7621 Stemhart Ln #34,Hanover,MD,21076,339990,,,,1867,,2019,,182,,,,,https://www.redfin.com/MD/Hanover/7621-Stemhart-Ln-21076/unit-34/home/171070568,,,N,Y,39.1505344,-76.7268892
PAST SALE,October-11-2019,Townhouse,1702 Spanish Oak Ct,Hanover,MD,21076,375000,3,2.5,DORCHESTER WOODS,2148,1650,2013,786,175,40,Sold,,,https://www.redfin.com/MD/Hanover/1702-Spanish-Oak-Ct-21076/home/40015564,BRIGHT MLS,MDAA394452,N,Y,39.1638552,-76.7339554
PAST SALE,,Condo/Co-op,1622 Hardwick Ct Unit 1622-1,Hanover,MD,21076,249900,,,,1407,,2011,,178,,,,,https://www.redfin.com/MD/Hanover/1622-Hardwick-Ct-21076/unit-1622-1/home/44628054,,,N,Y,39.1503037,-76.7235929
PAST SALE,July-30-2021,Townhouse,2996 Cornfield Ave,Hanover,MD,21076,496335,3,2.5,KATHERINE B EGGERL,2285,,2021,128,217,91,Sold,,,https://www.redfin.com/MD/Hanover/2996-Cornfield-Ave-21076/home/165843100,BRIGHT MLS,MDAA458724,N,Y,39.132354,-76.753382
PAST SALE,March-10-2021,Single Family Residential,7425 Hickory Ln,Hanover,MD,21076,456000,3,2.0,TIMBER RIDGE,3002,24000,1961,270,152,,Sold,,,https://www.redfin.com/MD/Hanover/7425-Hickory-Ln-21076/home/10428466,BRIGHT MLS,MDAA457660,N,Y,39.1541879,-76.686893
PAST SALE,August-12-2021,Townhouse,2057 Twisted Oak Pl,Hanover,MD,21076,561520,3,3.5,SHIPLEY HOMESTEAD,2412,,2021,115,233,,Sold,,,https://www.redfin.com/MD/Hanover/2057-Twisted-Oak-Pl-21076/home/174489265,BRIGHT MLS,MDAA2006978,N,Y,39.1349375,-76.7393828
PAST SALE,June-18-2019,Townhouse,2954 Cornfield Ave,Hanover,MD,21076,419160,3,2.5,PARKSIDE,190,,2018,901,2206,86,Sold,,,https://www.redfin.com/MD/Hanover/2954-Cornfield-Ave-21076/home/147361548,BRIGHT MLS,MDAA301298,N,Y,39.1317849,-76.751924
PAST SALE,January-3-2020,Townhouse,2263 Brimstone Pl,Hanover,MD,21076,465000,3,3.5,THE ENCLAVE AT ARUNDEL P,3024,2940,2012,702,154,120,Sold,,,https://www.redfin.com/MD/Hanover/2263-Brimstone-Pl-21076/home/11750875,BRIGHT MLS,MDAA417486,N,Y,39.1473084,-76.7438215
PAST SALE,,Single Family Residential,7721 Baggins Rd,Hanover,MD,21076,395000,,2.0,,1094,10809,1983,,361,,,,,https://www.redfin.com/MD/Hanover/7721-Baggins-Rd-21076/home/10336495,,,N,Y,39.143083,-76.7124349
PAST SALE,,Condo/Co-op,1622 Hardwick Ct Unit 1622-2,Hanover,MD,21076,255000,,,,1407,,2011,,181,,,,,https://www.redfin.com/MD/Hanover/1622-Hardwick-Ct-21076/unit-1622-2/home/44628053,,,N,Y,39.1503037,-76.7235929
PAST SALE,October-9-2020,Single Family Residential,6009 Bakers Pl,Hanover,MD,21076,430000,4,2.5,CANBURY WOODS,2148,8790,1988,422,200,14,Sold,,,https://www.redfin.com/MD/Hanover/6009-Bakers-Pl-21076/home/9873903,BRIGHT MLS,MDHW284568,N,Y,39.2051325,-76.7169447
PAST SALE,December-20-2019,Single Family Residential,1704 Maco Dr,Hanover,MD,21076,490000,5,3.5,RIDGE FOREST GLEN,3380,10141,2004,716,145,21,Sold,,,https://www.redfin.com/MD/Hanover/1704-Maco-Dr-21076/home/10478814,BRIGHT MLS,MDAA418130,N,Y,39.1443204,-76.7200285
PAST SALE,October-30-2020,Townhouse,1724 Fieldstone Ct,Hanover,MD,21076,385000,3,2.5,STONEY RUN,,,2016,401,,231,Sold,,,https://www.redfin.com/MD/Hanover/1724-Fieldstone-Ct-21076/home/113159201,BRIGHT MLS,MDAA448554,N,Y,39.1510078,-76.7221742
PAST SALE,July-13-2021,Single Family Residential,7814 Metacomet Rd,Hanover,MD,21076,437000,4,3.0,RIDGEFIELD,1560,15316,1983,145,280,,Sold,,,https://www.redfin.com/MD/Hanover/7814-Metacomet-Rd-21076/home/10365900,BRIGHT MLS,MDAA468250,N,Y,39.1406694,-76.7371918
PAST SALE,April-5-2021,Single Family Residential,1880 Cedar Dr,Severn,MD,21144,215000,1,1.0,SEVERN RIDGE,638,25003,1959,244,337,,Sold,,,https://www.redfin.com/MD/Severn/1880-Cedar-Dr-21144/home/10379573,BRIGHT MLS,MDAA457430,N,Y,39.1412102,-76.722536
PAST SALE,June-30-2021,Townhouse,1510 Rutland Way,Hanover,MD,21076,495000,3,3.5,VILLAGES OF DORCHESTER,2792,2160,2007,158,177,107,Sold,,,https://www.redfin.com/MD/Hanover/1510-Rutland-Way-21076/home/17362513,BRIGHT MLS,MDAA469972,N,Y,39.160688,-76.733336
PAST SALE,September-10-2020,Townhouse,1918 Red Jasper Rd,Hanover,MD,21076,445730,3,3.0,THE RIDGE,2059,1875,2020,451,216,95,Sold,,,https://www.redfin.com/MD/Hanover/1918-Red-Jasper-Rd-21076/home/167633350,BRIGHT MLS,MDAA431890,N,Y,39.191883,-76.7033753
PAST SALE,March-28-2019,Townhouse,2644 Richmond Way,Hanover,MD,21076,361175,4,3.5,KATHERINE B EGGERL,2469,1606,2019,983,146,84,Sold,,,https://www.redfin.com/MD/Hanover/2644-Richmond-Way-21076/home/110085525,BRIGHT MLS,1002068104,N,Y,39.130918,-76.747123
PAST SALE,March-17-2020,Single Family Residential,2243 Nottoway Dr,Hanover,MD,21076,606332,5,4.5,SHIPLEY HOMESTEAD,2719,4950,2020,628,223,49,Sold,,,https://www.redfin.com/MD/Hanover/2243-Nottoway-Dr-21076/home/143871185,BRIGHT MLS,MDAA418406,N,Y,39.13858,-76.741178
PAST SALE,May-5-2020,Single Family Residential,1623 Deer Meadow Ct,Hanover,MD,21076,515000,6,3.5,RIDGE FOREST,3696,22829,1996,579,139,19,Sold,,,https://www.redfin.com/MD/Hanover/1623-Deer-Meadow-Ct-21076/home/10366331,BRIGHT MLS,MDAA428260,N,Y,39.1446497,-76.721098
PAST SALE,November-17-2020,Townhouse,1015 Ironwood Ln,Hanover,MD,21076,400000,3,2.5,BUCKINGHAM,2000,1750,2010,383,200,108,Sold,,,https://www.redfin.com/MD/Hanover/1015-Ironwood-Ln-21076/home/18988437,BRIGHT MLS,MDAA438866,N,Y,39.152424,-76.692579
PAST SALE,March-12-2021,Townhouse,2976 Cornfield Ave,Hanover,MD,21076,482135,3,2.5,PARKSIDE,2285,,2021,268,211,91,Sold,,,https://www.redfin.com/MD/Hanover/2976-Cornfield-Ave-21076/home/165991325,BRIGHT MLS,MDAA450258,N,Y,39.13214,-76.752713
PAST SALE,April-26-2019,Townhouse,7839 Crystal Brook Way,Hanover,MD,21076,445000,3,3.0,POINTE AT ARUNDEL PRESER,2564,1804,2013,954,174,105,Sold,,,https://www.redfin.com/MD/Hanover/7839-Crystal-Brook-Way-21076/home/44628019,BRIGHT MLS,MDAA393658,N,Y,39.1436322,-76.7481162
PAST SALE,March-31-2021,Townhouse,2577 Debert,Hanover,MD,21076,398922,3,3.0,SHIPLEY HOMESTEAD,1584,,2021,249,252,90,Sold,,,https://www.redfin.com/MD/Hanover/2577-Debert-Cir-21076/home/143871104,BRIGHT MLS,MDAA463720,N,Y,39.137921,-76.741434
PAST SALE,February-24-2021,Townhouse,7417 Matapan Dr,Hanover,MD,21076,495000,3,2.5,KATHERINE B EGGERL,2616,2250,2015,284,189,88,Sold,,,https://www.redfin.com/MD/Hanover/7417-Matapan-Dr-21076/home/69076021,BRIGHT MLS,MDAA456330,N,Y,39.1329234,-76.7458939
PAST SALE,April-30-2019,Condo/Co-op,1602 Hardwick Ct #401,Hanover,MD,21076,255000,2,2.0,STONEY RUN,1407,1407,2010,950,181,283,Sold,,,https://www.redfin.com/MD/Hanover/1602-Hardwick-Ct-21076/unit-401/home/168839070,BRIGHT MLS,MDAA329242,N,Y,39.149252,-76.724467
PAST SALE,September-16-2020,Single Family Residential,7710 Suffolk Way,Hanover,MD,21076,512000,4,2.5,WILLOWBEND,2136,7006,2007,445,240,35,Sold,,,https://www.redfin.com/MD/Hanover/7710-Suffolk-Way-21076/home/10482663,BRIGHT MLS,MDAA441112,N,Y,39.1489186,-76.7302702
PAST SALE,October-13-2020,Townhouse,1334 Hill Born Dr,Hanover,MD,21076,378000,4,3.5,RIDGE COMMONS,2156,4303,1999,418,175,42,Sold,,,https://www.redfin.com/MD/Hanover/1334-Hill-Born-Dr-21076/home/10365548,BRIGHT MLS,MDAA441460,N,Y,39.1575969,-76.7115963
PAST SALE,March-27-2020,Townhouse,3117 Laurel Hill Rd,Hanover,MD,21076,410000,3,2.5,HANOVER,2270,1828,2020,618,181,77,Sold,,,https://www.redfin.com/MD/Hanover/3117-Laurel-Hill-Rd-21076/home/167625624,BRIGHT MLS,MDAA418998,N,Y,39.1289147,-76.751441
PAST SALE,April-17-2020,Townhouse,1512 Rutland Way,Hanover,MD,21076,405000,4,3.5,VILLAGES OF DORCH,2508,1760,2007,597,161,107,Sold,,,https://www.redfin.com/MD/Hanover/1512-Rutland-Way-21076/home/17362514,BRIGHT MLS,MDAA428128,N,Y,39.16063,-76.733298
