SALE TYPE,SOLD DATE,PROPERTY TYPE,ADDRESS,CITY,STATE OR PROVINCE,ZIP OR POSTAL CODE,PRICE,BEDS,BATHS,LOCATION,SQUARE FEET,LOT SIZE,YEAR BUILT,DAYS ON MARKET,$/SQUARE FEET,HOA/MONTH,STATUS,NEXT OPEN HOUSE START TIME,NEXT OPEN HOUSE END TIME,URL (SEE https://www.redfin.com/buy-a-home/comparative-market-analysis FOR INFO ON PRICING),SOURCE,MLS#,FAVORITE,INTERESTED,LATITUDE,LONGITUDE
MLS Listing,,Single Family Residential,403 Cassell Close,Westminster,MD,21158,599000,4,3.5,WESTMINSTER ELECTION DIS,4727,20270,1988,12,127,,Active,,,https://www.redfin.com/MD/Westminster/403-Cassell-Close-21158/home/14466720,BRIGHT MLS,MDCR2003608,N,Y,39.5658837,-77.0311912
PAST SALE,April-11-2019,Single Family Residential,696 Johahn Dr,Westminster,MD,21158,295900,3,2.0,GREENS OF WEST,1844,7557,1988,969,160,7,Sold,,,https://www.redfin.com/MD/Westminster/696-Johahn-Dr-21158/home/14465498,BRIGHT MLS,MDCR167760,N,Y,39.5849011,-77.023454
PAST SALE,July-30-2021,Single Family Residential,620 S Frizzellburg Rd,Westminster,MD,21158,560000,5,3.0,UNIONTOWN ELECTION DISTR,2207,184694,1979,128,254,,Sold,,,https://www.redfin.com/MD/Westminster/620-S-Frizzellburg-Rd-21158/home/14461214,BRIGHT MLS,MDCR205194,N,Y,39.5927401,-77.0839219
PAST SALE,May-17-2021,Single Family Residential,4058 Rinehart Rd,Westminster,MD,21158,365000,4,3.0,MYERS ELECTION DISTRICT,1862,37461,2004,202,196,,Sold,,,https://www.redfin.com/MD/Westminster/4058-Rinehart-Rd-21158/home/14460546,BRIGHT MLS,MDCR203646,N,Y,39.6876422,-76.9693693
PAST SALE,October-29-2021,Single Family Residential,641 Canyon Ct,Westminster,MD,21158,395000,5,2.0,MYERS ELECTION DISTRICT,2020,41924,1996,37,196,,Sold,,,https://www.redfin.com/MD/Westminster/641-Canyon-Ct-21158/home/14470553,BRIGHT MLS,MDCR2002258,N,Y,39.7074905,-76.9714395
PAST SALE,July-10-2020,Townhouse,425 Spalding Ct,Westminster,MD,21158,219900,3,1.5,FURNACE HILLS,1508,2471,1990,513,146,4,Sold,,,https://www.redfin.com/MD/Westminster/425-Spalding-Ct-21158/home/14444288,BRIGHT MLS,MDCR195570,N,Y,39.5777713,-77.0147689
PAST SALE,March-1-2021,Single Family Residential,748 Wilford Ct,Westminster,MD,21158,524900,4,2.5,WESTMINSTER ELECTION DIS,2754,15881,2018,279,191,17,Sold,,,https://www.redfin.com/MD/Westminster/748-Wilford-Ct-21158/home/143433303,BRIGHT MLS,MDCR201736,N,Y,39.59762,-77.012704
PAST SALE,June-18-2021,Single Family Residential,598 Footpath Ct,Westminster,MD,21158,350000,3,2.5,MYERS ELECTION DISTRICT,1782,50965,1996,170,196,,Sold,,,https://www.redfin.com/MD/Westminster/598-Footpath-Ct-21158/home/14458484,BRIGHT MLS,MDCR203094,N,Y,39.7061708,-76.9748148
PAST SALE,April-30-2019,Single Family Residential,504 Tylney Hall Ct,Westminster,MD,21158,465000,4,3.5,CLIVEDEN REACH,4644,24159,2002,950,100,,Sold,,,https://www.redfin.com/MD/Westminster/504-Tylney-Hall-Ct-21158/home/14425115,BRIGHT MLS,MDCR182544,N,Y,39.5922243,-77.0133317
PAST SALE,January-22-2021,Single Family Residential,888 Amherst Ln,Westminster,MD,21158,540000,5,2.5,WESTMINSTER ELECTION DIS,3440,13751,2015,317,157,18,Sold,,,https://www.redfin.com/MD/Westminster/888-Amherst-Ln-21158/home/85696434,BRIGHT MLS,MDCR201254,N,Y,39.596627,-77.009464
PAST SALE,September-20-2021,Single Family Residential,242 Sluice Dr,Westminster,MD,21158,425000,6,3.5,WESTMINSTER ELECTION DIS,2606,12626,2001,76,163,10,Sold,,,https://www.redfin.com/MD/Westminster/242-Sluice-Dr-21158/home/14441892,BRIGHT MLS,MDCR2001274,N,Y,39.5805459,-77.0172458
PAST SALE,August-18-2021,Single Family Residential,1420 Pleasant Valley Rd,Westminster,MD,21158,242900,3,2.5,UNIONTOWN ELECTION DISTR,1356,5853,1950,109,179,,Sold,,,https://www.redfin.com/MD/Westminster/1420-Pleasant-Valley-Rd-21158/home/14437482,BRIGHT MLS,MDCR205116,N,Y,39.6330405,-77.0474176
PAST SALE,September-17-2020,Single Family Residential,620 Trango Dr,Westminster,MD,21158,422500,5,2.5,STONRIDGE OVERLOOK,2580,16644,2001,444,164,7,Sold,,,https://www.redfin.com/MD/Westminster/620-Trango-Dr-21158/home/14436704,BRIGHT MLS,MDCR198884,N,Y,39.5820045,-77.0154013
PAST SALE,July-31-2020,Single Family Residential,622 Trango Dr,Westminster,MD,21158,385000,4,2.5,STONRIDGE OVERLOOK,2190,14895,2001,492,176,7,Sold,,,https://www.redfin.com/MD/Westminster/622-Trango-Dr-21158/home/14444873,BRIGHT MLS,MDCR197330,N,Y,39.5822592,-77.0154472
PAST SALE,November-5-2020,Single Family Residential,419 Stacy Lee Ct,Westminster,MD,21158,323000,3,2.5,GREENS OF WEST,2232,9523,1989,395,145,7,Sold,,,https://www.redfin.com/MD/Westminster/419-Stacy-Lee-Ct-21158/home/14429690,BRIGHT MLS,MDCR199402,N,Y,39.5861062,-77.0228606
PAST SALE,October-30-2020,Single Family Residential,4049 Rinehart Rd,Westminster,MD,21158,379900,3,2.0,BIXLER VALLEY,2130,50094,1993,401,178,,Sold,,,https://www.redfin.com/MD/Westminster/4049-Rinehart-Rd-21158/home/15158064,BRIGHT MLS,MDCR199608,N,Y,39.6864291,-76.9695043
MLS Listing,,Single Family Residential,3022 Littlestown Pike,Westminster,MD,21158,309900,3,2.0,MYERS ELECTION DISTRICT,1544,116740,1960,3,201,,Active,,,https://www.redfin.com/MD/Westminster/3022-Littlestown-Pike-21158/home/14476783,BRIGHT MLS,MDCR2003934,N,Y,39.656989,-77.0094177
MLS Listing,,Single Family Residential,206 Leppo Rd,Westminster,MD,21158,250000,3,1.0,MYERS ELECTION DISTRICT,1114,71438,1975,3,224,,Active,,,https://www.redfin.com/MD/Westminster/206-Leppo-Rd-21158/home/14459970,BRIGHT MLS,MDCR2003756,N,Y,39.706331,-77.000846
MLS Listing,,Townhouse,497 Lakes Ct,Westminster,MD,21158,275000,3,2.5,WESTMINSTER ELECTION DIS,1560,3500,1991,5,176,14,Active,,,https://www.redfin.com/MD/Westminster/497-Lakes-Ct-21158/home/14428398,BRIGHT MLS,MDCR2003276,N,Y,39.560906,-77.033164
MLS Listing,,Single Family Residential,576 Rich Mar St,Westminster,MD,21158,475000,5,3.5,WESTMINSTER ELECTION DIS,3200,10141,2000,5,148,21,Active,December-5-2021 12:00 PM,December-5-2021 02:00 PM,https://www.redfin.com/MD/Westminster/576-Rich-Mar-St-21158/home/14439773,BRIGHT MLS,MDCR2003570,N,Y,39.5798748,-77.0169223
MLS Listing,,Single Family Residential,1040 Brown Rd,Westminster,MD,21158,524990,5,2.0,MYERS ELECTION DISTRICT,3568,466963,1830,23,147,,Active,,,https://www.redfin.com/MD/Westminster/1040-Brown-Rd-21158/home/14468706,BRIGHT MLS,MDCR2003472,N,Y,39.672597,-77.031545
MLS Listing,,Single Family Residential,Bachman Valley Rd,Manchester,MD,21102,495000,4,2.5,WESTMINSTER ELECTION DIS,2044,59416,2021,38,242,,Active,,,https://www.redfin.com/MD/Manchester/Lot-1a-Bachman-Valley-RD-21102/home/176368355,BRIGHT MLS,MDCR2003318,N,Y,39.64723671,-76.97341233
MLS Listing,,Single Family Residential,384 Mountain Laurel Ct,Westminster,MD,21158,379900,3,2.5,WESTMINSTER ELECTION DIS,1120,10454,1992,45,339,,Active,,,https://www.redfin.com/MD/Westminster/384-Mountain-Laurel-Ct-21158/home/14451348,BRIGHT MLS,MDCR2002910,N,Y,39.5846607,-77.0192252
MLS Listing,,Single Family Residential,350 Reams Ct,Westminster,MD,21158,675000,6,3.5,WESTMINSTER ELECTION DIS,4502,78408,1999,68,150,,Active,,,https://www.redfin.com/MD/Westminster/350-Reams-Ct-21158/home/14434814,BRIGHT MLS,MDCR2002870,N,Y,39.583955,-77.0477437
MLS Listing,,Single Family Residential,0 Leppo Rd,Westminster,MD,21158,723997,4,2.5,Westminster,3405,328442,2022,104,213,,Active,,,https://www.redfin.com/MD/Westminster/20-Leppo-Rd-21158/home/14479294,BRIGHT MLS,MDCR2002004,N,Y,39.7084461,-76.9892601
MLS Listing,,Single Family Residential,2514 Littlestown Pike,Westminster,MD,21158,699900,3,2.0,WESTMINSTER,1848,1270645,1951,110,379,,Active,,,https://www.redfin.com/MD/Westminster/2514-Littlestown-Pike-21158/home/172397113,BRIGHT MLS,MDCR2001876,N,Y,39.645225,-77.009953
MLS Listing,,Vacant Land,LOT 6 Stone,Westminster,MD,21158,150000,,,UNIONTOWN ELECTION DISTR,,68389,,156,,,Active,,,https://www.redfin.com/MD/Westminster/LOT-6-Stone-Unknown/home/175591615,BRIGHT MLS,MDCR2000568,N,Y,39.65499089,-77.08434676
MLS Listing,,Vacant Land,Lot 5 Stone,Westminster,MD,21158,200000,,,UNIONTOWN ELECTION DISTR,,88862,,156,,,Active,,,https://www.redfin.com/MD/Westminster/Lot-5-Stone-Unknown/home/175591592,BRIGHT MLS,MDCR2000572,N,Y,39.65558189,-77.0844914
MLS Listing,,Vacant Land,1901 Hughes Shop Rd,Westminster,MD,21158,329500,,,WESTMINSTER ELECTION DIS,,255915,,158,,,Active,,,https://www.redfin.com/MD/Westminster/1901-Hughes-Shop-Rd-21158/home/175580045,BRIGHT MLS,MDCR2000478,N,Y,39.6274345,-77.0381724
MLS Listing,,Vacant Land,1032 Oak Dr,Westminster,MD,21158,110000,,,WESTMINSTER ELECTION DIS,,36490,,200,,,Active,,,https://www.redfin.com/MD/Westminster/1032-Oak-Dr-21158/home/175157690,BRIGHT MLS,MDCR204578,N,Y,39.5992152,-77.0354768
MLS Listing,,Vacant Land,P489 S Pleasant Valley Rd,Westminster,MD,21158,125000,,,UNIONTOWN ELECTION DISTR,,41251,,215,,,Active,,,https://www.redfin.com/MD/Westminster/P489-Pleasant-Valley-Rd-21158/home/175054224,BRIGHT MLS,MDCR204270,N,Y,39.61123554,-77.05691807
MLS Listing,,Single Family Residential,LOT #13 Meadow Branch Rd,Westminster,MD,21158,549999,4,2.5,JACOBS RIDGE 1,,142267,,318,,,Active,,,https://www.redfin.com/MD/Westminster/LOT-13-Meadow-Branch-Rd-Unknown/home/173279703,BRIGHT MLS,MDCR202098,N,Y,39.59268,-77.02228
MLS Listing,,Single Family Residential,910-LOT 14 Meadow Branch Rd,Westminster,MD,21158,781223,4,2.5,JACOBS RIDGE 1,,170276,2021,363,,,Active,,,https://www.redfin.com/MD/Westminster/910-Meadow-Branch-Rd-21158/home/174243275,BRIGHT MLS,MDCR198120,N,Y,39.5965403,-77.0179189
MLS Listing,,Vacant Land,Band Hall Hill Rd,Westminster,MD,21158,135000,,,Westminster,,125888,,502,,,Active,,,https://www.redfin.com/MD/WESTMINSTER/BAND-HALL-HILL-RD-21158/home/14441346,BRIGHT MLS,MDCR198244,N,Y,39.70507,-76.947999
MLS Listing,,Vacant Land,525 Taneytown Pike,Westminster,MD,21157,199000,,,Westminster,,6534,,566,,,Active,,,https://www.redfin.com/MD/Westminster/525-Taneytown-Pike-21158/home/14464589,BRIGHT MLS,MDCR196394,N,Y,39.586524,-77.014202
MLS Listing,,Vacant Land,Leppo Rd,Westminster,MD,21158,300000,,,MYERS ELECTION DISTRICT,,328442,,651,,,Active,,,https://www.redfin.com/MD/WESTMINSTER/LEPPO-RD-21158/home/14428161,BRIGHT MLS,MDCR194684,N,Y,39.70312,-77.015477
MLS Listing,,Vacant Land,Rinehart Rd,Westminster,MD,21158,59900,,,Westminster,,112123,,1053,,,Active,,,https://www.redfin.com/MD/WESTMINSTER/RINEHART-RD-21158/home/14432221,BRIGHT MLS,MDCR154184,N,Y,39.687822,-76.966626
PAST SALE,June-4-2021,Single Family Residential,355 N Springdale Rd,Westminster,MD,21158,329000,2,2.0,UNIONTOWN ELECTION DISTR,1273,20000,1957,184,258,,Sold,,,https://www.redfin.com/MD/Westminster/355-N-Springdale-Rd-21158/home/14427311,BRIGHT MLS,MDCR203284,N,Y,39.5856772,-77.0729732
PAST SALE,January-31-2019,Single Family Residential,681 Windsor Dr,Westminster,MD,21158,318000,4,3.5,FURNACE HILLS,2124,7533,1999,1039,150,10,Sold,,,https://www.redfin.com/MD/Westminster/681-Windsor-Dr-21158/home/14466887,BRIGHT MLS,MDCR140264,N,Y,39.5797715,-77.0205749
PAST SALE,December-31-2019,Single Family Residential,300 Mayfield Ct,Westminster,MD,21158,255000,3,2.0,GREENS OF WEST,1988,8628,1984,705,128,7,Sold,,,https://www.redfin.com/MD/Westminster/300-Mayfield-Ct-21158/home/14442666,BRIGHT MLS,MDCR192480,N,Y,39.5846608,-77.0297518
PAST SALE,January-29-2021,Vacant Land,Montessori Dr,Westminster,MD,21158,285000,,,CATOCTIN SUMMIT,,409900,,310,,,Sold,,,https://www.redfin.com/MD/7-Westminster/Montessori-Dr-21158/home/147374409,BRIGHT MLS,MDCR198904,N,Y,39.60960541,-77.03151118
PAST SALE,December-5-2019,Townhouse,946 Wampler Ln,Westminster,MD,21158,207900,3,2.5,WESTMINSTER ELECTION DIS,1224,7591,1985,731,170,7,Sold,,,https://www.redfin.com/MD/Westminster/946-Wampler-Ln-21158/home/14459778,BRIGHT MLS,MDCR192878,N,Y,39.5849529,-77.0312812
PAST SALE,July-31-2019,Single Family Residential,809 Amherst Ln,Westminster,MD,21158,540000,4,4.5,BOLTON HILL,4016,15720,2018,858,134,17,Sold,,,https://www.redfin.com/MD/Westminster/809-Amherst-Ln-21158/home/143433285,BRIGHT MLS,MDCR188038,N,Y,39.597494,-77.011793
PAST SALE,September-24-2021,Single Family Residential,707 Charingworth Ct,Westminster,MD,21158,610000,5,4.5,WESTMINSTER ELECTION DIS,4133,25795,2003,72,148,,Sold,,,https://www.redfin.com/MD/Westminster/707-Charingworth-Ct-21158/home/14460054,BRIGHT MLS,MDCR2000744,N,Y,39.593655,-77.0152213
PAST SALE,August-12-2019,Single Family Residential,44 Wentworth Ct,Westminster,MD,21157,351000,4,2.5,EAGLEVIEW ESTATES,2144,10402,1996,846,164,,Sold,,,https://www.redfin.com/MD/Westminster/44-Wentworth-Ct-21158/home/14439286,BRIGHT MLS,MDCR189836,N,Y,39.5771531,-77.0265579
PAST SALE,,Single Family Residential,4622 Band Hall Hill Rd,Westminster,MD,21158,325000,,1.0,,936,1701715,1900,,347,,,,,https://www.redfin.com/MD/Westminster/4622-Band-Hall-Hill-Rd-21158/home/14432071,,,N,Y,39.7025907,-76.9621201
PAST SALE,October-20-2021,Single Family Residential,3815 Back Woods Rd,Westminster,MD,21158,300000,4,1.0,MANCHESTER ELECTION DIST,1360,590238,1920,46,221,,Sold,,,https://www.redfin.com/MD/Westminster/3815-Back-Woods-Rd-21158/home/56499703,BRIGHT MLS,MDCR203222,N,Y,39.679418,-76.951682
PAST SALE,April-14-2021,Vacant Land,Brown Rd,Westminster,MD,21158,640000,,,RURAL,,5238526,,235,,,Sold,,,https://www.redfin.com/MD/Westminster/Brown-Rd-21158/home/108237831,BRIGHT MLS,MDCR192824,N,Y,39.66383,-77.04085
PAST SALE,June-24-2021,Single Family Residential,2880 Runneymede Dr,Westminster,MD,21158,920000,7,5.5,UNIONTOWN ELECTION DISTR,8649,681235,2007,164,106,,Sold,,,https://www.redfin.com/MD/Westminster/2880-Runneymede-Dr-21158/home/143315188,BRIGHT MLS,MDCR203306,N,Y,39.65071,-77.104003
PAST SALE,,Single Family Residential,2022 Tyrone Rd,Westminster,MD,21158,130000,,1.0,,1344,479160,1900,,97,,,,,https://www.redfin.com/MD/Westminster/2022-Tyrone-Rd-21158/home/44635723,,,N,Y,39.6378119,-77.067994
PAST SALE,December-13-2019,Single Family Residential,2555 Barrymore Dr,Westminster,MD,21158,395000,3,3.0,WESTMINSTER ELECTION DIS,2183,103847,2000,723,181,,Sold,,,https://www.redfin.com/MD/Westminster/2555-Barrymore-Dr-21158/home/14436019,BRIGHT MLS,MDCR192742,N,Y,39.6428429,-76.9899351
PAST SALE,July-22-2019,Single Family Residential,320 College View Blvd,Westminster,MD,21158,360000,4,1.5,WESTMINSTER,3408,393782,1850,867,106,,Sold,,,https://www.redfin.com/MD/Westminster/320-College-View-Blvd-21158/home/14437299,BRIGHT MLS,MDCR162542,N,Y,39.5901575,-77.0071231
PAST SALE,,Townhouse,202 Lodestone Ct,Westminster,MD,21158,224000,,3.0,,1252,2220,2001,,179,,,,,https://www.redfin.com/MD/Westminster/202-Lodestone-Ct-21158/home/14453589,,,N,Y,39.5789742,-77.0150894
PAST SALE,October-31-2019,Townhouse,706 Norfield Ct #4,Westminster,MD,21158,340000,4,3.5,FURNACE HILLS,3426,,2002,766,99,240,Sold,,,https://www.redfin.com/MD/Westminster/706-Norfield-Ct-21158/unit-4/home/14454532,BRIGHT MLS,MDCR191358,N,Y,39.574669,-77.0221494
PAST SALE,May-7-2020,Single Family Residential,732 Wilford Ct,Westminster,MD,21158,503265,3,4.0,BOLTON HILL,3432,12750,2020,577,147,17,Sold,,,https://www.redfin.com/MD/Westminster/732-Wilford-Ct-21158/home/166342410,BRIGHT MLS,MDCR193422,N,Y,39.596916,-77.014911
PAST SALE,January-17-2020,Single Family Residential,3410 Old Hanover Rd,Westminster,MD,21158,600000,3,1.5,MYERS ELECTION DISTRICT,3128,1033243,1980,688,192,,Sold,,,https://www.redfin.com/MD/Westminster/3410-Old-Hanover-Rd-21158/home/162472641,BRIGHT MLS,MDCR192794,N,Y,39.673193,-77.0223029
PAST SALE,,Single Family Residential,3000 Old Taneytown Rd,Westminster,MD,21158,400000,,2.5,,2016,407330,1995,,198,,,,,https://www.redfin.com/MD/Westminster/3000-Old-Taneytown-Rd-21158/home/14478802,,,N,Y,39.62373,-77.103311
PAST SALE,September-18-2019,Single Family Residential,734 Wilford Ct,Westminster,MD,21158,536880,4,2.5,BOLTON HILL,2536,13068,2019,809,212,17,Sold,,,https://www.redfin.com/MD/Westminster/734-Wilford-Ct-21158/home/166342405,BRIGHT MLS,MDCR188670,N,Y,39.597093,-77.014705
PAST SALE,July-12-2019,Single Family Residential,218 Hobbitts Ln,Westminster,MD,21158,335000,4,2.5,STONRIDGE OVERLOOK,2096,9095,2003,877,160,7,Sold,,,https://www.redfin.com/MD/Westminster/218-Hobbitts-Ln-21158/home/14439824,BRIGHT MLS,MDCR187388,N,Y,39.5786694,-77.0136467
PAST SALE,,Single Family Residential,2266 Tyrone Rd,Westminster,MD,21158,150000,,1.0,,900,57935,1964,,167,,,,,https://www.redfin.com/MD/Westminster/2266-Tyrone-Rd-21158/home/14446412,,,N,Y,39.6316018,-77.0795829
PAST SALE,June-3-2021,Single Family Residential,753 Stone Rd,Westminster,MD,21158,275000,4,1.0,WESTMINSTER ELECTION DIS,1500,84376,1900,185,183,,Sold,,,https://www.redfin.com/MD/Westminster/753-Stone-Rd-21158/home/14464710,BRIGHT MLS,MDCR203686,N,Y,39.6422424,-77.0241737
PAST SALE,January-20-2021,Townhouse,705 Medinah Cir,Westminster,MD,21158,203000,4,3.0,WESTMINSTER ELECTION DIS,1808,2000,1995,319,112,33,Sold,,,https://www.redfin.com/MD/Westminster/705-Medinah-Cir-21158/home/14427015,BRIGHT MLS,MDCR201610,N,Y,39.5671998,-77.0229029
PAST SALE,August-13-2021,Single Family Residential,1519 Bachmans Valley Rd,Westminster,MD,21158,557000,6,4.0,MANCHESTER ELECTION DIST,3735,133729,1987,114,149,,Sold,,,https://www.redfin.com/MD/Westminster/1519-Bachmans-Valley-Rd-21158/home/15157054,BRIGHT MLS,MDCR2000642,N,Y,39.665501,-76.9413579
PAST SALE,,Single Family Residential,Wilford Ct,Westminster,MD,21158,501064,,,,,23857,,,,,,,,https://www.redfin.com/MD/Westminster/Wilford-Ct-21158/home/146828795,,,N,Y,39.5966725,-77.0148486
PAST SALE,November-20-2020,Single Family Residential,121 N Springdale Rd,Westminster,MD,21158,430000,4,3.0,WESMINSTER,2680,236182,2002,380,160,,Sold,,,https://www.redfin.com/MD/Westminster/121-N-Springdale-Rd-21158/home/14459884,BRIGHT MLS,MDCR200242,N,Y,39.57701,-77.077585
PAST SALE,June-14-2021,Single Family Residential,2038 Littlestown Pike,Westminster,MD,21158,607000,6,3.0,WESTMINSTER ELECTION DIS,3761,1588198,1900,174,161,,Sold,,,https://www.redfin.com/MD/Westminster/2038-Littlestown-Pike-21158/home/28963052,BRIGHT MLS,MDCR201856,N,Y,39.629562,-77.004152
PAST SALE,November-13-2020,Vacant Land,Babylon Rd,Taneytown,MD,21787,325000,,,Taneytown,,800720,,387,,,Sold,,,https://www.redfin.com/MD/TANEYTOWN/BABYLON-RD-21787/home/14447537,BRIGHT MLS,MDCR196360,N,Y,39.698439,-77.084384
PAST SALE,,Condo/Co-op,2886 Staley Dr #2886,Westminster,MD,21158,520000,,4.0,,3720,,2005,,140,,,,,https://www.redfin.com/MD/Westminster/2886-Staley-Dr-21158/unit-2886/home/15156068,,,N,Y,39.652088,-77.019523
PAST SALE,April-17-2020,Townhouse,825 Johahn Dr,Westminster,MD,21158,195000,3,1.0,GREENS OF WEST,1020,5486,1982,597,191,7,Sold,,,https://www.redfin.com/MD/Westminster/825-Johahn-Dr-21158/home/14459890,BRIGHT MLS,MDCR195214,N,Y,39.5810644,-77.0264549
PAST SALE,January-31-2019,Single Family Residential,300 Bradford Dr,Westminster,MD,21158,260000,4,3.0,Westminster,1407,10002,1990,1039,185,,Sold,,,https://www.redfin.com/MD/Westminster/300-Bradford-Dr-21158/home/14432291,BRIGHT MLS,MDCR153786,N,Y,39.5830273,-77.0126031
PAST SALE,May-15-2020,Single Family Residential,791 E Deep Run Rd,Westminster,MD,21158,175000,2,2.0,MYERS ELECTION DISTRICT,1200,227470,1800,569,146,,Sold,,,https://www.redfin.com/MD/Westminster/791-E-Deep-Run-Rd-21158/home/14456878,BRIGHT MLS,MDCR192796,N,Y,39.69156,-76.96687
PAST SALE,September-29-2020,Single Family Residential,412 Stacy Lee Ct,Westminster,MD,21158,270000,3,2.5,GREENS OF WEST,1840,7041,1995,432,147,7,Sold,,,https://www.redfin.com/MD/Westminster/412-Stacy-Lee-Ct-21158/home/14456670,BRIGHT MLS,MDCR197176,N,Y,39.5858615,-77.02396
PAST SALE,,Single Family Residential,Meadow Creek Dr,Westminster,MD,21158,170000,,,,,13991,,,,,,,,https://www.redfin.com/MD/Westminster/Meadow-Creek-Dr-21158/home/146828773,,,N,Y,39.5927228,-77.0088939
PAST SALE,December-20-2019,Vacant Land,Humbert Schoolhouse Rd,Westminster,MD,21158,39000,,,MYERS ELECTION DISTRICT,,294030,,716,,,Sold,,,https://www.redfin.com/MD/WESTMINSTER/HUMBERT-SCHOOLHOUSE-RD-21158/home/14463935,BRIGHT MLS,MDCR193132,N,Y,39.709074,-77.029756
PAST SALE,March-26-2021,Townhouse,730 Young Way,Westminster,MD,21158,210000,3,2.5,WESTMINSTER ELECTION DIS,1240,2160,1986,254,169,7,Sold,,,https://www.redfin.com/MD/Westminster/730-Young-Way-21158/home/14455549,BRIGHT MLS,MDCR202764,N,Y,39.581868,-77.022435
PAST SALE,,Single Family Residential,580 Rich Mar St,Westminster,MD,21158,350000,,3.5,,2800,8099,2001,,125,,,,,https://www.redfin.com/MD/Westminster/580-Rich-Mar-St-21158/home/14458684,,,N,Y,39.5801539,-77.0174935
PAST SALE,,Vacant Land,BELL RD,WESTMINSTER,MD,21158,190000,,,,,140699,,,,,,,,https://www.redfin.com/MD/WESTMINSTER/BELL-RD-21158/home/14475771,,,N,Y,39.579571,-77.034404
PAST SALE,October-29-2021,Townhouse,444 Spalding Ct,Westminster,MD,21158,250000,3,1.5,WESTMINSTER ELECTION DIS,1493,2300,1990,37,167,19,Sold,,,https://www.redfin.com/MD/Westminster/444-Spalding-Ct-21158/home/14426022,BRIGHT MLS,MDCR2002050,N,Y,39.577288,-77.015503
PAST SALE,November-27-2019,Single Family Residential,728 Wilford Ct,Westminster,MD,21158,514110,4,2.5,BOLTON HILL,3763,13068,2019,739,137,17,Sold,,,https://www.redfin.com/MD/Westminster/728-Wilford-Ct-21158/unit-OB0109/home/148447456,BRIGHT MLS,MDCR190176,N,Y,39.59708252,-77.01451166
PAST SALE,September-1-2020,Single Family Residential,395 Leppo Rd,Westminster,MD,21158,385500,3,2.5,TWIN LAKES,2552,262231,1986,460,151,,Sold,,,https://www.redfin.com/MD/Westminster/395-Leppo-Rd-21158/home/14473250,BRIGHT MLS,MDCR198174,N,Y,39.7015161,-77.0091927
PAST SALE,August-12-2021,Townhouse,741 Young Way,Westminster,MD,21158,260000,3,2.0,WESTMINSTER ELECTION DIS,1518,4287,1979,115,171,7,Sold,,,https://www.redfin.com/MD/Westminster/741-Young-Way-21158/home/14478007,BRIGHT MLS,MDCR205258,N,Y,39.581234,-77.02277
PAST SALE,May-10-2019,Single Family Residential,804 Tuder Dr,Westminster,MD,21158,345000,3,2.0,LINDEN ESTATES,1820,72745,1974,940,190,,Sold,,,https://www.redfin.com/MD/Westminster/804-Tuder-Dr-21158/home/14452297,BRIGHT MLS,MDCR181436,N,Y,39.6495472,-77.0249385
PAST SALE,,Vacant Land,KIRKOF RD,WESTMINSTER,MD,21158,107000,,,,,530779,,,,,,,,https://www.redfin.com/MD/WESTMINSTER/KIRKOF-RD-21158/home/14458931,,,N,Y,39.692209,-76.998643
PAST SALE,October-31-2019,Single Family Residential,3723 Turkeyfoot Rd,Westminster,MD,21158,350000,3,2.0,WESTMINSTER,1800,170755,1979,766,194,,Sold,,,https://www.redfin.com/MD/Westminster/3723-Turkeyfoot-Rd-21158/home/14447765,BRIGHT MLS,MDCR189068,N,Y,39.6768741,-77.0309663
PAST SALE,,Vacant Land,ARTERS MILL RD,WESTMINSTER,MD,21158,100000,,,,,122839,,,,,,,,https://www.redfin.com/MD/WESTMINSTER/ARTERS-MILL-RD-21158/home/14467634,,,N,Y,39.653154,-77.068513
PAST SALE,,Vacant Land,BABYLON RD,TANEYTOWN,MD,21787,125000,,,,,344865,,,,,,,,https://www.redfin.com/MD/TANEYTOWN/BABYLON-RD-21787/home/143435327,,,N,Y,39.69595,-77.076557
PAST SALE,September-20-2021,Vacant Land,340 N Springdale,Westminster,MD,21158,317000,,,UNIONTOWN ELECTION DISTR,,696960,,76,,,Sold,,,https://www.redfin.com/MD/Westminster/340-N-Springdale-Rd-21158/home/174976922,BRIGHT MLS,MDCR203898,N,Y,39.58481,-77.0739806
PAST SALE,March-27-2019,Vacant Land,Silver Run Valley Rd,Westminster,MD,21158,139900,,,TEN FARMS,,740520,,984,,,Sold,,,https://www.redfin.com/MD/WESTMINSTER/SILVER-RUN-VALLEY-RD-21158/home/14459240,BRIGHT MLS,1001925108,N,Y,39.696781,-77.042144
PAST SALE,October-12-2021,Single Family Residential,4421 Wine Rd,Westminster,MD,21158,285000,3,1.0,MANCHESTER ELECTION DIST,1512,19623,1951,54,188,,Sold,,,https://www.redfin.com/MD/Westminster/4421-Wine-Rd-21158/home/14449402,BRIGHT MLS,MDCR2001506,N,Y,39.6952766,-76.9357234
PAST SALE,July-17-2020,Single Family Residential,4735 Geeting Rd,Westminster,MD,21158,364900,3,3.5,Westminster,1680,43560,1993,506,217,,Sold,,,https://www.redfin.com/MD/Westminster/4735-Geeting-Rd-21158/home/14436169,BRIGHT MLS,MDCR196828,N,Y,39.7052229,-76.989115
PAST SALE,July-2-2020,Single Family Residential,818 Uniontown Rd,Westminster,MD,21158,235000,3,2.0,GREENS OF WEST,1540,7076,1978,521,153,7,Sold,,,https://www.redfin.com/MD/Westminster/818-Uniontown-Rd-21158/home/14469641,BRIGHT MLS,MDCR195786,N,Y,39.5807099,-77.0264389
PAST SALE,August-27-2020,Single Family Residential,4415 Wine Rd,Westminster,MD,21158,286900,4,1.0,GREENMOUNT,1336,47045,1967,465,215,,Sold,,,https://www.redfin.com/MD/Westminster/4415-Wine-Rd-21158/home/14467772,BRIGHT MLS,MDCR197978,N,Y,39.69477,-76.935727
PAST SALE,October-8-2021,Single Family Residential,5015 Band Hall Hill Rd,Westminster,MD,21158,490000,5,2.5,MANCHESTER ELECTION DIST,2288,297950,1994,58,214,,Sold,,,https://www.redfin.com/MD/Westminster/5015-Band-Hall-Hill-Rd-21158/home/14462965,BRIGHT MLS,MDCR2000630,N,Y,39.711862,-76.952909
PAST SALE,January-31-2020,Single Family Residential,4516 Oakleigh Dr,Manchester,MD,21102,275000,3,2.0,OAKLEIGH RIDGE,2180,40293,1976,674,126,,Sold,,,https://www.redfin.com/MD/Manchester/4516-Oakleigh-Dr-21102/home/14444693,BRIGHT MLS,MDCR188570,N,Y,39.699111,-76.926711
PAST SALE,November-3-2020,Single Family Residential,1517 Bachmans Valley Rd,Westminster,MD,21158,305000,3,2.5,BACHMAN VALLEY,2050,40467,1975,397,149,,Sold,,,https://www.redfin.com/MD/Westminster/1517-Bachmans-Valley-Rd-21158/home/14436770,BRIGHT MLS,MDCR199466,N,Y,39.666339,-76.941432
PAST SALE,,Condo/Co-op,2882 Staley Dr #2882,Westminster,MD,21158,385000,,2.5,,2229,,1992,,173,,,,,https://www.redfin.com/MD/Westminster/2882-Staley-Dr-21158/unit-2882/home/15156084,,,N,Y,39.652111,-77.018452
PAST SALE,June-17-2021,Single Family Residential,300 Avalon Ln,Westminster,MD,21158,440000,4,3.0,WESTMINSTER ELECTION DIS,2462,42863,1982,171,179,,Sold,,,https://www.redfin.com/MD/Westminster/300-Avalon-Ln-21158/home/14463723,BRIGHT MLS,MDCR202980,N,Y,39.5664548,-77.0323293
PAST SALE,February-14-2020,Single Family Residential,3333 Flickinger Rd,Westminster,MD,21158,540000,6,3.5,MYERS ELECTION DISTRICT,2400,1644825,1900,660,225,,Sold,,,https://www.redfin.com/MD/Westminster/3333-Flickinger-Rd-21158/home/143232058,BRIGHT MLS,MDCR193706,N,Y,39.664872,-77.083036
PAST SALE,,Condo/Co-op,2892 Staley Dr #2892,Westminster,MD,21158,335000,,2.5,,1544,,1994,,217,,,,,https://www.redfin.com/MD/Westminster/2892-Staley-Dr-21158/unit-2892/home/146828734,,,N,Y,39.651031,-77.019265
PAST SALE,October-15-2021,Townhouse,709 Young Way,Westminster,MD,21158,250000,3,2.5,WESTMINSTER ELECTION DIS,1780,7901,1987,51,140,7,Sold,,,https://www.redfin.com/MD/Westminster/709-Young-Way-21158/home/14440258,BRIGHT MLS,MDCR2001988,N,Y,39.5820578,-77.0217159
PAST SALE,August-31-2021,Townhouse,943 Wampler Ln,Westminster,MD,21158,266000,3,2.5,WESTMINSTER ELECTION DIS,1741,5000,1985,96,153,7,Sold,,,https://www.redfin.com/MD/Westminster/943-Wampler-Ln-21158/home/14436366,BRIGHT MLS,MDCR2001434,N,Y,39.584506,-77.031505
PAST SALE,October-7-2021,Single Family Residential,726 Mulligan Ln,Westminster,MD,21158,350000,3,1.5,WESTMINSTER ELECTION DIS,2202,9397,1996,59,159,,Sold,,,https://www.redfin.com/MD/Westminster/726-Mulligan-Ln-21158/home/14445375,BRIGHT MLS,MDCR2001640,N,Y,39.5766827,-77.019945
PAST SALE,August-18-2021,Single Family Residential,201 Stacy Lee Dr,Westminster,MD,21158,400000,5,2.5,WESTMINSTER ELECTION DIS,2498,16043,1996,109,160,,Sold,,,https://www.redfin.com/MD/Westminster/201-Stacy-Lee-Dr-21158/home/14425176,BRIGHT MLS,MDCR2000622,N,Y,39.5818653,-77.0327656
PAST SALE,April-23-2021,Single Family Residential,4249 Wine Rd,Westminster,MD,21158,470000,3,2.5,MANCHESTER ELECTION DIST,2934,111078,1980,226,160,,Sold,,,https://www.redfin.com/MD/Westminster/4249-Wine-Rd-21158/home/14454702,BRIGHT MLS,MDCR2000032,N,Y,39.693807,-76.9401199
PAST SALE,January-24-2020,Single Family Residential,1222 Bachmans Valley Rd,Westminster,MD,21158,428000,4,3.0,BACHMAN VALLEY,2802,135472,1984,681,153,,Sold,,,https://www.redfin.com/MD/Westminster/1222-Bachmans-Valley-Rd-21158/home/15157073,BRIGHT MLS,MDCR191156,N,Y,39.6573165,-76.9514627
PAST SALE,December-14-2018,Single Family Residential,3711 Turkeyfoot Rd,Westminster,MD,21158,195000,2,1.0,Westminster,960,91912,1986,1087,203,,Sold,,,https://www.redfin.com/MD/Westminster/3711-Turkeyfoot-Rd-21158/home/14439493,BRIGHT MLS,1006628230,N,Y,39.6762743,-77.0309213
PAST SALE,August-19-2019,Vacant Land,Walgarmyr,Westminster,MD,21157,232500,,,WALGARMYR,,996217,,839,,,Sold,,,https://www.redfin.com/MD/Westminster/Walgarmyr-21157/home/166075799,BRIGHT MLS,MDCR188434,N,Y,39.60106425,-77.06071426
PAST SALE,May-22-2020,Single Family Residential,4351 Babylon Rd,Taneytown,MD,21787,505000,4,2.5,TANEYTOWN,1868,636412,1986,562,270,,Sold,,,https://www.redfin.com/MD/Taneytown/4351-Babylon-Rd-21787/home/14458483,BRIGHT MLS,MDCR196006,N,Y,39.692112,-77.090013
PAST SALE,June-4-2021,Vacant Land,Lot 2 Wine Rd,Westminster,MD,21158,102500,,,MANCHESTER ELECTION DIST,,195584,,184,,,Sold,,,https://www.redfin.com/MD/Westminster/Lot-2-Wine-Rd-21158/home/174293635,BRIGHT MLS,MDCR202188,N,Y,39.68779486,-76.94191445
PAST SALE,September-30-2021,Single Family Residential,4030 Back Woods Rd,Westminster,MD,21158,874000,5,3.5,MANCHESTER ELECTION DIST,4640,2482484,1996,66,188,,Sold,,,https://www.redfin.com/MD/Westminster/4030-Back-Woods-Rd-21158/home/14428132,BRIGHT MLS,MDCR2000804,N,Y,39.683556,-76.958432
PAST SALE,October-29-2019,Single Family Residential,4253 Rinehart Rd,Westminster,MD,21158,330000,3,2.5,WESTMINSTER,2070,133381,2000,768,159,,Sold,,,https://www.redfin.com/MD/Westminster/4253-Rinehart-Rd-21158/home/14467703,BRIGHT MLS,MDCR187532,N,Y,39.6913145,-76.9605479
PAST SALE,October-8-2019,Single Family Residential,2311 Bear Run Rd,Taneytown,MD,21787,625000,5,2.0,Taneytown,4245,2359645,1978,789,147,,Sold,,,https://www.redfin.com/MD/Taneytown/2311-Bear-Run-Rd-21787/home/143277815,BRIGHT MLS,MDCR187318,N,Y,39.638582,-77.110469
PAST SALE,November-29-2019,Single Family Residential,1700 Bachmans Valley Rd,Westminster,MD,21158,320000,3,2.5,CARROLL COUNTY,2048,57499,2004,737,156,,Sold,,,https://www.redfin.com/MD/Westminster/1700-Bachmans-Valley-Rd-21158/home/14468040,BRIGHT MLS,MDCR190484,N,Y,39.670652,-76.935601
PAST SALE,September-18-2020,Single Family Residential,4154 Back Woods Rd,Westminster,MD,21158,398475,3,2.0,WESMINSTER,1477,140655,2015,443,270,,Sold,,,https://www.redfin.com/MD/Westminster/4154-Back-Woods-Rd-21158/home/44635553,BRIGHT MLS,MDCR198454,N,Y,39.689165,-76.9567242
PAST SALE,November-24-2020,Single Family Residential,1920 Bachman Valley Rd,Manchester,MD,21102,251650,4,2.0,MANCHESTER ELECTION DIST,3016,261360,1900,376,83,,Sold,,,https://www.redfin.com/MD/Manchester/1920-Bachmans-Valley-Rd-21102/home/14445457,BRIGHT MLS,MDCR192954,N,Y,39.681363,-76.9305739
PAST SALE,March-27-2020,Single Family Residential,1227 R Woods Rd,Westminster,MD,21158,362000,5,3.5,WESTMINSTER ELECTION DIS,3877,102279,1981,618,93,,Sold,,,https://www.redfin.com/MD/Westminster/1227-Woods-Rd-21158/home/14431106,BRIGHT MLS,MDCR193256,N,Y,39.6052003,-77.0213171
PAST SALE,April-27-2020,Single Family Residential,1075 Stone Rd,Westminster,MD,21158,315000,4,3.0,WESTMINSTER ELECTION DIS,2426,37794,1985,587,130,,Sold,,,https://www.redfin.com/MD/Westminster/1075-Stone-Rd-21158/home/14438792,BRIGHT MLS,MDCR195136,N,Y,39.6457319,-77.0357344
PAST SALE,August-28-2020,Single Family Residential,1030 Oak Dr,Westminster,MD,21158,270000,4,2.0,VILLA PARK,2157,15025,1960,464,125,,Sold,,,https://www.redfin.com/MD/Westminster/1030-Oak-Dr-21158/home/14444898,BRIGHT MLS,MDCR197896,N,Y,39.599576,-77.0349247
PAST SALE,December-14-2018,Single Family Residential,825 Deer Ridge Dr,Westminster,MD,21158,469000,4,2.5,Westminster,2912,47480,2004,1087,161,,Sold,,,https://www.redfin.com/MD/Westminster/825-Deer-Ridge-Dr-21158/home/14464370,BRIGHT MLS,1002042982,N,Y,39.6131508,-77.0262152
PAST SALE,,Single Family Residential,1004 Pinch Valley Rd,Westminster,MD,21158,350000,,2.0,,1815,41382,1976,,193,,,,,https://www.redfin.com/MD/Westminster/1004-Pinch-Valley-Rd-21158/home/14452113,,,N,Y,39.601918,-77.028738
PAST SALE,February-4-2021,Vacant Land,Deer Ridge Dr,Westminster,MD,21158,88000,,,WESTMINSTER ELECTION DIS,,174676,,304,,,Sold,,,https://www.redfin.com/MD/WESTMINSTER/DEER-RIDGE-DR-21158/home/14472799,BRIGHT MLS,MDCR202004,N,Y,39.610407,-77.028175
PAST SALE,June-12-2020,Single Family Residential,1167 and 1161 Old Taneytown Rd,Westminster,MD,21158,1250000,4,5.5,WESTMINSTER 21158,5055,3612866,1974,541,247,,Sold,,,https://www.redfin.com/MD/Westminster/1161-Old-Taneytown-Rd-21158/home/14462009,BRIGHT MLS,MDCR192354,N,Y,39.592652,-77.0414909
PAST SALE,August-23-2019,Townhouse,526 Crossbridge Dr,Westminster,MD,21158,219900,3,1.5,FURNACE HILLS,1640,6447,1991,835,134,19,Sold,,,https://www.redfin.com/MD/Westminster/526-Crossbridge-Dr-21158/home/14431439,BRIGHT MLS,MDCR188536,N,Y,39.5764439,-77.0184492
PAST SALE,November-8-2019,Single Family Residential,1633 Old Taneytown Rd,Westminster,MD,21158,255000,3,1.0,Westminster,1294,17000,1957,758,197,,Sold,,,https://www.redfin.com/MD/Westminster/1633-Old-Taneytown-Rd-21158/home/14465449,BRIGHT MLS,MDCR191076,N,Y,39.6008105,-77.0549847
PAST SALE,July-23-2021,Single Family Residential,1195 Woods Rd,Westminster,MD,21158,476187,5,2.5,WESTMINSTER ELECTION DIS,3331,85813,2000,135,143,,Sold,,,https://www.redfin.com/MD/Westminster/1195-Woods-Rd-21158/home/14480019,BRIGHT MLS,MDCR204718,N,Y,39.6075546,-77.0181006
PAST SALE,February-16-2021,Vacant Land,Hughes Shop Rd,Westminster,MD,21158,120000,,,Westminster,,255697,,292,,,Sold,,,https://www.redfin.com/MD/WESTMINSTER/HUGHES-SHOP-RD-21158/home/14428793,BRIGHT MLS,MDCR199400,N,Y,39.606972,-77.033116
PAST SALE,March-20-2020,Single Family Residential,237 Stacey Lee Dr,Westminster,MD,21158,200000,3,2.0,GREENS OF WEST,1088,7596,1985,625,184,7,Sold,,,https://www.redfin.com/MD/Westminster/237-Stacy-Lee-Dr-21158/home/14442328,BRIGHT MLS,MDCR191248,N,Y,39.5842283,-77.0296451
PAST SALE,November-18-2019,Single Family Residential,963 Bachman Valley Rd,Westminster,MD,21157,575000,5,3.5,WESTMINSTER,1764,897772,2000,748,326,,Sold,,,https://www.redfin.com/MD/Westminster/963-Bachmans-Valley-Rd-21158/home/44635829,BRIGHT MLS,MDCR190752,N,Y,39.652766,-76.958369
PAST SALE,October-29-2021,Single Family Residential,400 Leigh Masters Ln,Westminster,MD,21158,480000,4,2.5,WESTMINSTER ELECTION DIS,2500,20168,1978,37,192,,Sold,,,https://www.redfin.com/MD/Westminster/400-Leigh-Masters-Ln-21158/home/14476894,BRIGHT MLS,MDCR2000896,N,Y,39.5645067,-77.0360154
PAST SALE,April-30-2019,Single Family Residential,820 Hughes   Shop Rd,Westminster,MD,21158,298000,3,2.0,WESTIMINSTER,1700,17500,1953,950,175,,Sold,,,https://www.redfin.com/MD/Westminster/820-Hughes-Shop-Rd-21158/home/14460632,BRIGHT MLS,MDCR182524,N,Y,39.5971721,-77.0340251
PAST SALE,October-15-2021,Single Family Residential,385 Buck Cash Dr,Westminster,MD,21158,375000,3,2.0,WESTMINSTER ELECTION DIS,1759,11580,1994,51,213,,Sold,,,https://www.redfin.com/MD/Westminster/385-Buck-Cash-Dr-21158/home/14451977,BRIGHT MLS,MDCR2000434,N,Y,39.5871822,-77.0211597
PAST SALE,May-24-2019,Single Family Residential,1105 Viking Ct,Westminster,MD,21158,230000,4,3.0,CARRIE WOOD,1932,27442,1973,926,119,,Sold,,,https://www.redfin.com/MD/Westminster/1105-Viking-Ct-21158/home/14468372,BRIGHT MLS,MDCR182164,N,Y,39.7088793,-76.9576174
PAST SALE,August-2-2019,Single Family Residential,657 Whispering Meadows Ct,Westminster,MD,21158,250000,4,2.5,WHISPERING MEADOWS,1968,10000,1991,856,127,,Sold,,,https://www.redfin.com/MD/Westminster/657-Whispering-Meadow-Ct-21158/home/14439005,BRIGHT MLS,MDCR186990,N,Y,39.5857754,-77.0203049
PAST SALE,March-22-2019,Townhouse,305 Saint Andrew Ln,Westminster,MD,21158,218000,3,2.5,WAKEFIELD ON THE GREEN,1100,2391,1985,989,198,,Sold,,,https://www.redfin.com/MD/Westminster/305-St-Andrews-Ln-21158/home/14452811,BRIGHT MLS,MDCR181878,N,Y,39.564568,-77.040506
PAST SALE,,Single Family Residential,1603 Humbert Schoolhouse Rd,Westminster,MD,21158,200000,,1.0,,1376,14984,1978,,145,,,,,https://www.redfin.com/MD/Westminster/1603-Humbert-Schoolhouse-Rd-21158/home/14425761,,,N,Y,39.7051272,-77.0529675
PAST SALE,,Vacant Land,DEEP RUN RD,WESTMINSTER,MD,21158,16500,,,,,33497,,,,,,,,https://www.redfin.com/MD/WESTMINSTER/DEEP-RUN-RD-21158/home/14440905,,,N,Y,39.681148,-76.99575
PAST SALE,September-11-2019,Townhouse,304 St Andrews Ln,Westminster,MD,21158,185000,2,3.5,WAKEFIELD ON THE GREEN,1350,4273,1985,816,137,,Sold,,,https://www.redfin.com/MD/Westminster/304-St-Andrews-Ln-21158/home/14439510,BRIGHT MLS,MDCR191216,N,Y,39.56488,-77.040155
PAST SALE,,Single Family Residential,240 Blackhaw Trl,Westminster,MD,21158,180000,,2.0,,1800,767092,1990,,100,,,,,https://www.redfin.com/MD/Westminster/240-Blackhaw-Trl-21158/home/28939729,,,N,Y,39.678852,-76.992149
PAST SALE,,Single Family Residential,3442 Littlestown Pike,Westminster,MD,21158,100000,,1.0,,1288,19057,1900,,78,,,,,https://www.redfin.com/MD/Westminster/3442-Littlestown-Pike-21158/home/14425839,,,N,Y,39.6693782,-77.0249835
PAST SALE,October-15-2020,Vacant Land,Littlestown Pike,Westminster,MD,21158,9000,,,SILVER RUN,,41019,,416,,,Sold,,,https://www.redfin.com/MD/WESTMINSTER/LITTLESTOWN-PIKE-21158/home/14431941,BRIGHT MLS,MDCR198708,N,Y,39.682116,-77.038964
PAST SALE,November-16-2021,Vacant Land,1529 Stone Rd,Westminster,MD,21158,895000,,,UNIONTOWN ELECTION DISTR,,5172750,,19,,,Sold,,,https://www.redfin.com/MD/Westminster/1529-Stone-Rd-21158/home/176549612,BRIGHT MLS,MDCR2002864,N,Y,39.641557,-77.055627
PAST SALE,December-11-2020,Single Family Residential,703 Stone Rd,Westminster,MD,21158,377000,3,1.0,WESTMINSTER,2088,43560,1965,359,181,,Sold,,,https://www.redfin.com/MD/Westminster/703-Stone-Rd-21158/home/14427352,BRIGHT MLS,MDCR200706,N,Y,39.6407804,-77.0210697
PAST SALE,March-16-2020,Single Family Residential,1111 Meadow Branch Rd,Westminster,MD,21158,419000,5,4.0,WESTMINSTER ELECTION DIS,3572,43996,1972,629,117,,Sold,,,https://www.redfin.com/MD/Westminster/1111-Meadow-Branch-Rd-21158/home/14436919,BRIGHT MLS,MDCR193860,N,Y,39.604906,-77.0091199
PAST SALE,February-22-2019,Single Family Residential,2727 Murkle Rd,Westminster,MD,21158,303000,4,2.5,Westminster,1076,21819,1967,1017,282,,Sold,,,https://www.redfin.com/MD/Westminster/2727-Murkle-Rd-21158/home/14431058,BRIGHT MLS,MDCR153672,N,Y,39.6494716,-77.0228691
PAST SALE,October-15-2021,Single Family Residential,1008 Hughes Shop Rd,Westminster,MD,21158,360000,2,2.0,WESTMINSTER ELECTION DIS,2149,20000,1957,51,168,,Sold,,,https://www.redfin.com/MD/Westminster/1008-Hughes-Shop-Rd-21158/home/14439007,BRIGHT MLS,MDCR2000864,N,Y,39.6019554,-77.034205
PAST SALE,May-29-2020,Single Family Residential,1316 Hughes Shop Rd,Westminster,MD,21158,304500,3,1.0,FOUNTAIN VALLEY,1182,43560,1964,555,258,,Sold,,,https://www.redfin.com/MD/Westminster/1316-Hughes-Shop-Rd-21158/home/15156691,BRIGHT MLS,MDCR195872,N,Y,39.6106621,-77.0360942
PAST SALE,,Single Family Residential,1320 Hughes Shop Rd,Westminster,MD,21158,295000,,1.0,,1360,58240,1976,,217,,,,,https://www.redfin.com/MD/Westminster/1320-Hughes-Shop-Rd-21158/home/14471927,,,N,Y,39.6109938,-77.0358693
PAST SALE,,Single Family Residential,1366 Pleasant Valley Rd,Westminster,MD,21158,250000,,2.0,,2325,5342,1900,,108,,,,,https://www.redfin.com/MD/Westminster/1366-Pleasant-Valley-Rd-21158/home/14465179,,,N,Y,39.6334809,-77.0455224
PAST SALE,,Single Family Residential,115 Bachmans Valley Rd,Westminster,MD,21158,116000,,1.0,,578,10774,1946,,201,,,,,https://www.redfin.com/MD/Westminster/115-Bachmans-Valley-Rd-21158/home/14446066,,,N,Y,39.6295205,-76.9932383
PAST SALE,October-16-2020,Single Family Residential,1100 Pinch Valley Rd,Westminster,MD,21158,722000,4,3.5,WESTMINISTER,4100,304920,1966,415,176,,Sold,,,https://www.redfin.com/MD/Westminster/1100-Pinch-Valley-Rd-21158/home/14460693,BRIGHT MLS,MDCR197854,N,Y,39.604003,-77.027928
PAST SALE,January-6-2021,Single Family Residential,1401 Old Taneytown Rd,Westminster,MD,21158,100000,4,2.5,WESTMINSTER ELECTION DIS,2065,80281,1880,333,48,,Sold,,,https://www.redfin.com/MD/Westminster/1401-Old-Taneytown-Rd-21158/home/14456739,BRIGHT MLS,MDCR201390,N,Y,39.5973003,-77.0467072
PAST SALE,July-1-2019,Single Family Residential,1627 Old Taneytown Rd,Westminster,MD,21158,269999,3,1.0,WESTMINSTER,1134,20247,1953,888,238,,Sold,,,https://www.redfin.com/MD/Westminster/1627-Old-Taneytown-Rd-21158/home/14468962,BRIGHT MLS,MDCR188688,N,Y,39.6008519,-77.0549576
PAST SALE,August-9-2019,Single Family Residential,1129 Stone Rd,Westminster,MD,21158,339000,3,2.0,WESTMINSTER,1326,87991,1974,849,256,,Sold,,,https://www.redfin.com/MD/Westminster/1129-Stone-Rd-21158/home/14445738,BRIGHT MLS,MDCR189492,N,Y,39.6461918,-77.0374126
PAST SALE,October-14-2021,Single Family Residential,1359 Pleasant Valley Rd,Westminster,MD,21158,75000,3,1.0,WESTMINSTER ELECTION DIS,1248,10336,1900,52,60,,Sold,,,https://www.redfin.com/MD/Westminster/1359-Pleasant-Valley-Rd-21158/home/14458187,BRIGHT MLS,MDCR2002150,N,Y,39.633359,-77.0451535
PAST SALE,,Vacant Land,,,MD,,65000,,,,,4704,,,,,,,,https://www.redfin.com/MD/Unknown/Unknown-Unknown/home/14435546,,,N,Y,39.632817,-77.045327
PAST SALE,February-28-2020,Single Family Residential,1302 Hughes Shop Rd,Westminster,MD,21158,280000,3,1.0,FOUNTAIN VALLEY,912,28190,1961,646,307,,Sold,,,https://www.redfin.com/MD/Westminster/1302-Hughes-Shop-Rd-21158/home/14458110,BRIGHT MLS,MDCR192718,N,Y,39.6098592,-77.0363641
PAST SALE,March-1-2021,Single Family Residential,641 Hughes Shop Rd,Westminster,MD,21158,370000,4,2.5,WESTMINSTER ELECTION DIS,2088,15433,1950,279,177,,Sold,,,https://www.redfin.com/MD/Westminster/641-Hughes-Shop-Rd-21158/home/14427687,BRIGHT MLS,MDCR201820,N,Y,39.5939546,-77.033605
PAST SALE,,Single Family Residential,285 Lodestone Ct,Westminster,MD,21158,370000,4,3.5,,2496,7100,2000,,148,,,,,https://www.redfin.com/MD/Westminster/285-Lodestone-Ct-21158/home/14452026,,,N,Y,39.582274,-77.012522
PAST SALE,October-8-2020,Single Family Residential,1100 Yorkshire Way,Westminster,MD,21158,260000,3,2.5,WESTIMINSTER,1528,44431,1973,423,170,,Sold,,,https://www.redfin.com/MD/Westminster/1100-Yorkshire-Way-21158/home/15156710,BRIGHT MLS,MDCR199382,N,Y,39.5951681,-77.034205
PAST SALE,February-12-2021,Single Family Residential,26 Pleasant Valley Rd,Westminster,MD,21158,315000,4,2.5,WESTMINSTER ELECTION DIS,1888,52272,1973,296,167,,Sold,,,https://www.redfin.com/MD/Westminster/26-Pleasant-Valley-Rd-21158/home/14437008,BRIGHT MLS,MDCR201700,N,Y,39.615828,-76.9995418
PAST SALE,June-28-2019,Single Family Residential,1600 Miller Rd,Westminster,MD,21158,385000,3,2.5,KALTEN ACRES,2734,51401,1977,891,141,,Sold,,,https://www.redfin.com/MD/Westminster/1600-Miller-Rd-21158/home/15156680,BRIGHT MLS,MDCR181420,N,Y,39.6212441,-77.001994
PAST SALE,December-11-2020,Single Family Residential,1118 Yorkshire Way,Westminster,MD,21158,365000,3,1.5,YORKSHIRE FARMS,1976,45302,1976,359,185,,Sold,,,https://www.redfin.com/MD/Westminster/1118-Yorkshire-Way-21158/home/14449760,BRIGHT MLS,MDCR200310,N,Y,39.598016,-77.035593
PAST SALE,November-30-2020,Single Family Residential,1503 Miller Rd,Westminster,MD,21158,411000,3,2.5,KALTEN ACRES,2280,39988,1976,370,180,,Sold,,,https://www.redfin.com/MD/Westminster/1503-Miller-Rd-21158/home/14461178,BRIGHT MLS,MDCR200812,N,Y,39.6192566,-77.0044595
PAST SALE,July-29-2019,Single Family Residential,1507 Chris Ln,Westminster,MD,21158,369000,4,3.5,KALTEN ACRES,2756,94525,1978,860,134,,Sold,,,https://www.redfin.com/MD/Westminster/1507-Chris-Ln-21158/home/14467959,BRIGHT MLS,MDCR182302,N,Y,39.6186335,-77.001364
PAST SALE,July-31-2019,Single Family Residential,29 John Owings Rd,Westminster,MD,21158,405000,5,3.5,WELLER ESTATES,2496,130680,1989,858,162,,Sold,,,https://www.redfin.com/MD/Westminster/29-John-Owings-Rd-21158/home/14467123,BRIGHT MLS,MDCR153838,N,Y,39.6358447,-77.0027138
PAST SALE,May-8-2020,Single Family Residential,1325 Laurel Ln,Westminster,MD,21158,490000,6,4.0,WESTMINSTER,3800,52272,1979,576,129,,Sold,,,https://www.redfin.com/MD/Westminster/1325-Laurel-Ln-21158/home/14480095,BRIGHT MLS,MDCR189242,N,Y,39.6104543,-77.0187776
PAST SALE,October-1-2019,Single Family Residential,1520 Miller Rd,Westminster,MD,21158,365000,4,2.5,WESTMINSTER,2450,52708,1978,796,149,,Sold,,,https://www.redfin.com/MD/Westminster/1520-Miller-Rd-21158/home/14458108,BRIGHT MLS,MDCR191038,N,Y,39.6212713,-77.0011841
PAST SALE,March-13-2020,Single Family Residential,1307 Pinch Valley Rd,Westminster,MD,21158,449900,4,3.5,WESTMINSTER ELECTION DIS,3186,76840,1994,632,141,,Sold,,,https://www.redfin.com/MD/Westminster/1307-Pinch-Valley-Rd-21158/home/14458100,BRIGHT MLS,MDCR194448,N,Y,39.6119649,-77.0216545
PAST SALE,September-30-2020,Single Family Residential,1309 Pinch Valley Rd,Westminster,MD,21158,461000,5,3.0,Westminster,2784,133206,1996,431,166,,Sold,,,https://www.redfin.com/MD/Westminster/1309-Pinch-Valley-Rd-21158/home/14434993,BRIGHT MLS,MDCR198800,N,Y,39.6114806,-77.0214071
PAST SALE,July-12-2019,Single Family Residential,1505 Hughes Shop Rd,Westminster,MD,21158,384900,5,3.0,WESTMINSTER,3412,58240,1979,877,113,,Sold,,,https://www.redfin.com/MD/Westminster/1505-Hughes-Shop-Rd-21158/home/14444453,BRIGHT MLS,MDCR187986,N,Y,39.6139914,-77.0311462
PAST SALE,June-28-2021,Single Family Residential,1255 Stone Rd,Westminster,MD,21158,625000,4,3.0,WESTMINSTER ELECTION DIS,2696,217800,1978,160,232,,Sold,,,https://www.redfin.com/MD/Westminster/1255-Stone-Rd-21158/home/14467652,BRIGHT MLS,MDCR204436,N,Y,39.6446789,-77.041437
PAST SALE,December-14-2020,Single Family Residential,1527 Miller Rd,Westminster,MD,21158,339000,4,3.0,FOXCROFT,1780,53056,1978,356,190,,Sold,,,https://www.redfin.com/MD/Westminster/1527-Miller-Rd-21158/home/14434261,BRIGHT MLS,MDCR200712,N,Y,39.6212667,-76.9997443
PAST SALE,October-30-2020,Single Family Residential,1526 Miller Rd,Westminster,MD,21158,440000,4,2.5,FOXCROFT,1672,59242,1978,401,263,,Sold,,,https://www.redfin.com/MD/Westminster/1526-Miller-Rd-21158/home/14444570,BRIGHT MLS,MDCR199502,N,Y,39.6215864,-77.0004642
PAST SALE,October-30-2019,Single Family Residential,200 Magers Dr,Westminster,MD,21158,339870,3,2.0,KALTEN ACRES,2952,46174,1987,767,115,,Sold,,,https://www.redfin.com/MD/Westminster/200-Magers-Dr-21158/home/14435539,BRIGHT MLS,MDCR182026,N,Y,39.6217732,-77.002526
PAST SALE,August-13-2019,Single Family Residential,1948 Littlestown Pike,Westminster,MD,21158,415000,3,3.0,WESTMINSTER,2232,150282,1990,845,186,,Sold,,,https://www.redfin.com/MD/Westminster/1948-Littlestown-Pike-21158/home/14464784,BRIGHT MLS,MDCR189236,N,Y,39.629135,-77.002049
PAST SALE,January-29-2019,Single Family Residential,1938 Littlestown Pike,Westminster,MD,21158,341000,3,3.0,Westminster,2180,173369,1989,1041,156,,Sold,,,https://www.redfin.com/MD/Westminster/1938-Littlestown-Pike-21158/home/14471467,BRIGHT MLS,MDCR134532,N,Y,39.6275865,-77.001949
PAST SALE,April-23-2019,Single Family Residential,1032 Pinch Valley Rd,Westminster,MD,21158,400000,4,2.5,Westminster,2100,102279,2019,957,190,,Sold,,,https://www.redfin.com/MD/Westminster/1032-Pinch-Valley-Rd-21158/home/14434878,BRIGHT MLS,MDCR154288,N,Y,39.6025945,-77.0273336
PAST SALE,,Vacant Land,PINCH VALLEY RD,WESTMINSTER,MD,21158,100000,,,,,169884,,,,,,,,https://www.redfin.com/MD/WESTMINSTER/PINCH-VALLEY-RD-21158/home/14432061,,,N,Y,39.605404,-77.028544
PAST SALE,April-28-2020,Single Family Residential,1550 Indian Valley Trl,Westminster,MD,21158,365000,4,2.0,WESTIMINSTER,2200,131638,1986,586,166,,Sold,,,https://www.redfin.com/MD/Westminster/1550-Indian-Valley-Trl-21158/home/14474365,BRIGHT MLS,MDCR191414,N,Y,39.6173135,-77.0205299
PAST SALE,August-12-2019,Single Family Residential,250 E Deep Run Rd,Westminster,MD,21158,395000,4,2.5,Westminster,2428,261360,2003,846,163,,Sold,,,https://www.redfin.com/MD/Westminster/250-E-Deep-Run-Rd-21158/home/14437578,BRIGHT MLS,MDCR182154,N,Y,39.6873329,-76.9854545
PAST SALE,May-31-2019,Single Family Residential,518 Uniontown Rd,Westminster,MD,21158,350000,3,2.0,UNIONTOWN,1840,14723,1939,919,190,,Sold,,,https://www.redfin.com/MD/Westminster/518-Uniontown-Rd-21158/home/14466107,BRIGHT MLS,MDCR187704,N,Y,39.5833838,-77.0153113
PAST SALE,June-12-2020,Townhouse,688 Windsor Dr,Westminster,MD,21158,220000,3,2.0,UNIONTOWN PARK,1800,5562,1987,541,122,,Sold,,,https://www.redfin.com/MD/Westminster/688-Windsor-Dr-21158/home/14433306,BRIGHT MLS,MDCR196338,N,Y,39.5807238,-77.0202381
PAST SALE,,Vacant Land,STONE RD,WESTMINSTER,MD,21158,129240,,,,,293333,,,,,,,,https://www.redfin.com/MD/WESTMINSTER/STONE-RD-21158/home/28500667,,,N,Y,39.65939,-77.096952
PAST SALE,December-27-2018,Townhouse,811 Ewing Dr,Westminster,MD,21158,169999,3,1.0,GREENS OF WEST,1300,4225,1983,1074,131,7,Sold,,,https://www.redfin.com/MD/Westminster/811-Ewing-Dr-21158/home/14430912,BRIGHT MLS,MDCR100476,N,Y,39.5826006,-77.0250482
PAST SALE,August-6-2021,Single Family Residential,251 Stacy Lee Dr,Westminster,MD,21158,305000,3,1.0,WESTMINSTER ELECTION DIS,1440,7057,1978,121,212,7,Sold,,,https://www.redfin.com/MD/Westminster/251-Stacy-Lee-Dr-21158/home/14436926,BRIGHT MLS,MDCR204930,N,Y,39.5837068,-77.0280078
PAST SALE,April-2-2021,Townhouse,843 Ewing Dr,Westminster,MD,21158,220000,3,1.0,WESTMINSTER ELECTION DIS,1276,4674,1979,247,172,7,Sold,,,https://www.redfin.com/MD/Westminster/843-Ewing-Dr-21158/home/14425224,BRIGHT MLS,MDCR202422,N,Y,39.5821654,-77.0260294
PAST SALE,November-30-2021,Townhouse,803 Ewing Dr,Westminster,MD,21158,216200,3,1.5,WESTMINSTER ELECTION DIS,1100,2178,1983,5,197,1,Sold,,,https://www.redfin.com/MD/Westminster/803-Ewing-Dr-21158/home/14472068,BRIGHT MLS,MDCR2000063,N,Y,39.582673,-77.024737
PAST SALE,December-30-2020,Townhouse,815 Johahn Dr,Westminster,MD,21158,200000,3,1.0,GREENS OF WEST,1020,5000,1982,340,196,6,Sold,,,https://www.redfin.com/MD/Westminster/815-Johahn-Dr-21158/home/14431670,BRIGHT MLS,MDCR196972,N,Y,39.5813718,-77.0256943
PAST SALE,March-20-2020,Townhouse,309 Janice Way,Westminster,MD,21158,164900,3,1.0,WESTMINSTER ELECTION DIS,1100,2001,1983,625,150,,Sold,,,https://www.redfin.com/MD/Westminster/309-Janice-Way-21158/home/14450812,BRIGHT MLS,MDCR194640,N,Y,39.58285,-77.024185
PAST SALE,November-3-2021,Townhouse,830 Ewing Dr,Westminster,MD,21158,220000,4,2.0,WESTMINSTER ELECTION DIS,1326,2000,1986,32,166,7,Sold,,,https://www.redfin.com/MD/Westminster/830-Ewing-Dr-21158/home/14457033,BRIGHT MLS,MDCR2002790,N,Y,39.5828113,-77.0262993
PAST SALE,September-29-2021,Townhouse,763 Johahn Dr,Westminster,MD,21158,250000,3,2.5,WESTMINSTER ELECTION DIS,1445,4018,1986,67,173,7,Sold,,,https://www.redfin.com/MD/Westminster/763-Johahn-Dr-21158/home/14458902,BRIGHT MLS,MDCR2001940,N,Y,39.5821555,-77.0231386
PAST SALE,,Townhouse,737 Johahn Dr,Westminster,MD,21158,214000,,2.0,,1280,4373,1986,,167,,,,,https://www.redfin.com/MD/Westminster/737-Johahn-Dr-21158/home/14427886,,,N,Y,39.5830369,-77.0228965
PAST SALE,November-1-2021,Single Family Residential,1193 Long Valley Rd,Westminster,MD,21158,470000,4,2.0,WESTMINSTER ELECTION DIS,2558,41207,1979,34,184,,Sold,,,https://www.redfin.com/MD/Westminster/1193-Long-Valley-Rd-21158/home/14430724,BRIGHT MLS,MDCR2003076,N,Y,39.561483,-77.0375676
PAST SALE,January-3-2020,Townhouse,717 Young Way,Westminster,MD,21158,184000,3,2.5,WESTMINSTER ELECTION DIS,1766,6751,1987,702,104,7,Sold,,,https://www.redfin.com/MD/Westminster/717-Young-Way-21158/home/14460902,BRIGHT MLS,MDCR193250,N,Y,39.582063,-77.0218555
PAST SALE,May-24-2019,Townhouse,739 Johahn Dr,Westminster,MD,21158,205000,3,2.5,GREENS OF WEST,1470,2150,1986,926,139,,Sold,,,https://www.redfin.com/MD/Westminster/739-Johahn-Dr-21158/home/14435444,BRIGHT MLS,MDCR187178,N,Y,39.5829968,-77.0229261
PAST SALE,August-13-2019,Townhouse,717 Johahn Dr,Westminster,MD,21158,197000,3,1.5,GREENS OF WEST,1120,2145,1986,845,176,6,Sold,,,https://www.redfin.com/MD/Westminster/717-Johahn-Dr-21158/home/14464169,BRIGHT MLS,MDCR189118,N,Y,39.58369,-77.0235221
PAST SALE,October-31-2019,Townhouse,701 Johahn Dr,Westminster,MD,21158,162000,3,2.5,GREENS OF WEST,1280,5039,1987,766,127,,Sold,,,https://www.redfin.com/MD/Westminster/701-Johahn-Dr-21158/home/14477979,BRIGHT MLS,MDCR191564,N,Y,39.5842106,-77.0232629
PAST SALE,August-28-2020,Townhouse,726 Johahn Dr,Westminster,MD,21158,157000,3,2.5,WESTMINSTER ELECTION DIS,1240,2003,1987,464,127,7,Sold,,,https://www.redfin.com/MD/Westminster/726-Johahn-Dr-21158/home/14475588,BRIGHT MLS,MDCR194034,N,Y,39.5834495,-77.0239691
PAST SALE,November-22-2019,Single Family Residential,194 Bell Rd,Westminster,MD,21158,392500,3,2.5,WAKEFIELD WEST,2154,28575,1984,744,182,,Sold,,,https://www.redfin.com/MD/Westminster/194-Bell-Rd-21158/home/14428263,BRIGHT MLS,MDCR191724,N,Y,39.573883,-77.0376686
PAST SALE,November-21-2019,Townhouse,311 Mayfield Ct,Westminster,MD,21158,190000,3,2.5,GREENS OF WEST,1224,6781,1985,745,155,7,Sold,,,https://www.redfin.com/MD/Westminster/311-Mayfield-Ct-21158/home/14439200,BRIGHT MLS,MDCR191838,N,Y,39.5852635,-77.0307891
PAST SALE,July-13-2021,Townhouse,317 Mayfield Ct,Westminster,MD,21158,215000,3,2.5,WESTMINSTER ELECTION DIS,1224,8546,1985,145,176,7,Sold,,,https://www.redfin.com/MD/Westminster/317-Mayfield-Ct-21158/home/14444376,BRIGHT MLS,MDCR203912,N,Y,39.585508,-77.031341
PAST SALE,November-17-2021,Townhouse,308 Mayfield Ct,Westminster,MD,21158,276000,3,3.0,WESTMINSTER ELECTION DIS,1632,6608,1984,18,169,7,Sold,,,https://www.redfin.com/MD/Westminster/308-Mayfield-Ct-21158/home/14461261,BRIGHT MLS,MDCR2002620,N,Y,39.585234,-77.030012
PAST SALE,April-19-2019,Townhouse,321 Mayfield Ct,Westminster,MD,21158,190000,3,1.5,GREENS OF WEST,1088,7535,1985,961,175,7,Sold,,,https://www.redfin.com/MD/Westminster/321-Mayfield-Ct-21158/home/14457348,BRIGHT MLS,MDCR167700,N,Y,39.5858469,-77.0310692
PAST SALE,February-15-2019,Townhouse,320 Mayfield Ct,Westminster,MD,21158,215000,3,1.5,GREENS OF WEST,1088,6690,1985,1024,198,7,Sold,,,https://www.redfin.com/MD/Westminster/320-Mayfield-Ct-21158/home/14430394,BRIGHT MLS,MDCR153952,N,Y,39.5859106,-77.0308134
PAST SALE,August-13-2021,Townhouse,302 Saint Andrews Ln,Westminster,MD,21158,243500,3,1.5,WESTMINSTER ELECTION DIS,1350,4570,1985,114,180,,Sold,,,https://www.redfin.com/MD/Westminster/302-St-Andrews-Ln-21158/home/14440445,BRIGHT MLS,MDCR2000796,N,Y,39.564928,-77.040261
PAST SALE,January-8-2020,Vacant Land,Rt 832,Taneytown,MD,21787,55000,,,TYRONE ACRES,,236095,,697,,,Sold,,,https://www.redfin.com/MD/Taneytown/Unknown-Unknown/home/168760781,BRIGHT MLS,MDCR191258,N,Y,39.62554252,-77.1062879
PAST SALE,November-12-2021,Single Family Residential,223 Stacy Lee Dr,Westminster,MD,21158,300000,3,2.0,WESTMINSTER ELECTION DIS,1668,10283,1985,23,180,7,Sold,,,https://www.redfin.com/MD/Westminster/223-Stacy-Lee-Dr-21158/home/14456352,BRIGHT MLS,MDCR2002832,N,Y,39.5830074,-77.0313957
PAST SALE,July-31-2020,Townhouse,226 Glenbrook Dr,Westminster,MD,21158,215000,3,1.5,GREENS OF WEST,1454,6300,1985,492,148,7,Sold,,,https://www.redfin.com/MD/Westminster/226-Glenbrook-Dr-21158/home/14434136,BRIGHT MLS,MDCR196740,N,Y,39.5840705,-77.0333693
PAST SALE,June-17-2021,Townhouse,969 Glenbrook Ct,Westminster,MD,21158,239900,3,1.5,WESTMINSTER ELECTION DIS,1736,9797,1985,171,138,7,Sold,,,https://www.redfin.com/MD/Westminster/969-Glenbrook-Ct-21158/home/14464149,BRIGHT MLS,MDCR203800,N,Y,39.5847493,-77.0337876
PAST SALE,September-22-2021,Townhouse,225 Glenbrook Dr,Westminster,MD,21158,258000,3,3.0,WESTMINSTER ELECTION DIS,1956,5922,1985,74,132,7,Sold,,,https://www.redfin.com/MD/Westminster/225-Glenbrook-Dr-21158/home/14467084,BRIGHT MLS,MDCR2002010,N,Y,39.583803,-77.032933
PAST SALE,May-17-2019,Townhouse,964 Glenbrook Ct,Westminster,MD,21158,210000,3,2.0,GREENS OF WEST,1214,6690,1985,933,173,7,Sold,,,https://www.redfin.com/MD/Westminster/964-Glenbrook-Ct-21158/home/14445107,BRIGHT MLS,MDCR182224,N,Y,39.584804,-77.033047
PAST SALE,June-26-2020,Townhouse,236 Glenbrook Dr,Westminster,MD,21158,222000,3,1.5,WESTMINSTER ELECTION DIS,1734,6000,1985,527,128,7,Sold,,,https://www.redfin.com/MD/Westminster/236-Glenbrook-Dr-21158/home/14455061,BRIGHT MLS,MDCR194032,N,Y,39.584791,-77.032755
PAST SALE,June-22-2021,Townhouse,950 Ruby Dr,Westminster,MD,21158,245000,3,2.0,WESTMINSTER ELECTION DIS,1088,6291,1985,166,225,7,Sold,,,https://www.redfin.com/MD/Westminster/950-Ruby-Dr-21158/home/14457405,BRIGHT MLS,MDCR204780,N,Y,39.5838267,-77.0318963
PAST SALE,March-8-2019,Townhouse,212 Glenbrook Dr,Westminster,MD,21158,199900,3,2.5,GREENS OF WEST,2176,5750,1985,1003,92,7,Sold,,,https://www.redfin.com/MD/Westminster/212-Glenbrook-Dr-21158/home/14458868,BRIGHT MLS,MDCR154134,N,Y,39.5831044,-77.0338115
PAST SALE,October-28-2020,Multi-Family (2-4 Unit),311 Pleasant Valley Rd,Westminster,MD,21157,318000,,,Westminster,2240,212311,1986,403,142,,Sold,,,https://www.redfin.com/MD/Westminster/311-Pleasant-Valley-Rd-21158/home/14461107,BRIGHT MLS,MDCR199604,N,Y,39.620128,-77.009988
PAST SALE,January-11-2021,Townhouse,291 Pleasant Valley Rd,Westminster,MD,21158,330000,6,2.5,WESTMINSTER ELECTION DIS,2240,248379,1986,328,147,,Sold,,,https://www.redfin.com/MD/Westminster/291-Pleasant-Valley-Rd-21158/home/14468341,BRIGHT MLS,MDCR201168,N,Y,39.6196961,-77.0085386
PAST SALE,,Townhouse,325 Stacy Lee Dr,Westminster,MD,21158,218000,,2.5,,1972,5403,1986,,111,,,,,https://www.redfin.com/MD/Westminster/325-Stacy-Lee-Dr-21158/home/14441017,,,N,Y,39.5832774,-77.0257516
PAST SALE,August-13-2021,Townhouse,329 Stacy Lee Dr,Westminster,MD,21158,235000,3,2.5,WESTMINSTER ELECTION DIS,1595,2012,1986,114,147,7,Sold,,,https://www.redfin.com/MD/Westminster/329-Stacy-Lee-Dr-21158/home/14471407,BRIGHT MLS,MDCR204592,N,Y,39.5833469,-77.0254721
PAST SALE,November-5-2021,Single Family Residential,1256 Carrollyn Dr,Westminster,MD,21158,275780,3,1.0,WESTMINSTER ELECTION DIS,1005,20473,1975,30,274,,Sold,,,https://www.redfin.com/MD/Westminster/1256-Carrollyn-Dr-21158/home/14467000,BRIGHT MLS,MDCR2001998,N,Y,39.5983119,-77.0402843
PAST SALE,,Single Family Residential,2420 Hughes Shop Rd,Westminster,MD,21158,475000,5,2.5,,2780,127631,1994,,171,,,,,https://www.redfin.com/MD/Westminster/2420-Hughes-Shop-Rd-21158/home/14456101,,,N,Y,39.6426607,-77.0330474
PAST SALE,September-10-2019,Single Family Residential,2350 Hughes Shop Rd,Westminster,MD,21158,385000,3,3.0,MARGARETS DELIGHT,2348,161216,1989,817,164,,Sold,,,https://www.redfin.com/MD/Westminster/2350-Hughes-Shop-Rd-21158/home/14435910,BRIGHT MLS,MDCR190426,N,Y,39.6417432,-77.0348348
PAST SALE,December-27-2018,Townhouse,376 Doral Ct,Westminster,MD,21158,220000,2,2.5,AVONDALE RUN,1440,3500,1988,1074,153,10,Sold,,,https://www.redfin.com/MD/Westminster/376-Doral-Ct-21158/home/14479613,BRIGHT MLS,MDCR118184,N,Y,39.565854,-77.0261632
PAST SALE,June-25-2021,Townhouse,370 Doral Ct,Westminster,MD,21158,265000,3,2.5,WESTMINSTER ELECTION DIS,1362,2000,1988,163,195,13,Sold,,,https://www.redfin.com/MD/Westminster/370-Doral-Ct-21158/home/14443204,BRIGHT MLS,MDCR203182,N,Y,39.5659914,-77.0260201
PAST SALE,,Townhouse,358 Doral Ct,Westminster,MD,21158,240000,,2.0,,1184,2000,1988,,203,,,,,https://www.redfin.com/MD/Westminster/358-Doral-Ct-21158/home/14444231,,,N,Y,39.5663171,-77.0256894
PAST SALE,April-16-2020,Townhouse,393 Doral Ct,Westminster,MD,21158,230000,3,1.5,WESTMINSTER ELECTION DIS,1486,1999,1988,598,155,13,Sold,,,https://www.redfin.com/MD/Westminster/393-Doral-Ct-21158/home/14439509,BRIGHT MLS,MDCR193556,N,Y,39.565682,-77.025312
PAST SALE,,Townhouse,399 Doral Ct,Westminster,MD,21158,221900,,2.5,,1388,3500,1988,,160,,,,,https://www.redfin.com/MD/Westminster/399-Doral-Ct-21158/home/14463103,,,N,Y,39.5655186,-77.0252421
PAST SALE,May-24-2021,Single Family Residential,1064 Long Valley Rd,Westminster,MD,21158,425000,3,3.0,AVONDALE RUN,2756,20092,1988,195,154,13,Sold,,,https://www.redfin.com/MD/Westminster/1064-Long-Valley-Rd-21158/home/14462931,BRIGHT MLS,MDCR203406,N,Y,39.5651865,-77.0285372
PAST SALE,August-17-2020,Townhouse,396 Doral Ct,Westminster,MD,21158,240000,2,3.0,AVONDALE RUN,1472,2000,1988,475,163,13,Sold,,,https://www.redfin.com/MD/Westminster/396-Doral-Ct-21158/home/14432564,BRIGHT MLS,MDCR197670,N,Y,39.5652094,-77.0257386
PAST SALE,December-9-2020,Townhouse,394 Doral Ct,Westminster,MD,21158,227000,2,1.5,AVONDALE RUN,1460,2000,1988,361,155,13,Sold,,,https://www.redfin.com/MD/Westminster/394-Doral-Ct-21158/home/14473044,BRIGHT MLS,MDCR200032,N,Y,39.5652536,-77.0257868
PAST SALE,August-24-2020,Single Family Residential,356 Winged Foot Dr,Westminster,MD,21158,470000,4,3.0,AVONDALE RUN,2722,21249,1991,468,173,12,Sold,,,https://www.redfin.com/MD/Westminster/356-Winged-Foot-Dr-21158/home/14480477,BRIGHT MLS,MDCR197952,N,Y,39.5689702,-77.0266273
PAST SALE,October-19-2020,Single Family Residential,361 Winged Foot Dr,Westminster,MD,21158,455000,4,3.5,AVONDALE RUN,4094,20046,1995,412,111,,Sold,,,https://www.redfin.com/MD/Westminster/361-Winged-Foot-Dr-21158/home/14478352,BRIGHT MLS,MDCR199028,N,Y,39.5681043,-77.0265599
PAST SALE,August-10-2020,Townhouse,550 Congressional Dr,Westminster,MD,21158,245000,4,3.5,AVONDALE RUN,1928,3500,1990,482,127,10,Sold,,,https://www.redfin.com/MD/Westminster/550-Congressional-Dr-21158/home/14437248,BRIGHT MLS,MDCR197858,N,Y,39.56,-77.0323944
PAST SALE,August-14-2020,Townhouse,538 Congressional Dr,Westminster,MD,21158,248000,4,3.5,AVONDALE RUN,1624,3485,1990,478,153,10,Sold,,,https://www.redfin.com/MD/Westminster/538-Congressional-Dr-21158/home/14451349,BRIGHT MLS,MDCR197340,N,Y,39.5605545,-77.0323941
PAST SALE,January-22-2021,Townhouse,535 Congressional Dr,Westminster,MD,21158,233950,3,2.5,AVONDALE RUN,1700,2000,1992,317,138,10,Sold,,,https://www.redfin.com/MD/Westminster/535-Congressional-Dr-21158/home/14462690,BRIGHT MLS,MDCR199594,N,Y,39.5606775,-77.0316322
PAST SALE,,Single Family Residential,1186 Emerald Ridge Dr,Westminster,MD,21158,351000,,2.0,,2008,103978,1987,,175,,,,,https://www.redfin.com/MD/Westminster/1186-Emerald-Ridge-Dr-21158/home/14434876,,,N,Y,39.6031714,-77.0375569
PAST SALE,June-7-2019,Single Family Residential,945 Westcliff Ct,Westminster,MD,21158,500000,4,2.5,FENBY FARM,2800,25819,1996,912,179,10,Sold,,,https://www.redfin.com/MD/Westminster/945-Westcliff-Ct-21158/home/14430360,BRIGHT MLS,MDCR187492,N,Y,39.5742841,-77.0282223
PAST SALE,September-15-2021,Single Family Residential,2581 Cedar Ridge Dr,Westminster,MD,21158,435000,4,3.0,WESTMINSTER ELECTION DIS,2128,140263,1993,81,204,,Sold,,,https://www.redfin.com/MD/Westminster/2581-Cedar-Ridge-Dr-21158/home/14461175,BRIGHT MLS,MDCR205230,N,Y,39.6436233,-76.9817902
PAST SALE,September-17-2020,Townhouse,795 Windsor Ct,Westminster,MD,21158,220000,3,2.5,GREENS OF WEST,1280,4051,1988,444,172,8,Sold,,,https://www.redfin.com/MD/Westminster/795-Windsor-Ct-21158/home/14432159,BRIGHT MLS,MDCR198706,N,Y,39.584218,-77.0214156
PAST SALE,March-12-2020,Single Family Residential,4625 Old Hanover Rd,Westminster,MD,21158,315000,3,1.5,Westminster,1260,958320,1966,633,250,,Sold,,,https://www.redfin.com/MD/Westminster/4625-Old-Hanover-Rd-21158/home/147198093,BRIGHT MLS,MDCR192934,N,Y,39.703426,-77.003359
PAST SALE,July-7-2020,Single Family Residential,437 Dotsie Dr,Westminster,MD,21158,595000,4,3.5,WILLOWBROOK,4533,135472,2000,516,131,,Sold,,,https://www.redfin.com/MD/Westminster/437-Dotsie-Dr-21158/home/14478587,BRIGHT MLS,MDCR197094,N,Y,39.6251136,-77.0119821
PAST SALE,,Single Family Residential,327 Buck Cash Dr,Westminster,MD,21158,300000,,2.5,,2920,13024,1990,,103,,,,,https://www.redfin.com/MD/Westminster/327-Buck-Cash-Dr-21158/home/14434737,,,N,Y,39.5845566,-77.0158512
PAST SALE,November-6-2020,Single Family Residential,2399 Critter Dr,Westminster,MD,21158,452000,3,2.5,ADVOCATES CHOICE,2800,131551,1991,394,161,,Sold,,,https://www.redfin.com/MD/Westminster/2399-Critter-Dr-21158/home/14473890,BRIGHT MLS,MDCR200134,N,Y,39.6394065,-76.9834718
PAST SALE,,Single Family Residential,540 Crossbridge Dr,Westminster,MD,21158,395000,,3.5,,2472,10400,1988,,160,,,,,https://www.redfin.com/MD/Westminster/540-Crossbridge-Dr-21158/home/14469302,,,N,Y,39.5759742,-77.0190996
PAST SALE,March-3-2020,Single Family Residential,74 Marhill Ct,Westminster,MD,21158,358000,3,2.5,WESTMINSTER ELECTION DIS,1872,12458,1990,642,191,,Sold,,,https://www.redfin.com/MD/Westminster/74-Marhill-Ct-21158/home/14449264,BRIGHT MLS,MDCR194094,N,Y,39.5745803,-77.0188511
PAST SALE,May-7-2021,Townhouse,453 Palmer Ter,Westminster,MD,21158,240000,3,1.5,WESTMINSTER ELECTION DIS,1708,2300,1989,212,141,20,Sold,,,https://www.redfin.com/MD/Westminster/453-Palmer-Ter-21158/home/14438977,BRIGHT MLS,MDCR202868,N,Y,39.5778191,-77.0160424
PAST SALE,October-7-2021,Townhouse,463 Palmer Ter,Westminster,MD,21158,255000,3,1.5,WESTMINSTER ELECTION DIS,1608,4356,1990,59,159,20,Sold,,,https://www.redfin.com/MD/Westminster/463-Palmer-Ter-21158/home/14461684,BRIGHT MLS,MDCR2002176,N,Y,39.5773549,-77.0159749
PAST SALE,May-30-2019,Townhouse,461 South Hills Ct,Westminster,MD,21158,225000,3,1.5,FURNACE HILLS,1676,6713,1992,920,134,20,Sold,,,https://www.redfin.com/MD/Westminster/461-S-Hills-Ct-21158/home/14471221,BRIGHT MLS,MDCR182546,N,Y,39.5767537,-77.0153113
PAST SALE,,Single Family Residential,64 Marhill Ct,Westminster,MD,21158,480000,,2.5,,2812,19588,1989,,171,,,,,https://www.redfin.com/MD/Westminster/64-Marhill-Ct-21158/home/14463718,,,N,Y,39.5739817,-77.0195851
PAST SALE,February-5-2019,Single Family Residential,2886 Staley Dr,Westminster,MD,21157,520000,4,4.0,CAMBRIDGE ESTS,3720,66211,2005,1034,140,,Sold,,,https://www.redfin.com/MD/Westminster/2886-Staley-Dr-21158/unit-0/home/160673320,BRIGHT MLS,1009919098,N,Y,39.6526179,-77.019108
PAST SALE,July-15-2019,Townhouse,414 Spalding Ct,Westminster,MD,21158,217000,3,1.5,FURNACE HILLS,1688,2306,1990,874,129,20,Sold,,,https://www.redfin.com/MD/Westminster/414-Spalding-Ct-21158/home/14453967,BRIGHT MLS,MDCR187970,N,Y,39.5782232,-77.0150526
PAST SALE,,Vacant Land,OLD TANEYTOWN RD,WESTMINSTER,MD,21158,60000,,,,,90605,,,,,,,,https://www.redfin.com/MD/WESTMINSTER/OLD-TANEYTOWN-RD-21158/home/14459230,,,N,Y,39.596251,-77.042906
PAST SALE,,Townhouse,418 Hobbitts Ln,Westminster,MD,21158,224000,,1.5,,1658,2302,1991,,135,,,,,https://www.redfin.com/MD/Westminster/418-Hobbitts-Ln-21158/home/14426572,,,N,Y,39.5773675,-77.0143328
PAST SALE,June-25-2021,Townhouse,410 Hobbitts Ln,Westminster,MD,21158,248500,3,1.5,WESTMINSTER ELECTION DIS,1708,4636,1990,163,145,20,Sold,,,https://www.redfin.com/MD/Westminster/410-Hobbitts-Ln-21158/home/14446316,BRIGHT MLS,MDCR203532,N,Y,39.577653,-77.014295
PAST SALE,November-13-2020,Townhouse,404 Hobbitts Ln,Westminster,MD,21158,227500,3,1.5,FURNACE HILLS,1433,2301,1990,387,159,20,Sold,,,https://www.redfin.com/MD/Westminster/404-Hobbitts-Ln-21158/home/14452793,BRIGHT MLS,MDCR199226,N,Y,39.577823,-77.014199
PAST SALE,,Vacant Land,HUGHES SHOP RD,WESTMINSTER,MD,21158,120000,,,,,255697,,,,,,,,https://www.redfin.com/MD/WESTMINSTER/HUGHES-SHOP-RD-21158/home/14444234,,,N,Y,39.627997,-77.036784
PAST SALE,,Vacant Land,STONE RD,WESTMINSTER,MD,21158,127980,,,,,280962,,,,,,,,https://www.redfin.com/MD/WESTMINSTER/STONE-RD-21158/home/28500668,,,N,Y,39.661564,-77.095376
PAST SALE,August-31-2021,Single Family Residential,911 Wedgewood Ter,Westminster,MD,21158,390400,4,3.5,WESTMINSTER ELECTION DIS,2128,23348,1993,96,183,,Sold,,,https://www.redfin.com/MD/Westminster/911-Wedgewood-Ter-21158/home/14441299,BRIGHT MLS,MDCR2000446,N,Y,39.6001813,-77.0385232
PAST SALE,June-30-2021,Single Family Residential,1615 Hughes Shop Rd,Westminster,MD,21158,500000,4,2.0,WESTMINSTER ELECTION DIS,2294,314373,1900,158,218,,Sold,,,https://www.redfin.com/MD/Westminster/1615-Hughes-Shop-Rd-21158/home/146837653,BRIGHT MLS,MDCR203322,N,Y,39.618947,-77.033241
PAST SALE,,Vacant Land,1057 Walgarmyr Dr,Westminster,MD,21158,232500,,,,,996435,,,,,,,,https://www.redfin.com/MD/Westminster/1057-Walgarmyr-Dr-21158/home/23064708,,,N,Y,39.601259,-77.06017
PAST SALE,,Townhouse,731 Young Way,Westminster,MD,21158,125000,,1.0,,1218,4209,1979,,103,,,,,https://www.redfin.com/MD/Westminster/731-Young-Way-21158/home/14433172,,,N,Y,39.5813779,-77.0224583
PAST SALE,July-12-2019,Single Family Residential,1548 Hughes Shop Rd,Westminster,MD,21158,300000,4,2.0,Westminster,1270,60984,1950,877,236,,Sold,,,https://www.redfin.com/MD/Westminster/1548-Hughes-Shop-Rd-21158/home/14475721,BRIGHT MLS,MDCR188254,N,Y,39.6175463,-77.0341796
PAST SALE,July-8-2019,Single Family Residential,946 Hughes Shop Rd,Westminster,MD,21158,199900,3,1.5,WESTMINSTER,1532,20000,1958,881,130,,Sold,,,https://www.redfin.com/MD/Westminster/946-Hughes-Shop-Rd-21158/home/14442289,BRIGHT MLS,MDCR189048,N,Y,39.6013693,-77.0339351
PAST SALE,October-29-2021,Townhouse,663 Johahn Dr,Westminster,MD,21158,225000,3,2.5,WESTMINSTER ELECTION DIS,1240,2202,1988,37,181,7,Sold,,,https://www.redfin.com/MD/Westminster/663-Johahn-Dr-21158/home/14437593,BRIGHT MLS,MDCR2002064,N,Y,39.584957,-77.021556
PAST SALE,,Single Family Residential,1416 High St,Westminster,MD,21158,75000,,1.0,,616,5445,1921,,122,,,,,https://www.redfin.com/MD/Westminster/1416-High-St-21158/home/14467487,,,N,Y,39.6322827,-77.0460686
PAST SALE,June-25-2020,Single Family Residential,1825 Connolly Dr,Westminster,MD,21158,534000,4,3.0,WESTMINSTER ELECTION DIS,2852,56018,2015,528,187,,Sold,,,https://www.redfin.com/MD/Westminster/1825-Connolly-Dr-21158/home/14450974,BRIGHT MLS,MDCR194360,N,Y,39.624547,-77.015058
PAST SALE,July-26-2019,Single Family Residential,1242 Carrollyn Dr,Westminster,MD,21158,300000,3,2.0,CARROLLYN MANOR,2261,20909,1969,863,133,,Sold,,,https://www.redfin.com/MD/Westminster/1242-Carrollyn-Dr-21158/home/14428584,BRIGHT MLS,MDCR188344,N,Y,39.598154,-77.0396379
PAST SALE,September-30-2021,Single Family Residential,1608 Humbert Schoolhouse Rd,Westminster,MD,21158,538000,3,2.0,MYERS ELECTION DISTRICT,1830,875556,1977,66,294,,Sold,,,https://www.redfin.com/MD/Westminster/1608-Humbert-Schoolhouse-Rd-21158/home/14465672,BRIGHT MLS,MDCR2000620,N,Y,39.7015285,-77.0562115
PAST SALE,August-13-2019,Townhouse,492 Silver Ct,Westminster,MD,21158,220000,3,1.5,FURNACE HILLS,1808,3054,1989,845,122,19,Sold,,,https://www.redfin.com/MD/Westminster/492-Silver-Ct-21158/home/14458635,BRIGHT MLS,MDCR188610,N,Y,39.5772822,-77.0178756
PAST SALE,,Single Family Residential,Wilford Ct,Westminster,MD,21158,512449,,,,,12750,,,,,,,,https://www.redfin.com/MD/Westminster/Wilford-Ct-21158/home/146474936,,,N,Y,39.5966725,-77.0148486
PAST SALE,June-19-2020,Single Family Residential,366 Field Lily Ct,Westminster,MD,21158,349000,4,3.0,WHISPERING MEADOWS,2321,14817,1991,534,150,,Sold,,,https://www.redfin.com/MD/Westminster/366-Field-Lily-Ct-21158/home/14448757,BRIGHT MLS,MDCR195412,N,Y,39.5842606,-77.0181455
PAST SALE,April-9-2019,Single Family Residential,2020 Hughes Shop Rd,Westminster,MD,21158,370000,4,3.0,WESTMINSTER,2340,130680,1862,971,158,,Sold,,,https://www.redfin.com/MD/Westminster/2020-Hughes-Shop-Rd-21158/home/14454974,BRIGHT MLS,MDCR154090,N,Y,39.6279619,-77.0413569
PAST SALE,August-13-2021,Single Family Residential,544 Yellow Lily Ct,Westminster,MD,21158,490000,4,2.5,WESTMINSTER ELECTION DIS,2102,18939,1993,114,233,,Sold,,,https://www.redfin.com/MD/Westminster/544-Yellow-Lily-Ct-21158/home/14466914,BRIGHT MLS,MDCR2000268,N,Y,39.5860019,-77.0156265
PAST SALE,November-30-2021,Single Family Residential,1815 Connolly Dr,Westminster,MD,21158,462500,3,2.0,WESTMINSTER ELECTION DIS,1975,52228,2010,5,234,,Sold,,,https://www.redfin.com/MD/Westminster/1815-Connolly-Dr-21158/home/14425223,BRIGHT MLS,MDCR2003168,N,Y,39.6242172,-77.0156262
PAST SALE,October-14-2021,Vacant Land,Pleasant Valley Rd,Westminster,MD,21158,65000,,,Westminster,,10018,,52,,,Sold,,,https://www.redfin.com/MD/WESTMINSTER/PLEASANT-VALLEY-RD-21158/home/14434060,BRIGHT MLS,MDCR2002168,N,Y,39.625943,-77.033121
PAST SALE,May-3-2021,Single Family Residential,2415 Florence Dr,Westminster,MD,21158,555000,4,2.5,WESTMINSTER ELECTION DIS,3456,144184,1997,216,161,,Sold,,,https://www.redfin.com/MD/Westminster/2415-Florence-Dr-21158/home/14451409,BRIGHT MLS,MDCR202742,N,Y,39.6406036,-76.9935544
PAST SALE,November-18-2021,Single Family Residential,5 Bell Rd,Westminster,MD,21158,375000,4,3.0,WESTMINSTER ELECTION DIS,1859,10000,1995,17,202,12,Sold,,,https://www.redfin.com/MD/Westminster/5-Bell-Rd-21158/home/14447428,BRIGHT MLS,MDCR2002562,N,Y,39.5804676,-77.0305117
PAST SALE,August-6-2021,Single Family Residential,21 Spyglass Ct,Westminster,MD,21158,435000,4,2.5,WESTMINSTER ELECTION DIS,1744,,1993,121,249,15,Sold,,,https://www.redfin.com/MD/Westminster/21-Spyglass-Ct-21158/home/14442762,BRIGHT MLS,MDCR205384,N,Y,39.5801043,-77.0294819
PAST SALE,November-5-2021,Single Family Residential,930 Burning Tree Ct,Westminster,MD,21158,530000,4,3.5,WESTMINSTER ELECTION DIS,2488,19183,1993,30,213,15,Sold,,,https://www.redfin.com/MD/Westminster/930-Burning-Tree-Ct-21158/home/14477801,BRIGHT MLS,MDCR2002424,N,Y,39.5787565,-77.0283698
PAST SALE,June-28-2021,Single Family Residential,32 Live Oak Ct,Westminster,MD,21158,500000,4,3.5,WESTMINSTER ELECTION DIS,3512,12257,1998,160,142,15,Sold,,,https://www.redfin.com/MD/Westminster/32-Live-Oak-Ct-21158/home/14446279,BRIGHT MLS,MDCR204086,N,Y,39.5756749,-77.0241962
PAST SALE,August-24-2021,Single Family Residential,22 Cypress Point Ct,Westminster,MD,21158,455500,4,2.5,WESTMINSTER ELECTION DIS,2164,11891,1997,103,210,15,Sold,,,https://www.redfin.com/MD/Westminster/22-Cypress-Point-Ct-21158/home/14469639,BRIGHT MLS,MDCR205206,N,Y,39.5754487,-77.0258167
PAST SALE,May-21-2021,Townhouse,522 Quarrier Ct,Westminster,MD,21158,245000,3,2.5,WESTMINSTER ELECTION DIS,1808,2428,1996,198,136,20,Sold,,,https://www.redfin.com/MD/Westminster/522-Quarrier-Ct-21158/home/14456351,BRIGHT MLS,MDCR203648,N,Y,39.5778702,-77.0190492
PAST SALE,May-31-2019,Townhouse,625 Windsor Dr,Westminster,MD,21158,219000,3,2.5,FURNACE HILLS,1477,2521,1995,919,148,11,Sold,,,https://www.redfin.com/MD/Westminster/625-Windsor-Dr-21158/home/14442564,BRIGHT MLS,MDCR187770,N,Y,39.5770553,-77.0187641
PAST SALE,,Townhouse,719 Mulligan Ln,Westminster,MD,21158,225000,,1.5,,1608,3362,1994,,140,,,,,https://www.redfin.com/MD/Westminster/719-Mulligan-Ln-21158/home/14457231,,,N,Y,39.576664,-77.0191993
PAST SALE,,Townhouse,525 Quarrier Ct,Westminster,MD,21158,170000,,1.5,,1545,2165,1996,,110,,,,,https://www.redfin.com/MD/Westminster/525-Quarrier-Ct-21158/home/14464201,,,N,Y,39.5782504,-77.0184492
PAST SALE,September-15-2021,Single Family Residential,722 Charingworth Rd,Westminster,MD,21158,595000,4,3.5,WESTMINSTER ELECTION DIS,4432,54014,2002,81,134,,Sold,,,https://www.redfin.com/MD/Westminster/722-Charingworth-Way-21158/home/14436713,BRIGHT MLS,MDCR2001126,N,Y,39.5918136,-77.0172892
PAST SALE,August-10-2020,Single Family Residential,728 Mulligan Ln,Westminster,MD,21158,350000,4,3.5,FURNACE HILLS,2866,8942,1995,482,122,10,Sold,,,https://www.redfin.com/MD/Westminster/728-Mulligan-Ln-21158/home/14469288,BRIGHT MLS,MDCR197112,N,Y,39.5765341,-77.020035
PAST SALE,July-23-2021,Single Family Residential,752 Mulligan Ln,Westminster,MD,21158,320000,3,1.5,WESTMINSTER ELECTION DIS,1522,9573,1995,135,210,10,Sold,,,https://www.redfin.com/MD/Westminster/752-Mulligan-Ln-21158/home/14427978,BRIGHT MLS,MDCR2000284,N,Y,39.5764364,-77.0223293
PAST SALE,August-20-2019,Single Family Residential,212 Linganore Ct,Westminster,MD,21158,335000,3,2.5,FURNACE HILLS,2352,8113,1996,838,142,10,Sold,,,https://www.redfin.com/MD/Westminster/212-Linganore-Ct-21158/home/14467449,BRIGHT MLS,MDCR189938,N,Y,39.5801818,-77.0217445
PAST SALE,,Single Family Residential,740 Tailings Dr,Westminster,MD,21158,282000,,3.0,,1814,11603,1997,,155,,,,,https://www.redfin.com/MD/Westminster/740-Tailings-Dr-21158/home/14463251,,,N,Y,39.5785115,-77.0211139
PAST SALE,July-29-2021,Single Family Residential,752 Quartz Dr,Westminster,MD,21158,365000,3,2.5,WESTMINSTER ELECTION DIS,2040,12593,1998,129,179,10,Sold,,,https://www.redfin.com/MD/Westminster/752-Quartz-Dr-21158/home/14460726,BRIGHT MLS,MDCR204658,N,Y,39.5786349,-77.022613
PAST SALE,December-9-2020,Single Family Residential,1230 Pinch Valley Rd,Westminster,MD,21158,609500,5,5.5,WESTMINSTER 21158,7152,213008,1996,361,85,,Sold,,,https://www.redfin.com/MD/Westminster/1230-Pinch-Valley-Rd-21158/home/14473123,BRIGHT MLS,MDCR200098,N,Y,39.6091814,-77.0256357
PAST SALE,August-2-2019,Single Family Residential,1339 S Pleasant Valley Rd,Westminster,MD,21158,77000,1,1.0,WESTMINSTER,1031,16335,1920,856,75,,Sold,,,https://www.redfin.com/MD/Westminster/1339-Pleasant-Valley-Rd-21158/home/14433843,BRIGHT MLS,MDCR188362,N,Y,39.609984,-77.058034
PAST SALE,August-12-2021,Single Family Residential,1322 Laurel Ln,Westminster,MD,21158,493000,4,3.0,WESTMINSTER ELECTION DIS,2636,241061,1977,115,187,,Sold,,,https://www.redfin.com/MD/Westminster/1322-Laurel-Ln-21158/home/14465289,BRIGHT MLS,MDCR205420,N,Y,39.611735,-77.020171
PAST SALE,July-26-2021,Single Family Residential,515 Plankwood Dr,Westminster,MD,21158,618000,4,3.0,WESTMINSTER ELECTION DIS,2552,75794,1995,132,242,,Sold,,,https://www.redfin.com/MD/Westminster/515-Plankwood-Dr-21158/home/14456983,BRIGHT MLS,MDCR204958,N,Y,39.6311296,-77.0103689
PAST SALE,June-19-2019,Single Family Residential,3941 Littlestown Pike,Westminster,MD,21158,305000,4,2.5,WESMINSTER,2040,28967,1900,900,150,,Sold,,,https://www.redfin.com/MD/Westminster/3941-Littlestown-Pike-21158/home/14434828,BRIGHT MLS,MDCR189618,N,Y,39.6828197,-77.0440111
PAST SALE,November-8-2021,Townhouse,849 Medinah Cir,Westminster,MD,21158,285000,3,3.0,WESTMINSTER ELECTION DIS,1608,3500,1995,27,177,33,Sold,,,https://www.redfin.com/MD/Westminster/849-Medinah-Cir-21158/home/14458059,BRIGHT MLS,MDCR2001510,N,Y,39.5667395,-77.0233977
PAST SALE,December-23-2019,Single Family Residential,808 Ryder Ct,Westminster,MD,21158,409900,4,2.5,WESTMINSTER ELECTION DIS,2688,22446,1995,713,152,,Sold,,,https://www.redfin.com/MD/Westminster/808-Ryder-Ct-21158/home/14452789,BRIGHT MLS,MDCR192772,N,Y,39.5720127,-77.0235889
PAST SALE,February-28-2020,Single Family Residential,408 Cassell Close,Westminster,MD,21158,500000,4,4.5,WESTMINSTER ELECTION DIS,5700,30723,1990,646,88,,Sold,,,https://www.redfin.com/MD/Westminster/408-Cassell-Close-21158/home/14475619,BRIGHT MLS,MDCR193714,N,Y,39.5665995,-77.0315511
PAST SALE,,Single Family Residential,346 Rockland Rd,Westminster,MD,21158,406747,,3.0,,1924,135341,2020,,211,,,,,https://www.redfin.com/MD/Westminster/346-Rockland-Rd-21158/home/105427271,,,N,Y,39.570966,-77.0536038
PAST SALE,November-12-2020,Single Family Residential,938 Westcliff Ct,Westminster,MD,21158,534900,4,3.0,FENBY FARM,4882,31638,2004,388,110,6,Sold,,,https://www.redfin.com/MD/Westminster/938-Westcliff-Ct-21158/home/14465527,BRIGHT MLS,MDCR200218,N,Y,39.5733157,-77.0284603
PAST SALE,December-30-2019,Single Family Residential,240 Hobbitts Ln,Westminster,MD,21158,343529,4,3.5,WESTMINSTER ELECTION DIS,2096,8431,2002,706,164,7,Sold,,,https://www.redfin.com/MD/Westminster/240-Hobbitts-Ln-21158/home/14453359,BRIGHT MLS,MDCR193332,N,Y,39.5805683,-77.0124839
PAST SALE,March-15-2021,Single Family Residential,720 Norfield Ct,Westminster,MD,21158,387000,4,3.5,WESTMINSTER ELECTION DIS,2240,,1996,265,173,240,Sold,,,https://www.redfin.com/MD/Westminster/720-Norfield-Ct-21158/home/14434115,BRIGHT MLS,MDCR202056,N,Y,39.5743114,-77.0234145
PAST SALE,October-16-2020,Single Family Residential,1544 Kilkenny Dr,Westminster,MD,21158,520000,4,3.0,ROCKLAND ESTATES,3394,128938,1999,415,153,,Sold,,,https://www.redfin.com/MD/Westminster/1544-Kilkenny-Dr-21158/home/14448303,BRIGHT MLS,MDCR197172,N,Y,39.5721751,-77.052781
PAST SALE,June-30-2020,Single Family Residential,558 Spring Green Ct,Westminster,MD,21157,537500,4,3.0,STONEGATE,3230,17400,2020,523,166,40,Sold,,,https://www.redfin.com/MD/Westminster/558-Spring-Green-CT-Unknown/home/167176883,BRIGHT MLS,MDCR193922,N,Y,39.58877025,-77.07152204
PAST SALE,June-18-2021,Single Family Residential,383 Hawthorne Ct,Westminster,MD,21158,485000,5,2.5,WESTMINSTER ELECTION DIS,3508,15333,2001,170,138,34,Sold,,,https://www.redfin.com/MD/Westminster/383-Hawthorne-Ct-21158/home/14480492,BRIGHT MLS,MDCR203932,N,Y,39.5843233,-77.0369489
PAST SALE,October-14-2021,Single Family Residential,1347 Pleasant Vly,Westminster,MD,21158,110000,4,1.0,PLEASANT VALLEY,1352,9148,1930,52,81,,Sold,,,https://www.redfin.com/MD/Westminster/1347-Pleasant-Valley-Rd-21158/home/176261998,BRIGHT MLS,MDCR2002152,N,Y,39.6332177,-77.0448184
PAST SALE,June-28-2021,Townhouse,241 Lodestone Ct,Westminster,MD,21158,275000,3,2.5,WESTMINSTER ELECTION DIS,1776,4710,2001,160,155,10,Sold,,,https://www.redfin.com/MD/Westminster/241-Lodestone-Ct-21158/home/14480066,BRIGHT MLS,MDCR204430,N,Y,39.5795877,-77.0136917
PAST SALE,September-25-2020,Single Family Residential,564 Rich Mar St,Westminster,MD,21158,373000,4,3.5,REMVIEW,3010,6660,2002,436,124,10,Sold,,,https://www.redfin.com/MD/Westminster/564-Rich-Mar-St-21158/home/14465342,BRIGHT MLS,MDCR198750,N,Y,39.5801407,-77.0161211
PAST SALE,October-29-2021,Townhouse,555 Rich Mar St,Westminster,MD,21158,282000,2,3.0,WESTMINSTER ELECTION DIS,1456,6210,2001,37,194,10,Sold,,,https://www.redfin.com/MD/Westminster/555-Rich-Mar-St-21158/home/14432779,BRIGHT MLS,MDCR2002466,N,Y,39.580707,-77.0151295
PAST SALE,August-30-2021,Single Family Residential,327 Moores Branch Cir,Westminster,MD,21158,502000,4,2.5,WESTMINSTER ELECTION DIS,2054,11003,2000,97,244,37,Sold,,,https://www.redfin.com/MD/Westminster/327-Moores-Branch-Cir-21158/home/14457110,BRIGHT MLS,MDCR2000662,N,Y,39.5838798,-77.0344299
PAST SALE,September-30-2020,Single Family Residential,583 Rich Mar St,Westminster,MD,21158,340000,4,3.0,REMVIEW,1818,7234,2001,431,187,11,Sold,,,https://www.redfin.com/MD/Westminster/583-Rich-Mar-St-21158/home/14478223,BRIGHT MLS,MDCR195520,N,Y,39.5798039,-77.0180556
PAST SALE,July-30-2021,Townhouse,234 Lodestone Ct,Westminster,MD,21158,300000,3,3.0,WESTMINSTER ELECTION DIS,1534,5964,2001,128,196,12,Sold,,,https://www.redfin.com/MD/Westminster/234-Lodestone-Ct-21158/home/14469233,BRIGHT MLS,MDCR2000152,N,Y,39.5794338,-77.0144439
PAST SALE,May-9-2019,Single Family Residential,286 Lodestone Ct,Westminster,MD,21158,355000,4,3.5,STONRIDGE OVERLOOK,2414,8507,2000,941,147,7,Sold,,,https://www.redfin.com/MD/Westminster/286-Lodestone-Ct-21158/home/14466738,BRIGHT MLS,MDCR182340,N,Y,39.5823748,-77.0130619
PAST SALE,August-21-2020,Single Family Residential,806 Hughes Shop Rd,Westminster,MD,21158,325000,2,1.5,Westminster,1902,39988,1956,471,171,,Sold,,,https://www.redfin.com/MD/Westminster/806-Hughes-Shop-Rd-21158/home/14457292,BRIGHT MLS,MDCR197984,N,Y,39.5965696,-77.0350147
PAST SALE,August-22-2019,Single Family Residential,911 Yarmouth Dr,Westminster,MD,21158,335000,3,3.0,CARROLLYN MANOR,2868,75794,1991,836,117,,Sold,,,https://www.redfin.com/MD/Westminster/911-Yarmouth-Dr-21158/home/14470141,BRIGHT MLS,MDCR190186,N,Y,39.5985923,-77.0416717
PAST SALE,March-23-2021,Single Family Residential,1246 Emerald Ridge Dr,Westminster,MD,21158,350000,4,2.0,WESTMINSTER ELECTION DIS,2200,21606,1975,257,159,,Sold,,,https://www.redfin.com/MD/Westminster/1246-Emerald-Ridge-Dr-21158/home/14437698,BRIGHT MLS,MDCR202390,N,Y,39.6008385,-77.041177
PAST SALE,,Single Family Residential,502 Tylney Hall Ct,Westminster,MD,21158,515000,,4.5,,4538,37184,2001,,113,,,,,https://www.redfin.com/MD/Westminster/502-Tylney-Hall-Ct-21158/home/14441188,,,N,Y,39.5918279,-77.0130634
PAST SALE,September-17-2021,Single Family Residential,691 Charingworth Ct,Westminster,MD,21158,650000,5,4.0,WESTMINSTER ELECTION DIS,3479,22499,2002,79,187,,Sold,,,https://www.redfin.com/MD/Westminster/691-Charingworth-Ct-21158/home/14431201,BRIGHT MLS,MDCR2000770,N,Y,39.5930004,-77.0123324
PAST SALE,December-29-2020,Single Family Residential,1522 Old Taneytown Rd,Westminster,MD,21158,334900,3,2.0,WESTMINSTER,1668,47350,2001,341,201,,Sold,,,https://www.redfin.com/MD/Westminster/1522-Old-Taneytown-Rd-21158/home/14433575,BRIGHT MLS,MDCR200662,N,Y,39.5991984,-77.0503748
PAST SALE,July-15-2019,Single Family Residential,245 Hobbitts Ln,Westminster,MD,21158,369900,3,3.0,STONERIDGE OVERLOOK,2582,7016,2002,874,143,7,Sold,,,https://www.redfin.com/MD/Westminster/245-Hobbitts-Ln-21158/home/14439708,BRIGHT MLS,MDCR187798,N,Y,39.5808852,-77.0117635
PAST SALE,,Single Family Residential,359 Grey Friars Rd,Westminster,MD,21158,430000,,2.5,,2866,14483,2002,,150,,,,,https://www.redfin.com/MD/Westminster/359-Grey-Friars-Rd-21158/home/14459503,,,N,Y,39.584043,-77.0397376
PAST SALE,October-9-2020,Single Family Residential,363 Grey Friars Rd,Westminster,MD,21158,375000,2,2.0,COVENTRY AT WESTMINSTER,1972,10137,2002,422,190,208,Sold,,,https://www.redfin.com/MD/Westminster/363-Grey-Friars-Rd-21158/home/14461905,BRIGHT MLS,MDCR198090,N,Y,39.5844716,-77.0394902
PAST SALE,September-9-2021,Single Family Residential,367 Grey Friars Rd,Westminster,MD,21158,478000,2,2.0,WESTMINSTER ELECTION DIS,2064,9927,2002,87,232,205,Sold,,,https://www.redfin.com/MD/Westminster/367-Grey-Friars-Rd-21158/home/14446842,BRIGHT MLS,MDCR205346,N,Y,39.5848585,-77.0394003
PAST SALE,October-11-2019,Single Family Residential,362 Grey Friars Rd,Westminster,MD,21158,380000,2,2.0,COVENTRY AT WESTMINSTER,2184,12624,2003,786,174,205,Sold,,,https://www.redfin.com/MD/Westminster/362-Grey-Friars-Rd-21158/home/14456705,BRIGHT MLS,MDCR191042,N,Y,39.5844175,-77.0405922
PAST SALE,February-26-2021,Single Family Residential,401 High Earls Rd,Westminster,MD,21158,375000,2,2.0,WESTMINSTER ELECTION DIS,2080,11541,2003,282,180,205,Sold,,,https://www.redfin.com/MD/Westminster/401-High-Earls-Rd-21158/home/14427318,BRIGHT MLS,MDCR201696,N,Y,39.583823,-77.0409521
PAST SALE,May-29-2020,Single Family Residential,404 High Earls Rd,Westminster,MD,21158,375000,2,2.0,WESTMINSTER ELECTION DIS,2078,10566,2002,555,180,205,Sold,,,https://www.redfin.com/MD/Westminster/404-High-Earls-Rd-21158/home/14468711,BRIGHT MLS,MDCR193776,N,Y,39.5836243,-77.0418292
PAST SALE,June-25-2019,Single Family Residential,406 High Earls Rd,Westminster,MD,21158,363900,3,2.5,COVENTRY AT WESTMINSTER,2010,13583,2002,894,181,180,Sold,,,https://www.redfin.com/MD/Westminster/406-High-Earls-Rd-21158/home/14475421,BRIGHT MLS,MDCR187264,N,Y,39.5838503,-77.0418966
PAST SALE,October-15-2021,Single Family Residential,1313 Saint Hales Ct,Westminster,MD,21158,500000,2,2.5,WESTMINSTER ELECTION DIS,2970,10649,2003,51,168,205,Sold,,,https://www.redfin.com/MD/Westminster/1313-St-Hales-Ct-21158/home/14464776,BRIGHT MLS,MDCR2001550,N,Y,39.5838166,-77.0423014
PAST SALE,September-25-2020,Single Family Residential,1315 St Hales Ct,Westminster,MD,21158,375000,2,2.0,COVENTRY AT WESTMINSTER,1972,9389,2002,436,190,205,Sold,,,https://www.redfin.com/MD/Westminster/1315-St-Hales-Ct-21158/home/14449639,BRIGHT MLS,MDCR199240,N,Y,39.5837677,-77.0425713
PAST SALE,July-26-2019,Single Family Residential,1310 St Hales Ct,Westminster,MD,21158,380000,2,2.0,COVENTRY AT WESTMINSTER,2198,8596,2003,863,173,205,Sold,,,https://www.redfin.com/MD/Westminster/1310-St-Hales-Ct-21158/home/14462683,BRIGHT MLS,MDCR189044,N,Y,39.5844895,-77.0424589
PAST SALE,September-28-2020,Single Family Residential,422 High Earls Rd,Westminster,MD,21158,365000,2,2.0,COVENTRY AT WESTMINSTER,2060,9733,2003,433,177,205,Sold,,,https://www.redfin.com/MD/Westminster/422-High-Earls-Rd-21158/home/14450627,BRIGHT MLS,MDCR198596,N,Y,39.5856848,-77.0412669
PAST SALE,September-3-2021,Single Family Residential,594 Juniper Ct,Westminster,MD,21158,436000,4,3.0,WESTMINSTER ELECTION DIS,3044,11493,2003,93,143,,Sold,,,https://www.redfin.com/MD/Westminster/594-Juniper-Ct-21158/home/14436995,BRIGHT MLS,MDCR2000612,N,Y,39.5812931,-77.016481
PAST SALE,November-25-2019,Single Family Residential,615 Mel Ct,Westminster,MD,21157,515000,4,3.5,JACOBS RIDGE 1,4206,63598,2003,741,122,,Sold,,,https://www.redfin.com/MD/Westminster/615-Mel-Ct-21158/home/14443197,BRIGHT MLS,MDCR191932,N,Y,39.6007729,-77.017142
PAST SALE,September-30-2020,Townhouse,827 Hemingford Ct #23,Westminster,MD,21158,337000,3,3.0,FURNACE HILLS,3574,,2003,431,94,240,Sold,,,https://www.redfin.com/MD/Westminster/827-Hemingford-Ct-21158/unit-23/home/14465256,BRIGHT MLS,MDCR198484,N,Y,39.5749398,-77.0240163
PAST SALE,September-17-2021,Condo/Co-op,702 Norfield Ct #2,Westminster,MD,21158,381600,3,3.0,WESTMINSTER ELECTION DIS,3319,,2003,79,115,240,Sold,,,https://www.redfin.com/MD/Westminster/702-Norfield-Ct-21158/unit-2/home/14440018,BRIGHT MLS,MDCR2001054,N,Y,39.574879,-77.021582
PAST SALE,June-28-2019,Townhouse,701 Medinah Cir,Westminster,MD,21158,235000,3,3.0,AVONDALE RUN,1753,3500,1995,891,134,33,Sold,,,https://www.redfin.com/MD/Westminster/701-Medinah-Cir-21158/home/14468586,BRIGHT MLS,MDCR188598,N,Y,39.5671748,-77.0228579
PAST SALE,May-29-2020,Townhouse,811 Hemingford Ct #31,Westminster,MD,21158,345000,4,3.5,WESTMINSTER ELECTION DIS,3619,,2003,555,95,240,Sold,,,https://www.redfin.com/MD/Westminster/811-Hemingford-Ct-21158/unit-31/home/14435457,BRIGHT MLS,MDCR192902,N,Y,39.5752466,-77.0225378
PAST SALE,July-30-2020,Single Family Residential,628 Pond View Ct,Westminster,MD,21158,520250,4,3.5,WESTMINSTER ELECTION DIS,5684,12305,2006,493,92,40,Sold,,,https://www.redfin.com/MD/Westminster/628-Pond-View-Ct-21158/home/14426163,BRIGHT MLS,MDCR194356,N,Y,39.5876362,-77.0138938
PAST SALE,June-22-2020,Single Family Residential,633 Wyndstar Cir,Westminster,MD,21158,440000,4,2.5,WESTMINSTER ELECTION DIS,2988,11364,2006,531,147,45,Sold,,,https://www.redfin.com/MD/Westminster/633-Wyndstar-Cir-21158/home/14436412,BRIGHT MLS,MDCR193540,N,Y,39.5900874,-77.0116621
PAST SALE,October-9-2020,Single Family Residential,650 Spring Meadow Dr,Westminster,MD,21158,500000,4,3.5,VILL OF MEADOW CRK PL,4422,10402,2005,422,113,45,Sold,,,https://www.redfin.com/MD/Westminster/650-Spring-Meadow-Dr-21158/home/14425452,BRIGHT MLS,MDCR198742,N,Y,39.5908209,-77.011399
PAST SALE,May-12-2020,Single Family Residential,643 Wyndstar Cir,Westminster,MD,21158,440000,6,3.5,WESTMINSTER ELECTION DIS,3837,11608,2006,572,115,45,Sold,,,https://www.redfin.com/MD/Westminster/643-Wyndstar-Cir-21158/home/14476628,BRIGHT MLS,MDCR193722,N,Y,39.5906651,-77.0105004
PAST SALE,July-3-2019,Single Family Residential,498 Summit View Dr,Westminster,MD,21157,667000,4,4.0,CAMELOT PLAZA,5089,512222,2007,886,131,150,Sold,,,https://www.redfin.com/MD/Westminster/498-Summit-View-Dr-21158/home/14443129,BRIGHT MLS,MDCR174344,N,Y,39.5573989,-77.045402
PAST SALE,June-8-2021,Single Family Residential,343 Meadow Creek Dr,Westminster,MD,21158,588000,5,3.5,WESTMINSTER ELECTION DIS,4536,20399,2013,180,130,29,Sold,,,https://www.redfin.com/MD/Westminster/343-Meadow-Creek-Dr-21158/home/28500871,BRIGHT MLS,MDCR203708,N,Y,39.5949371,-77.007618
PAST SALE,January-10-2020,Single Family Residential,356 Rockland Rd,Westminster,MD,21158,429000,3,2.0,Westminster,1800,184825,,695,238,,Sold,,,https://www.redfin.com/MD/Westminster/356-Rockland-Rd-21158/home/105425517,BRIGHT MLS,MDCR192536,N,Y,39.570029,-77.054401
PAST SALE,February-27-2020,Single Family Residential,350 Rockland Rd,Westminster,MD,21158,392000,3,2.0,Westminster,1286,121663,2019,647,305,,Sold,,,https://www.redfin.com/MD/Westminster/350-Rockland-Rd-21158/home/105425518,BRIGHT MLS,MDCR192118,N,Y,39.571272,-77.054201
PAST SALE,,Vacant Land,MEADOW BRANCH RD,WESTMINSTER,MD,21158,125000,,,,,142267,,,,,,,,https://www.redfin.com/MD/WESTMINSTER/MEADOW-BRANCH-RD-21158/home/52913478,,,N,Y,39.598416,-77.015186
PAST SALE,June-25-2021,Single Family Residential,1040 Flo,Westminster,MD,21158,660000,4,3.5,WESTMINSTER ELECTION DIS,2824,90387,2019,163,234,,Sold,,,https://www.redfin.com/MD/Westminster/1040-Flo-Dr-21158/home/56710439,BRIGHT MLS,MDCR204540,N,Y,39.603147,-77.01494
PAST SALE,January-3-2020,Single Family Residential,878 Amherst Ln,Westminster,MD,21158,480000,6,3.5,BOLTON HILL,4064,12689,2015,702,118,17,Sold,,,https://www.redfin.com/MD/Westminster/878-Amherst-Ln-21158/home/85696430,BRIGHT MLS,MDCR190384,N,Y,39.595844,-77.010258
PAST SALE,March-20-2019,Single Family Residential,2135 Tyrone Rd,Westminster,MD,21158,565000,3,2.5,Westminster,3295,2794374,1900,991,171,,Sold,,,https://www.redfin.com/MD/Westminster/2135-Tyrone-Rd-21158/home/147963563,BRIGHT MLS,MDCR100078,N,Y,39.6332289,-77.0711615
PAST SALE,August-11-2021,Single Family Residential,140 Bachmans Valley Rd,Westminster,MD,21158,464900,4,2.5,WESTMINSTER ELECTION DIS,3199,120661,1995,116,145,,Sold,,,https://www.redfin.com/MD/Westminster/140-Bachmans-Valley-Rd-21158/home/14477773,BRIGHT MLS,MDCR2000892,N,Y,39.6310125,-76.9926349
