SALE TYPE,SOLD DATE,PROPERTY TYPE,ADDRESS,CITY,STATE OR PROVINCE,ZIP OR POSTAL CODE,PRICE,BEDS,BATHS,LOCATION,SQUARE FEET,LOT SIZE,YEAR BUILT,DAYS ON MARKET,$/SQUARE FEET,HOA/MONTH,STATUS,NEXT OPEN HOUSE START TIME,NEXT OPEN HOUSE END TIME,URL (SEE https://www.redfin.com/buy-a-home/comparative-market-analysis FOR INFO ON PRICING),SOURCE,MLS#,FAVORITE,INTERESTED,LATITUDE,LONGITUDE
MLS Listing,,Single Family Residential,4108 Vershire Ave,Greensboro,NC,27406,300000,4,3.0,Asbury,,,2018,4,,33,Active,,,https://www.redfin.com/NC/Greensboro/4108-Vershire-Ave-27406/home/145583245,Triad MLS,1050895,N,Y,36.033586,-79.704773
MLS Listing,,Single Family Residential,3926 Presbyterian Rd,Greensboro,NC,27406,189900,3,1.0,,,,1961,12,,,Active,,,https://www.redfin.com/NC/Greensboro/3926-Presbyterian-Rd-27406/home/77456416,Triad MLS,1049235,N,Y,36.0247814,-79.7109119
MLS Listing,,Single Family Residential,2003 Circleview Dr,Greensboro,NC,27406,350000,4,2.0,Arrowhead,,,2007,20,,,Active,December-5-2021 02:00 PM,December-5-2021 04:00 PM,https://www.redfin.com/NC/Greensboro/2003-Circleview-Dr-27406/home/94662274,Triad MLS,1049624,N,Y,36.044846,-79.704688
MLS Listing,,Single Family Residential,2440 Watkins Grove Pt,Greensboro,NC,27406,15000,,,Greensboro,,,,87,,,Active,,,https://www.redfin.com/NC/Greensboro/2440-Watkins-Grove-Pt-27406/home/94661959,Triad MLS,1041888,N,Y,36.036851,-79.7062289
MLS Listing,,Single Family Residential,114 Elsielee Rd,Greensboro,NC,27405,140000,3,1.0,,,,1925,136,,,Active,,,https://www.redfin.com/NC/Greensboro/114-Elsielee-Rd-27405/home/94661436,Triad MLS,1033669,N,Y,36.0890552,-79.7104736
MLS Listing,,Single Family Residential,2605 Nelson Farm Rd,Greensboro,NC,27406,495000,3,3.5,,,,2014,161,,,Active,,,https://www.redfin.com/NC/Greensboro/2605-Nelson-Farm-Rd-27406/home/94663402,Triad MLS,1028686,N,Y,36.0248674,-79.7172668
MLS Listing,,Single Family Residential,3515 Barbour Rd,Greensboro,NC,27406,130000,3,1.5,Sharpe Acres,,,1957,193,,,Active,,,https://www.redfin.com/NC/Greensboro/3515-Barbour-Rd-27406/home/94663223,Triad MLS,1026305,N,Y,36.0498499,-79.7212549
MLS Listing,,Single Family Residential,2533 Nelson Farm Rd,Greensboro,NC,27406,150150,,,Greensboro,,,,263,,,Active,,,https://www.redfin.com/NC/Greensboro/2533-Nelson-Farm-Rd-27406/home/94569275,Triad MLS,1015410,N,Y,36.032268,-79.717365
MLS Listing,,Single Family Residential,3820 Lee St,Greensboro,NC,27406,487950,,,Greensboro,,,,271,,,Active,,,https://www.redfin.com/NC/Greensboro/3820-E-Lee-St-27406/home/94663459,Triad MLS,1014803,N,Y,36.0379228,-79.7174899
