SALE TYPE,SOLD DATE,PROPERTY TYPE,ADDRESS,CITY,STATE OR PROVINCE,ZIP OR POSTAL CODE,PRICE,BEDS,BATHS,LOCATION,SQUARE FEET,LOT SIZE,YEAR BUILT,DAYS ON MARKET,$/SQUARE FEET,HOA/MONTH,STATUS,NEXT OPEN HOUSE START TIME,NEXT OPEN HOUSE END TIME,URL (SEE https://www.redfin.com/buy-a-home/comparative-market-analysis FOR INFO ON PRICING),SOURCE,MLS#,FAVORITE,INTERESTED,LATITUDE,LONGITUDE
PAST SALE,,Single Family Residential,117 Orchard Hill Ln,Elkton,MD,21921,379900,,2.0,,1973,71438,2010,,193,,,,,https://www.redfin.com/MD/Elkton/117-Orchard-Hill-Ln-21921/home/28498715,,,N,Y,39.6674445,-75.836006
PAST SALE,October-5-2021,Single Family Residential,55 Hollis Cir,Elkton,MD,21921,300000,3,2.0,Elkton,1248,27150,2007,61,240,,Sold,,,https://www.redfin.com/MD/Elkton/55-Hollis-Cir-21921/home/15146241,BRIGHT MLS,MDCC2000582,N,Y,39.603101,-75.8687999
PAST SALE,August-19-2021,Townhouse,246 Mike Dr,Elkton,MD,21921,190000,2,2.5,VILLAGE OF PHEASANT GLEN,1798,2007,2002,108,106,18,Sold,,,https://www.redfin.com/MD/Elkton/246-Mike-Dr-21921/home/15122118,BRIGHT MLS,MDCC2000370,N,Y,39.626844,-75.839307
PAST SALE,April-29-2021,Single Family Residential,17 Viburnum Ave,Elkton,MD,21921,341000,4,2.5,RIDGELY FOREST,1920,9101,2019,220,178,34,Sold,,,https://www.redfin.com/MD/Elkton/17-Viburnum-Ave-21921/home/23084913,BRIGHT MLS,MDCC173422,N,Y,39.603996,-75.924245
MLS Listing,,Single Family Residential,71 Saint Michaels Ct,Elkton,MD,21921,55000,2,2.0,FOREST VIEW VILLAGE,1050,,1999,2,52,,Active,,,https://www.redfin.com/MD/Elkton/71-Saint-Michaels-Ct-21921/home/177488687,BRIGHT MLS,MDCC2002528,N,Y,39.603215,-75.8742039
MLS Listing,,Single Family Residential,133 Providence Rd,Elkton,MD,21921,215000,3,2.0,FAIR HILL,1478,14810,1900,3,145,,Active,,,https://www.redfin.com/MD/Elkton/133-Providence-Rd-21921/home/15141580,BRIGHT MLS,MDCC2002452,N,Y,39.6916845,-75.8748684
MLS Listing,,Single Family Residential,305 Hollingsworth St,Elkton,MD,21921,225000,4,2.0,ELKTON HEIGHTS,1440,6350,1960,3,156,,Active,,,https://www.redfin.com/MD/Elkton/305-Hollingsworth-St-21921/home/15145374,BRIGHT MLS,MDCC2002504,N,Y,39.6127495,-75.8345512
MLS Listing,,Single Family Residential,45 Maple Shade Ln,Elkton,MD,21921,279000,2,1.5,FAIR HILL,1069,74488,1975,8,261,,Active,,,https://www.redfin.com/MD/Elkton/45-Maple-Shade-Ln-21921/home/15137879,BRIGHT MLS,MDCC2002424,N,Y,39.7175772,-75.919803
MLS Listing,,Single Family Residential,3165 Old Elk Neck Rd,Elkton,MD,21921,365000,5,3.0,Elkton,1556,66211,1996,12,235,,Active,,,https://www.redfin.com/MD/Elkton/3165-Old-Elk-Neck-Rd-21921/home/15146671,BRIGHT MLS,MDCC2002404,N,Y,39.5947212,-75.8645699
MLS Listing,,Vacant Land,Valley Rd,Elkton,MD,21921,450000,,,CECIL COUNTY,,581962,,17,,,Active,,,https://www.redfin.com/MD/Elkton/Valley-Rd-21921/home/146651339,BRIGHT MLS,MDCC2002330,N,Y,39.67863405,-75.7901252
MLS Listing,,Single Family Residential,612 Delaware Ave,Elkton,MD,21921,379900,5,3.0,Elkton,2888,32234,1967,17,132,,Active,,,https://www.redfin.com/MD/Elkton/612-Delaware-Ave-21921/home/15145017,BRIGHT MLS,MDCC2002326,N,Y,39.60203,-75.8082185
MLS Listing,,Single Family Residential,4 Reed Hartnett St,Elkton,MD,21921,239900,3,2.0,HOLLY HALL TERRACE,2310,10454,1954,20,104,,Active,,,https://www.redfin.com/MD/Elkton/4-Reed-Hartnett-St-21921/home/15143611,BRIGHT MLS,MDCC2002282,N,Y,39.5964703,-75.8238206
MLS Listing,,Single Family Residential,233 Locust Ln,Elkton,MD,21921,225000,3,1.0,FRIENDSHIP HEIGHTS,1080,6270,1952,20,208,,Active,,,https://www.redfin.com/MD/Elkton/233-Locust-Ln-21921/home/15143912,BRIGHT MLS,MDCC2002266,N,Y,39.614431,-75.824767
MLS Listing,,Single Family Residential,16 Farragut Cir,Elkton,MD,21921,230000,2,2.0,CECIL WOODS,1650,,2009,23,139,,Active,,,https://www.redfin.com/MD/Elkton/16-Farragut-Ct-21921/home/177173847,BRIGHT MLS,MDCC2002246,N,Y,39.6144478,-75.9246986
MLS Listing,,Vacant Land,Manor Rd,Elkton,MD,21921,50000,,,ELKWOOD ESTATES,,6534,,23,,,Active,,,https://www.redfin.com/MD/ELKTON/MANOR-RD-21921/home/109822838,BRIGHT MLS,MDCC2002254,N,Y,39.594076,-75.826883
MLS Listing,,Single Family Residential,32 Chestnut Dr,Elkton,MD,21921,189900,3,1.5,MEADOWVIIEW/WEST CREEK V,1538,7448,1962,23,123,,Active,,,https://www.redfin.com/MD/Elkton/32-Chestnut-Dr-21921/home/15137861,BRIGHT MLS,MDCC2002120,N,Y,39.6578802,-75.8003861
MLS Listing,,Single Family Residential,2429 Appleton Rd,Elkton,MD,21921,325000,3,2.0,Elkton,1904,43124,1958,24,171,,Active,,,https://www.redfin.com/MD/Elkton/2429-Appleton-Rd-21921/home/15137571,BRIGHT MLS,MDCC2002194,N,Y,39.70136,-75.815685
MLS Listing,,Single Family Residential,118 Osage St,Elkton,MD,21921,135000,3,1.0,Elkton,1268,9975,1940,25,106,,Active,,,https://www.redfin.com/MD/Elkton/118-Osage-St-21921/home/15144272,BRIGHT MLS,MDCC2002218,N,Y,39.6050093,-75.8355344
MLS Listing,,Townhouse,1 Juniper Cir,North East,MD,21901,319990,4,2.5,RIDGELY FOREST,1660,3700,2021,31,193,37,Active,,,https://www.redfin.com/MD/North-East/1-Juniper-CIR-21901/home/175370510,BRIGHT MLS,MDCC2002168,N,Y,39.60444,-75.918713
MLS Listing,,Single Family Residential,833 W W Pulaski Hwy,Elkton,MD,21921,388833,3,3.5,Elkton,2272,99317,1998,32,171,,Active,,,https://www.redfin.com/MD/Elkton/833-W-Pulaski-Hwy-21921/home/15138596,BRIGHT MLS,MDCC2000177,N,Y,39.6106901,-75.8786784
MLS Listing,,Vacant Land,Blue Ball Rd,Elkton,MD,21921,105000,,,Elkton,,47480,,34,,,Active,,,https://www.redfin.com/MD/ELKTON/BLUE-BALL-RD-21921/home/15143753,BRIGHT MLS,MDCC2002126,N,Y,39.667864,-75.90154
MLS Listing,,Single Family Residential,247 Locust Ln,Elkton,MD,21921,235000,3,2.0,FRIENDSHIP HEIGHTS,1326,6359,1990,40,177,,Active,December-5-2021 12:00 PM,December-5-2021 03:00 PM,https://www.redfin.com/MD/Elkton/247-Locust-Ln-21921/home/15142435,BRIGHT MLS,MDCC2002054,N,Y,39.6156577,-75.8236387
MLS Listing,,Vacant Land,00 Locust Ln,Elkton,MD,21921,265000,,,HERMITAGE,,42427,,48,,,Active,,,https://www.redfin.com/MD/ELKTON/LOCUST-LN-21921/home/17402759,BRIGHT MLS,MDCC2001980,N,Y,39.610564,-75.823788
MLS Listing,,Vacant Land,Lot 12 Jones Creek Ln,Elkton,MD,21921,165000,,,RACINE ESTATES,,293594,,48,,,Active,,,https://www.redfin.com/MD/Unknown/Lot-12-Jones-Creek-Ln-21921/home/175135233,BRIGHT MLS,MDCC2001972,N,Y,39.53528,-75.912746
MLS Listing,,Single Family Residential,108 Gilpin Ave,Elkton,MD,21921,269900,3,2.0,GILPIN HEIGHTS,1568,15028,1979,52,172,,Active,,,https://www.redfin.com/MD/Elkton/108-Gilpin-Ave-21921/home/15144321,BRIGHT MLS,MDCC2000121,N,Y,39.6212156,-75.8323304
MLS Listing,,Townhouse,100 Magnolia Dr,North East,MD,21901,309990,4,2.5,RIDGELY FOREST,1660,3700,2021,53,187,37,Active,,,https://www.redfin.com/MD/North-East/100-Magnolia-DR-21901/home/176718350,BRIGHT MLS,MDCC2000147,N,Y,39.60691036,-75.91810287
MLS Listing,,Single Family Residential,565 Tonys Rd,Elkton,MD,21921,299900,3,1.5,NONAVAILABLE,1281,15028,1978,57,234,,Active,,,https://www.redfin.com/MD/Elkton/565-Tonys-Rd-21921/home/176687182,BRIGHT MLS,MDCC2000079,N,Y,39.6577899,-75.9296041
MLS Listing,,Single Family Residential,100 Saint James Ct,Elkton,MD,21921,322589,3,2.0,THOMSON ESTATES,2480,10497,1989,59,130,,Active,,,https://www.redfin.com/MD/Elkton/100-St-James-Ct-21921/home/15142880,BRIGHT MLS,MDCC2001924,N,Y,39.606284,-75.806734
MLS Listing,,Single Family Residential,300 Magnolia Dr,Elkton,MD,21921,341990,3,2.0,RIDGELY FOREST,1366,9260,2021,61,250,40,Active,,,https://www.redfin.com/MD/North-East/300-Magnolia-DR-21901/home/175156604,BRIGHT MLS,MDCC2000015,N,Y,39.6049,-75.92293
MLS Listing,,Single Family Residential,101 Hermitage Dr,Elkton,MD,21921,359000,3,2.0,HERMITAGE,1954,11282,1947,74,184,,Active,,,https://www.redfin.com/MD/Elkton/101-Hermitage-Dr-21921/home/15144709,BRIGHT MLS,MDCC2001636,N,Y,39.610978,-75.821727
MLS Listing,,Single Family Residential,1969 E Old Philadelphia Rd,Elkton,MD,21921,325000,5,4.0,NONDEV,3223,66647,1974,79,101,,Active,,,https://www.redfin.com/MD/Elkton/1969-E-Old-Philadelphia-Rd-21921/home/15146269,BRIGHT MLS,MDCC2001484,N,Y,39.6057893,-75.8675005
MLS Listing,,Vacant Land,0 Leeds Rd,Elkton,MD,21921,53500,,,Elkton,,43560,,80,,,Active,,,https://www.redfin.com/MD/Elkton/1172-Leeds-Rd-21921/home/15143053,BRIGHT MLS,MDCC2001686,N,Y,39.6634308,-75.8644475
MLS Listing,,Single Family Residential,20 Chestnut Dr,Elkton,MD,21921,205900,3,1.0,MEADOWVIIEW/WEST CREEK V,1334,11456,1962,87,154,,Active,,,https://www.redfin.com/MD/Elkton/20-Chestnut-Dr-21921/home/15139190,BRIGHT MLS,MDCC2001554,N,Y,39.6565664,-75.7995739
MLS Listing,,Single Family Residential,287 Fletchwood Rd,Elkton,MD,21921,194900,3,2.0,MEADOWVIEW,1040,7274,1988,88,187,,Active,,,https://www.redfin.com/MD/Elkton/287-Fletchwood-Rd-21921/home/15142808,BRIGHT MLS,MDCC2001516,N,Y,39.654177,-75.800376
MLS Listing,,Single Family Residential,112 W Village Rd,Elkton,MD,21921,174900,3,2.0,THOMSON ESTATES,1596,10149,1975,88,110,,Active,,,https://www.redfin.com/MD/Elkton/112-W-Village-Rd-21921/home/15144024,BRIGHT MLS,MDCC2001556,N,Y,39.608014,-75.803129
MLS Listing,,Single Family Residential,95 Augustine Herman Hwy,Elkton,MD,21921,299000,4,1.0,Elkton,1212,47916,1942,93,247,,Active,,,https://www.redfin.com/MD/Elkton/95-Augustine-Herman-Hwy-21921/home/15146710,BRIGHT MLS,MDCC2001288,N,Y,39.596693,-75.827358
MLS Listing,,Vacant Land,1151 Old Elk Neck Rd,Elkton,MD,21921,700000,,,Elkton,,147668,,95,,,Active,,,https://www.redfin.com/MD/Elkton/1151-Old-Elk-Neck-Rd-21921/home/15136814,BRIGHT MLS,MDCC2001424,N,Y,39.542018,-75.9194
MLS Listing,,Single Family Residential,11 Sequoia Pl,North East,MD,21901,361990,4,2.5,RIDGELY FOREST,1903,8214,2021,97,190,40,Active,,,https://www.redfin.com/MD/North-East/11-Sequoia-PL-21901/home/176257107,BRIGHT MLS,MDCC2001436,N,Y,39.60752451,-75.92533623
MLS Listing,,Single Family Residential,510 North St,Elkton,MD,21921,489999,4,3.0,Elkton,3076,7000,1935,101,159,,Active,,,https://www.redfin.com/MD/Elkton/510-North-St-21921/home/15143908,BRIGHT MLS,MDCC2001290,N,Y,39.6168457,-75.8292684
MLS Listing,,Single Family Residential,408 Union Church Rd,Elkton,MD,21921,219000,3,2.0,ELKTON,2316,40510,1900,112,95,,Active,,,https://www.redfin.com/MD/Elkton/408-Union-Church-Rd-21921/home/15146402,BRIGHT MLS,MDCC2001182,N,Y,39.6463872,-75.9093139
MLS Listing,,Single Family Residential,93 Wood Duck Ln,Elkton,MD,21921,323900,3,2.0,BLAIR SHORE,1550,21780,1950,129,209,,Active,,,https://www.redfin.com/MD/Elkton/93-Wood-Duck-Ln-21921/home/143632411,BRIGHT MLS,MDCC2000924,N,Y,39.5505882,-75.856487
MLS Listing,,Single Family Residential,60 Tilia Dr,North East,MD,21901,376990,4,2.5,RIDGELY FOREST,2203,7020,2021,132,171,40,Active,,,https://www.redfin.com/MD/North-East/60-Tilia-DR-21901/home/175853768,BRIGHT MLS,MDCC2000882,N,Y,39.60665548,-75.92581118
MLS Listing,,Vacant Land,Kirk Rd,Elkton,MD,21921,25000,,,Elkton,,18295,,136,,,Active,,,https://www.redfin.com/MD/ELKTON/KIRK-RD-21921/home/15139432,BRIGHT MLS,MDCC2000832,N,Y,39.673482,-75.902627
MLS Listing,,Single Family Residential,1700 Singerly Rd,Elkton,MD,21921,530000,7,3.0,Elkton,3384,27878,1928,146,157,,Active,,,https://www.redfin.com/MD/Elkton/1700-Singerly-Rd-21921/home/15145859,BRIGHT MLS,MDCC2000506,N,Y,39.6492273,-75.848388
MLS Listing,,Vacant Land,Pulaski Hwy,Elkton,MD,21921,1200000,,,Elkton,,2723806,,152,,,Active,,,https://www.redfin.com/MD/ELKTON/PULASKI-HWY-21921/home/15134038,BRIGHT MLS,MDCC2000402,N,Y,39.611822,-75.918164
MLS Listing,,Single Family Residential,987 Nottingham Rd,Elkton,MD,21921,249900,1,1.0,Elkton,2519,167270,1948,165,99,,Active,,,https://www.redfin.com/MD/Elkton/987-Nottingham-Rd-21921/home/15147043,BRIGHT MLS,MDCC2000212,N,Y,39.6146699,-75.877844
MLS Listing,,Vacant Land,115 E High St,Elkton,MD,21921,59500,,,Elkton,,3571,,176,,,Active,,,https://www.redfin.com/MD/Elkton/115-E-High-St-21921/home/15143841,BRIGHT MLS,MDCC175254,N,Y,39.6098333,-75.8294954
MLS Listing,,Vacant Land,138 & 140 W High St,Elkton,MD,21921,100999,,,Elkton,,7829,,199,,,Active,,,https://www.redfin.com/MD/Elkton/138-140-W-High-St-21921/home/143493406,BRIGHT MLS,MDCC174816,N,Y,39.608398,-75.833723
MLS Listing,,Vacant Land,39 Wood Chip Rd,Elkton,MD,21921,85000,,,VILLAGES OF ELK NECK WOODHOLME,,48787,,216,,33,Active,,,https://www.redfin.com/MD/Elkton/39-Wood-Chip-Rd-21921/home/17397602,BRIGHT MLS,MDCC174534,N,Y,39.541589,-75.900546
MLS Listing,,Vacant Land,Woodholme Way,Elkton,MD,21921,90000,,,VILLAGES OF ELK NECK WOODHOLME,,88862,,216,,33,Active,,,https://www.redfin.com/MD/ELKTON/WOODHOLME-WAY-21921/home/17397601,BRIGHT MLS,MDCC174532,N,Y,39.540306,-75.906121
MLS Listing,,Vacant Land,144 W Main St,Elkton,MD,21921,74000,,,NONAVAILABLE,,17598,,223,,,Active,,,https://www.redfin.com/MD/Elkton/144-W-Main-St-21921/home/90400470,BRIGHT MLS,MDCC174390,N,Y,39.6069914,-75.8316036
MLS Listing,,Vacant Land,Old Elk Neck Rd,Elkton,MD,21921,99000,,,Elkton,,168577,,228,,,Active,,,https://www.redfin.com/MD/Elkton/Old-Elk-Neck-Rd-21921/home/147374590,BRIGHT MLS,MDCC174330,N,Y,39.53889298,-75.92194897
MLS Listing,,Vacant Land,Lance Ct,Elkton,MD,21921,132000,,,Elkton,,34848,,230,,23,Active,,,https://www.redfin.com/MD/ELKTON/LANCE-CT-21921/home/17400174,BRIGHT MLS,MDCC174278,N,Y,39.545762,-75.883262
MLS Listing,,Vacant Land,Deaver Rd,Elkton,MD,21921,130000,,,Elkton,,693475,,261,,,Active,,,https://www.redfin.com/MD/ELKTON/DEAVER-RD-21921/home/17402303,BRIGHT MLS,MDCC173796,N,Y,39.632356,-75.886268
MLS Listing,,Vacant Land,293-295 Cherry Hill Rd,Elkton,MD,21921,69900,,,Elkton,,6000,,299,,,Active,,,https://www.redfin.com/MD/Elkton/293-Cherry-Hill-Rd-21921/home/174396787,BRIGHT MLS,MDCC173294,N,Y,39.66358,-75.8531656
MLS Listing,,Single Family Residential,212 Providence Rd,Elkton,MD,21921,1650000,3,1.0,FAIR HILL,1080,3550576,1900,310,1528,,Active,,,https://www.redfin.com/MD/Elkton/212-Providence-Rd-21921/home/174323976,BRIGHT MLS,MDCC173108,N,Y,39.6894,-75.871568
MLS Listing,,Single Family Residential,909 Antego Dr,Elkton,MD,21921,541990,4,2.5,ANTEGO WOODS,2978,43560,2021,331,182,33,Active,,,https://www.redfin.com/MD/Unknown/909-Antego-Dr-21921/home/174136780,BRIGHT MLS,MDCC172868,N,Y,39.64074598,-75.88175516
MLS Listing,,Single Family Residential,908 Antego Dr,Elkton,MD,21921,529990,4,2.5,ANTEGO WOODS,2718,43560,2021,331,195,33,Active,,,https://www.redfin.com/MD/Unknown/908-Antego-Dr-21921/home/174136355,BRIGHT MLS,MDCC172864,N,Y,39.64076911,-75.88216822
MLS Listing,,Single Family Residential,907 Antego Dr,Elkton,MD,21921,522990,4,2.5,ANTEGO WOODS,2244,43560,2021,332,233,33,Active,,,https://www.redfin.com/MD/Unknown/907-Antego-Dr-21921/home/174131668,BRIGHT MLS,MDCC172860,N,Y,39.64092856,-75.88258664
MLS Listing,,Single Family Residential,906 Antego Dr,Elkton,MD,21921,506990,3,2.0,ANTEGO WOODS,1720,43560,2021,332,295,33,Active,,,https://www.redfin.com/MD/Unknown/906-Antego-Dr-21921/home/174131622,BRIGHT MLS,MDCC172858,N,Y,39.640631,-75.8827422
MLS Listing,,Single Family Residential,905 Antego Dr,Elkton,MD,21921,497990,3,2.5,ANTEGO WOODS,2500,43560,2021,332,199,33,Active,,,https://www.redfin.com/MD/Unknown/905-Antego-Dr-21921/home/174131621,BRIGHT MLS,MDCC172856,N,Y,39.64009258,-75.88282804
MLS Listing,,Single Family Residential,904 Antego Dr,Elkton,MD,21921,488990,4,2.5,ANTEGO WOODS,2143,43560,2021,332,228,33,Active,,,https://www.redfin.com/MD/Unknown/904-Antego-Dr-21921/home/174131447,BRIGHT MLS,MDCC172854,N,Y,39.64013611,-75.88294069
MLS Listing,,Single Family Residential,903 Antego Dr,Elkton,MD,21921,486990,4,2.5,ANTEGO WOODS,2242,43560,2021,332,217,33,Active,,,https://www.redfin.com/MD/Unknown/903-Antego-Dr-21921/home/174131367,BRIGHT MLS,MDCC172852,N,Y,39.64014438,-75.88319282
MLS Listing,,Single Family Residential,902 Antego Dr,Elkton,MD,21921,486990,3,2.0,ANTEGO WOODS,1795,43560,2021,332,271,33,Active,,,https://www.redfin.com/MD/Unknown/902-Antego-Dr-21921/home/174131291,BRIGHT MLS,MDCC172850,N,Y,39.64049303,-75.88343421
MLS Listing,,Single Family Residential,901 Antego Dr,Elkton,MD,21921,485990,3,2.5,ANTEGO WOODS,1979,43560,2021,332,246,33,Active,,,https://www.redfin.com/MD/Unknown/901-Antego-Dr-21921/home/174131097,BRIGHT MLS,MDCC172848,N,Y,39.64042115,-75.88356296
MLS Listing,,Single Family Residential,900 Antego Dr,Elkton,MD,21921,476990,4,2.5,ANTEGO WOODS,1947,43560,2021,332,245,33,Active,,,https://www.redfin.com/MD/Unknown/900-Antego-Dr-21921/home/174131023,BRIGHT MLS,MDCC172844,N,Y,39.64030383,-75.88367025
MLS Listing,,Vacant Land,264 Muddy Ln,Elkton,MD,21921,2500000,,,Elkton,,3656426,,348,,,Active,,,https://www.redfin.com/MD/Elkton/264-Muddy-Ln-21921/home/15146481,BRIGHT MLS,MDCC172690,N,Y,39.6272189,-75.794496
MLS Listing,,Vacant Land,Bow St,Elkton,MD,21921,50000,,,Elkton,,6229,,438,,,Active,,,https://www.redfin.com/MD/Elkton/Bow-St-21921/home/17402417,BRIGHT MLS,MDCC171172,N,Y,39.612353,-75.831984
MLS Listing,,Vacant Land,Barksdale Rd,Elkton,MD,21921,599900,,,Elkton,,882526,,499,,,Active,,,https://www.redfin.com/MD/ELKTON/BARKSDALE-RD-21921/home/17401553,BRIGHT MLS,MDCC170348,N,Y,39.676881,-75.790049
MLS Listing,,Single Family Residential,54 Blossom Ln,Elkton,MD,21921,399000,3,1.0,ELK RANCH PARK,1024,7500,1955,506,390,2,Active,,,https://www.redfin.com/MD/Elkton/54-Blossom-Ln-21921/home/15135922,BRIGHT MLS,MDCC170090,N,Y,39.536661,-75.885947
MLS Listing,,Vacant Land,465 Landing Ln,Elkton,MD,21921,49900,,,Elkton,,8668,,786,,,Active,,,https://www.redfin.com/MD/Elkton/465-Landing-Ln-21921/home/17402567,BRIGHT MLS,MDCC166524,N,Y,39.599703,-75.840595
MLS Listing,,Vacant Land,Lot 3 Belle Hill Rd>,Elkton,MD,21921,1335000,,,Elkton,,239580,,895,,,Active,,,https://www.redfin.com/MD/Elkton/3-Belle-Hill-Rd-21921/home/17402104,BRIGHT MLS,MDCC164880,N,Y,39.6335784,-75.8157977
MLS Listing,,Vacant Land,Singerly Rd,Elkton,MD,21921,299000,,,Elkton,,119354,,977,,,Active,,,https://www.redfin.com/MD/ELKTON/SINGERLY-RD-21921/home/17401652,BRIGHT MLS,MDCC163180,N,Y,39.669018,-75.854244
MLS Listing,,Vacant Land,6-48 Shade Tree Ln,Elkton,MD,21921,900000,,,Elkton,,289674,,993,,,Active,,,https://www.redfin.com/MD/Elkton/6-Shade-Tree-Ln-21921/home/15146282,BRIGHT MLS,MDCC158770,N,Y,39.61221,-75.792328
MLS Listing,,Vacant Land,916 N Bridge St,Elkton,MD,21921,299000,,,ELKTON,,119616,,1139,,,Active,,,https://www.redfin.com/MD/Elkton/916-N-Bridge-St-21921/home/23089515,BRIGHT MLS,1009981024,N,Y,39.623075,-75.838678
MLS Listing,,Vacant Land,Delaware Ave,Elkton,MD,21921,299900,,,Elkton,,21344,,1580,,,Active,,,https://www.redfin.com/MD/ELKTON/DELAWARE-AVE-21921/home/17402892,BRIGHT MLS,1000105903,N,Y,39.603779,-75.815969
MLS Listing,,Vacant Land,320 Muddy Ln,Elkton,MD,21921,470000,,,MUDDY LANE,,545807,,1685,,,Active,,,https://www.redfin.com/MD/Elkton/320-Muddy-Ln-21921/home/17354527,BRIGHT MLS,1000105249,N,Y,39.628206,-75.800149
For-Sale-by-Owner Listing,,Vacant Land,LEEDS RD,ELKTON,MD,21921,53500,0,,Elkton,43560,,,86,1,,Active,,,https://www.redfin.com/MD/ELKTON/LEEDS-RD-21921/home/17397722,FSBO.com,526994,N,Y,39.648738,-75.884092
For-Sale-by-Owner Listing,,Single Family Residential,60151 Lance Ct,Scottsbluff,NE,69361,549000,4,2.5,Scottsbluff,3001,740520,2012,246,183,,Active,,,https://www.redfin.com/NE/Scottsbluff/60151-Lance-Ct-69361/home/136583170,Fizber.com,11434659,N,Y,39.5467498,-75.8867727
New Construction Plan,,Single Family Residential,Spruce,North East,MD,21901,341990,3,2.0,Ridgely Forest Single Family Homes,1366,,,,250,,Active,,,https://www.redfin.com/MD/North-East/Ridgely-Forest-Single-Family-Homes/Spruce/home/170152844,NewHomeSource.com,Plan-181753369,N,Y,39.6036079,-75.9188261
New Construction Plan,,Single Family Residential,Elm,North East,MD,21901,376990,4,2.5,Ridgely Forest Single Family Homes,2203,,,,171,,Active,,,https://www.redfin.com/MD/North-East/Ridgely-Forest-Single-Family-Homes/Elm/home/170152845,NewHomeSource.com,Plan-181753368,N,Y,39.6036079,-75.9188261
New Construction Plan,,Single Family Residential,Cedar,North East,MD,21901,361990,4,2.5,Ridgely Forest Single Family Homes,1903,,,,190,,Active,,,https://www.redfin.com/MD/North-East/Ridgely-Forest-Single-Family-Homes/Cedar/home/170152846,NewHomeSource.com,Plan-181753367,N,Y,39.6036079,-75.9188261
New Construction Plan,,Single Family Residential,Aspen,North East,MD,21901,329990,3,2.0,Ridgely Forest Single Family Homes,1440,,,,229,,Active,,,https://www.redfin.com/MD/North-East/Ridgely-Forest-Single-Family-Homes/Aspen/home/170152848,NewHomeSource.com,Plan-181753365,N,Y,39.6036079,-75.9188261
New Construction Plan,,Single Family Residential,Ivy,North East,MD,21901,309990,4,2.5,Ridgely Forest Duplexes,1660,,,,187,,Active,,,https://www.redfin.com/MD/North-East/Ridgely-Forest-Duplexes/Ivy/home/175196204,NewHomeSource.com,Plan-171897759,N,Y,39.60444,-75.918713
PAST SALE,,Single Family Residential,308 Landing Ln,Elkton,MD,21921,450000,,1.5,,1796,12153,1935,,251,,,,,https://www.redfin.com/MD/Elkton/308-Landing-Ln-21921/home/15144333,,,N,Y,39.602569,-75.83946
PAST SALE,,Townhouse,114 Osage St,Elkton,MD,21921,132500,,1.0,,1552,11238,1935,,85,,,,,https://www.redfin.com/MD/Elkton/114-Osage-St-21921/home/15144326,,,N,Y,39.605579,-75.8355289
PAST SALE,June-26-2020,Single Family Residential,109 Church St,Elkton,MD,21921,105000,4,1.5,ELKTON,1198,2178,1890,527,88,,Sold,,,https://www.redfin.com/MD/Elkton/109-Church-St-21921/home/15145156,BRIGHT MLS,MDCC165926,N,Y,39.6094246,-75.827844
PAST SALE,September-24-2020,Single Family Residential,325 Hollingsworth St,Elkton,MD,21921,100000,3,1.0,ELKTON HEIGHTS,1199,10716,1950,437,83,,Sold,,,https://www.redfin.com/MD/Elkton/325-Hollingsworth-St-21921/home/15144350,BRIGHT MLS,MDCC170336,N,Y,39.613963,-75.835291
PAST SALE,,Townhouse,246 Hollingsworth Mnr,Elkton,MD,21921,66000,,1.0,,672,7535,1943,,98,,,,,https://www.redfin.com/MD/Elkton/246-Hollingsworth-Mnr-21921/home/15144341,,,N,Y,39.604137,-75.846355
PAST SALE,April-22-2020,Multi-Family (2-4 Unit),3 Hollingsworth Mnr,Elkton,MD,21921,51000,,,ELKTON,1344,6011,1943,592,38,,Sold,,,https://www.redfin.com/MD/Elkton/3-Hollingsworth-Mnr-21921/home/15144625,BRIGHT MLS,MDCC167460,N,Y,39.6016836,-75.8401769
PAST SALE,January-22-2021,Single Family Residential,428 Elk Mills Rd,Elkton,MD,21921,140000,3,1.0,Elkton,1848,42591,1957,317,76,,Sold,,,https://www.redfin.com/MD/Elkton/428-Elk-Mills-Rd-21921/home/15145089,BRIGHT MLS,MDCC172322,N,Y,39.6652846,-75.838824
PAST SALE,,Single Family Residential,142 E Main St,Elkton,MD,21921,104900,,1.0,,2025,2975,1830,,52,,,,,https://www.redfin.com/MD/Elkton/142-E-Main-St-21921/home/165848994,,,N,Y,39.6082403,-75.8284513
PAST SALE,December-21-2018,Single Family Residential,509 North St,Elkton,MD,21921,170000,5,2.0,ELKTON HEIGHTS,2020,10890,1920,1080,84,,Sold,,,https://www.redfin.com/MD/Elkton/509-North-St-21921/home/15143911,BRIGHT MLS,1002293092,N,Y,39.6171054,-75.8297678
PAST SALE,March-19-2021,Single Family Residential,123 Maffitt St,Elkton,MD,21921,110000,5,1.5,Elkton,3132,11250,1918,261,35,,Sold,,,https://www.redfin.com/MD/Elkton/123-Maffitt-St-21921/home/165848892,BRIGHT MLS,MDCC172358,N,Y,39.6070665,-75.8355473
PAST SALE,September-6-2019,Single Family Residential,203 Friendship Rd,Elkton,MD,21921,194490,3,1.0,HERMITAGE,1724,10918,1959,821,113,,Sold,,,https://www.redfin.com/MD/Elkton/203-Friendship-Rd-21921/home/15143904,BRIGHT MLS,MDCC165204,N,Y,39.6117254,-75.8226415
PAST SALE,March-31-2021,Single Family Residential,418 Delaware Ave,Elkton,MD,21921,319000,5,2.5,CRESWELL HILL,2140,11761,1950,249,149,,Sold,,,https://www.redfin.com/MD/Elkton/418-Delaware-Ave-21921/home/15144059,BRIGHT MLS,MDCC171566,N,Y,39.603827,-75.8152498
PAST SALE,December-27-2019,Single Family Residential,202 Blue Ball Ave,Elkton,MD,21921,77900,2,1.5,Elkton,1088,3600,1915,709,72,,Sold,,,https://www.redfin.com/MD/Elkton/202-Blue-Ball-Ave-21921/home/15145152,BRIGHT MLS,MDCC166850,N,Y,39.607305,-75.839494
PAST SALE,December-7-2020,Single Family Residential,10 Rene Carr St,Elkton,MD,21921,199900,4,1.0,HOLLY HALL TERRACE,1188,8276,1955,363,168,,Sold,,,https://www.redfin.com/MD/Elkton/10-Rene-Carr-St-21921/home/15145768,BRIGHT MLS,MDCC171520,N,Y,39.5968272,-75.8245937
PAST SALE,April-16-2021,Single Family Residential,117 Jarmon Rd,Elkton,MD,21921,205000,4,1.5,THOMSON ESTATES,1743,9453,1970,233,118,,Sold,,,https://www.redfin.com/MD/Elkton/117-Jarmon-Rd-21921/home/15145391,BRIGHT MLS,MDCC173676,N,Y,39.6063433,-75.8022436
PAST SALE,February-26-2021,Single Family Residential,325 Magnolia Dr,North East,MD,21901,319360,4,2.5,RIDGELY FOREST,2203,7020,2021,282,145,40,Sold,,,https://www.redfin.com/MD/North-East/325-Magnolia-DR-21901/home/172519072,BRIGHT MLS,MDCC172440,N,Y,39.60625111,-75.92364934
PAST SALE,June-26-2020,Townhouse,328 W Main St,Elkton,MD,21921,110000,3,1.5,NONAVAILABLE,1500,3750,1930,527,73,,Sold,,,https://www.redfin.com/MD/Elkton/328-W-Main-St-21921/home/15144091,BRIGHT MLS,MDCC168718,N,Y,39.6060823,-75.8409742
PAST SALE,December-2-2020,Townhouse,330 W Main St,Elkton,MD,21921,105900,3,1.0,ELKTON,1024,3750,1918,368,103,,Sold,,,https://www.redfin.com/MD/Elkton/330-W-Main-St-21921/home/15144667,BRIGHT MLS,MDCC170208,N,Y,39.6060967,-75.8411266
PAST SALE,February-4-2020,Townhouse,7 Leeward Ct,Elkton,MD,21921,135000,3,2.5,TURNQUIST,1616,3571,1982,670,84,,Sold,,,https://www.redfin.com/MD/Elkton/7-Leeward-Ct-21921/home/15143162,BRIGHT MLS,MDCC167178,N,Y,39.6130355,-75.7913448
PAST SALE,,Single Family Residential,625 Union Church Rd,Elkton,MD,21921,105000,,1.0,,640,25003,1875,,164,,,,,https://www.redfin.com/MD/Elkton/625-Union-Church-Rd-21921/home/15143101,,,N,Y,39.6539225,-75.9074341
PAST SALE,May-1-2020,Single Family Residential,106 Locust Ln,Elkton,MD,21921,219000,3,1.5,ELKTON,2400,8250,1927,583,91,,Sold,,,https://www.redfin.com/MD/Elkton/106-Locust-Ln-21921/home/15144363,BRIGHT MLS,MDCC166848,N,Y,39.6110449,-75.8239568
PAST SALE,August-30-2019,Single Family Residential,107 Cohee Ln,Elkton,MD,21921,190000,3,1.0,BUCKHILL FARMS,1056,9496,1982,828,180,,Sold,,,https://www.redfin.com/MD/Elkton/107-Cohee-Ln-21921/home/15143138,BRIGHT MLS,MDCC165076,N,Y,39.608767,-75.796512
PAST SALE,January-29-2021,Single Family Residential,120 Hearth Stone Dr,Elkton,MD,21921,240000,3,2.0,HERITAGE WOODS,1786,14505,1989,310,134,,Sold,,,https://www.redfin.com/MD/Elkton/120-Hearth-Stone-Dr-21921/home/15143692,BRIGHT MLS,MDCC172600,N,Y,39.59931,-75.81586
PAST SALE,April-15-2019,Townhouse,27 Thatch Ct,Elkton,MD,21921,125000,3,1.5,TURNQUIST,1701,2222,1984,965,73,,Sold,,,https://www.redfin.com/MD/Elkton/27-Thatch-Ct-21921/home/15143158,BRIGHT MLS,MDCC158342,N,Y,39.6136288,-75.7906296
PAST SALE,,Townhouse,45 Thatch Ct,Elkton,MD,21921,95000,,1.5,,1280,2221,1988,,74,,,,,https://www.redfin.com/MD/Elkton/45-Thatch-Ct-21921/home/15143528,,,N,Y,39.6136288,-75.7899938
PAST SALE,June-12-2020,Single Family Residential,129 Hearth Stone Dr,Elkton,MD,21921,207000,4,2.0,HERITAGE WOODS,1164,11194,1988,541,178,,Sold,,,https://www.redfin.com/MD/Elkton/129-Hearth-Stone-Dr-21921/home/15143688,BRIGHT MLS,MDCC168996,N,Y,39.5996548,-75.8176007
PAST SALE,June-8-2021,Single Family Residential,42 Lake Forest Dr,Elkton,MD,21921,650000,4,4.5,VILLAGES OF ELK NECK WOODHOLME,5126,63598,2004,180,127,33,Sold,,,https://www.redfin.com/MD/Elkton/42-Lake-Forest-Dr-21921/home/15122426,BRIGHT MLS,MDCC173860,N,Y,39.538865,-75.90093
PAST SALE,April-23-2019,Single Family Residential,277 Sycamore Rd,Elkton,MD,21921,165000,3,1.0,MEADOWVIEW,960,7361,1986,957,172,,Sold,,,https://www.redfin.com/MD/Elkton/277-Sycamore-Rd-21921/home/15142817,BRIGHT MLS,MDCC158574,N,Y,39.6523865,-75.8015779
PAST SALE,December-14-2018,Single Family Residential,17 Charles St,Elkton,MD,21921,244000,4,2.0,MANCHESTER PARK,2177,15507,1984,1087,112,,Sold,,,https://www.redfin.com/MD/Elkton/17-Charles-St-21921/home/15143116,BRIGHT MLS,1001927150,N,Y,39.6569338,-75.8445072
PAST SALE,February-21-2020,Single Family Residential,271 Sycamore Rd,Elkton,MD,21921,185000,3,1.0,MEADOWVIEW,1140,8450,1982,653,162,,Sold,,,https://www.redfin.com/MD/Elkton/271-Sycamore-Rd-21921/home/15142732,BRIGHT MLS,MDCC166924,N,Y,39.6524128,-75.800981
PAST SALE,,Townhouse,166 Danford Dr,Elkton,MD,21921,86000,,1.0,,1330,3659,1986,,65,,,,,https://www.redfin.com/MD/Elkton/166-Danford-Dr-21921/home/15143069,,,N,Y,39.6066209,-75.792388
PAST SALE,August-24-2020,Single Family Residential,321 E Village Rd,Elkton,MD,21921,178000,3,1.0,BUCKHILL FARMS,1100,8755,1992,468,162,,Sold,,,https://www.redfin.com/MD/Elkton/321-E-Village-Rd-21921/home/15143309,BRIGHT MLS,MDCC169644,N,Y,39.6104235,-75.794735
PAST SALE,August-14-2020,Townhouse,309 Buttonwoods Rd,Elkton,MD,21921,158000,3,1.5,THE COURTS,1594,2003,1993,478,99,,Sold,,,https://www.redfin.com/MD/Elkton/309-Buttonwoods-Rd-21921/home/15138200,BRIGHT MLS,MDCC169882,N,Y,39.588185,-75.830275
PAST SALE,April-1-2021,Single Family Residential,202 Courtney Dr,Elkton,MD,21921,237000,4,2.0,Elkton,1722,11325,1986,248,138,,Sold,,,https://www.redfin.com/MD/Elkton/202-Courtney-Dr-21921/home/15143058,BRIGHT MLS,MDCC173004,N,Y,39.6070209,-75.7968791
PAST SALE,December-30-2020,Single Family Residential,316 E Village Rd,Elkton,MD,21921,222000,4,1.5,BUCKHILL FARMS,1938,8755,1991,340,115,,Sold,,,https://www.redfin.com/MD/Elkton/316-E-Village-Rd-21921/home/15142729,BRIGHT MLS,MDCC171874,N,Y,39.6106198,-75.7956848
PAST SALE,January-8-2021,Single Family Residential,116 Mincing Ln,Elkton,MD,21921,225000,3,2.0,THOMSON ESTATES,1782,11064,1988,331,126,,Sold,,,https://www.redfin.com/MD/Elkton/116-Mincing-Ln-21921/home/15142541,BRIGHT MLS,MDCC171686,N,Y,39.608663,-75.796912
PAST SALE,May-14-2021,Single Family Residential,118 Montague Ln,Elkton,MD,21921,260000,3,3.0,THOMSON ESTATES,2044,11282,1984,205,127,,Sold,,,https://www.redfin.com/MD/Elkton/118-Montague-Ln-21921/home/15143030,BRIGHT MLS,MDCC173972,N,Y,39.608538,-75.798152
PAST SALE,July-31-2020,Single Family Residential,114 Montague Ln,Elkton,MD,21921,209900,4,2.0,Elkton,1758,13155,1987,492,119,,Sold,,,https://www.redfin.com/MD/Elkton/114-Montague-Ln-21921/home/15143290,BRIGHT MLS,MDCC168050,N,Y,39.6086225,-75.798829
PAST SALE,May-21-2019,Single Family Residential,1240 Leeds Rd,Elkton,MD,21921,410000,4,4.0,ELPACO FARMS,3072,210830,2002,929,133,,Sold,,,https://www.redfin.com/MD/Elkton/1240-Leeds-Rd-21921/home/15142538,BRIGHT MLS,MDCC158340,N,Y,39.663559,-75.862213
PAST SALE,June-26-2019,Single Family Residential,1308 Leeds Rd,Elkton,MD,21921,295000,3,2.5,Elkton,1882,46174,1985,893,157,,Sold,,,https://www.redfin.com/MD/Elkton/1308-Leeds-Rd-21921/home/15142535,BRIGHT MLS,MDCC163648,N,Y,39.663449,-75.858884
PAST SALE,February-1-2019,Single Family Residential,232 Fair Hill Dr,Elkton,MD,21921,275000,3,1.0,FAIR HILL,2240,105415,1850,1038,123,,Sold,,,https://www.redfin.com/MD/Elkton/232-Fair-Hill-Dr-21921/home/15140142,BRIGHT MLS,1003809474,N,Y,39.701308,-75.875037
PAST SALE,December-18-2020,Single Family Residential,60 Alda Dr,Elkton,MD,21921,295000,4,2.5,NORTHGATE,2700,21344,1987,352,109,,Sold,,,https://www.redfin.com/MD/Elkton/60-Alda-Dr-21921/home/15142487,BRIGHT MLS,MDCC171798,N,Y,39.599219,-75.80257
PAST SALE,,Townhouse,18 Hatteras Ct,Elkton,MD,21921,55000,,2.0,,1633,2003,1983,,34,,,,,https://www.redfin.com/MD/Elkton/18-Hatteras-Ct-21921/home/15143495,,,N,Y,39.6127672,-75.7896646
PAST SALE,June-8-2020,Single Family Residential,215 W High St,Elkton,MD,21921,244900,7,3.0,NONDEV,3280,6011,1910,545,75,,Sold,,,https://www.redfin.com/MD/Elkton/215-W-High-St-21921/home/15144481,BRIGHT MLS,MDCC168880,N,Y,39.6083211,-75.8363617
PAST SALE,June-28-2019,Single Family Residential,412 North St,Elkton,MD,21921,115000,2,1.0,Elkton,720,5475,1950,891,160,,Sold,,,https://www.redfin.com/MD/Elkton/412-North-St-21921/home/15144669,BRIGHT MLS,MDCC164304,N,Y,39.6125811,-75.8299327
PAST SALE,June-30-2020,Single Family Residential,152 W Thomson Dr,Elkton,MD,21921,210000,4,1.5,THOMSON ESTATES,1578,11499,1962,523,133,,Sold,,,https://www.redfin.com/MD/Elkton/152-W-Thomson-Dr-21921/home/15145765,BRIGHT MLS,MDCC169320,N,Y,39.6037589,-75.802297
PAST SALE,February-28-2019,Single Family Residential,129 N Tartan Dr,Elkton,MD,21921,185000,3,1.0,BUCKHILL FARMS,1000,8145,1981,1011,185,,Sold,,,https://www.redfin.com/MD/Elkton/129-N-Tartan-Dr-21921/home/15143324,BRIGHT MLS,MDCC134716,N,Y,39.610021,-75.795024
PAST SALE,December-17-2020,Townhouse,37 Transom Ct,Elkton,MD,21921,122000,2,2.0,TURNQUIST,1152,2003,1987,353,106,,Sold,,,https://www.redfin.com/MD/Elkton/37-Transom-Ct-21921/home/15143130,BRIGHT MLS,MDCC171740,N,Y,39.6111654,-75.7892672
PAST SALE,April-29-2019,Single Family Residential,209 Gilpin Ave,Elkton,MD,21921,209900,3,3.0,GILPIN HEIGHTS,1626,18992,1966,951,129,,Sold,,,https://www.redfin.com/MD/Elkton/209-Gilpin-Ave-21921/home/15144807,BRIGHT MLS,MDCC154132,N,Y,39.620871,-75.835417
PAST SALE,April-10-2020,Single Family Residential,107 Castlestone Dr,Elkton,MD,21921,196000,3,1.0,HERITAGE WOODS,1340,10890,1988,604,146,,Sold,,,https://www.redfin.com/MD/Elkton/107-Castlestone-Dr-21921/home/15143355,BRIGHT MLS,MDCC168044,N,Y,39.601127,-75.8184929
PAST SALE,April-29-2021,Townhouse,27 Transom Ct,Elkton,MD,21921,150000,3,1.5,TURNQUIST,1152,2003,1987,220,130,,Sold,,,https://www.redfin.com/MD/Elkton/27-Transom-Ct-21921/home/15143488,BRIGHT MLS,MDCC173556,N,Y,39.6114818,-75.7892672
PAST SALE,,Single Family Residential,606 Elkton Blvd,Elkton,MD,21921,130000,,1.0,,1392,7492,1950,,93,,,,,https://www.redfin.com/MD/Elkton/606-Elkton-Blvd-21921/home/15144413,,,N,Y,39.6142201,-75.8356534
PAST SALE,April-30-2021,Single Family Residential,253 E Main St,Elkton,MD,21921,350000,4,3.0,ELKTON,3412,29185,1950,219,103,,Sold,,,https://www.redfin.com/MD/Elkton/253-E-Main-St-21921/home/15145693,BRIGHT MLS,MDCC173252,N,Y,39.6110914,-75.8208688
PAST SALE,,Townhouse,23 Transom Ct,Elkton,MD,21921,137500,,1.5,,1152,2003,1987,,119,,,,,https://www.redfin.com/MD/Elkton/23-Transom-Ct-21921/home/15143514,,,N,Y,39.6115892,-75.7892559
PAST SALE,September-26-2019,Single Family Residential,102 Chalice Dr,Elkton,MD,21921,182000,3,1.0,HERITAGE WOODS,1484,11587,1987,801,123,,Sold,,,https://www.redfin.com/MD/Elkton/102-Chalice-Dr-21921/home/15143329,BRIGHT MLS,MDCC165816,N,Y,39.599916,-75.818989
PAST SALE,,Vacant Land,FRIENDSHIP RD,ELKTON,MD,21921,20000,,,,,44431,,,,,,,,https://www.redfin.com/MD/ELKTON/FRIENDSHIP-RD-21921/home/17402826,,,N,Y,39.616937,-75.821853
PAST SALE,November-4-2019,Single Family Residential,105 Chalice Dr,Elkton,MD,21921,194000,3,2.0,HERITAGE WOODS,1588,17337,1989,762,122,,Sold,,,https://www.redfin.com/MD/Elkton/105-Chalice-Dr-21921/home/15143341,BRIGHT MLS,MDCC164372,N,Y,39.5995675,-75.8196256
PAST SALE,March-6-2019,Single Family Residential,117 Hearth Stone Dr,Elkton,MD,21921,199900,3,2.0,HERITAGE WOODS,872,11151,1988,1005,229,,Sold,,,https://www.redfin.com/MD/Elkton/117-Hearth-Stone-Dr-21921/home/15143346,BRIGHT MLS,MDCC158550,N,Y,39.599926,-75.8158289
PAST SALE,September-25-2020,Single Family Residential,309 Curtis Ave,Elkton,MD,21921,180000,3,2.0,Elkton,1232,9016,1992,436,146,,Sold,,,https://www.redfin.com/MD/Elkton/309-Curtis-Ave-21921/home/15145104,BRIGHT MLS,MDCC167160,N,Y,39.6053265,-75.8407877
PAST SALE,,Single Family Residential,457 Bow St,Elkton,MD,21921,185000,,1.0,,1034,7500,1928,,179,,,,,https://www.redfin.com/MD/Elkton/457-Bow-St-21921/home/15144695,,,N,Y,39.615257,-75.8314475
PAST SALE,October-8-2019,Single Family Residential,102 Courtney Dr,Elkton,MD,21921,178000,4,2.0,THOMSON ESTATES,1680,15028,1967,789,106,,Sold,,,https://www.redfin.com/MD/Elkton/102-Courtney-Dr-21921/home/15145389,BRIGHT MLS,MDCC163418,N,Y,39.606393,-75.798923
PAST SALE,September-18-2019,Single Family Residential,644 Appleton Rd,Elkton,MD,21921,145000,3,1.0,Elkton,1136,32234,1930,809,128,,Sold,,,https://www.redfin.com/MD/Elkton/644-Appleton-Rd-21921/home/15145392,BRIGHT MLS,MDCC164404,N,Y,39.6401548,-75.8124941
PAST SALE,September-17-2019,Single Family Residential,2240 Blue Ball Rd,Elkton,MD,21921,90000,4,1.0,Elkton,2222,65340,1935,810,41,,Sold,,,https://www.redfin.com/MD/Elkton/2240-Blue-Ball-Rd-21921/home/17403125,BRIGHT MLS,MDCC129524,N,Y,39.668168,-75.896342
PAST SALE,February-26-2021,Single Family Residential,115 Whitehall Rd,Elkton,MD,21921,243000,3,1.0,HERITAGE WOODS,1004,8319,1983,282,242,,Sold,,,https://www.redfin.com/MD/Elkton/115-White-Hall-Rd-21921/home/15143751,BRIGHT MLS,MDCC172644,N,Y,39.601138,-75.816878
PAST SALE,November-25-2020,Single Family Residential,119 N Tartan Dr,Elkton,MD,21921,185000,3,1.0,BUCKHILL FARMS,1000,8755,1982,375,185,,Sold,,,https://www.redfin.com/MD/Elkton/119-N-Tartan-Dr-21921/home/15143392,BRIGHT MLS,MDCC171696,N,Y,39.6103141,-75.7938528
PAST SALE,,Townhouse,38 Azalea Cir,Elkton,MD,21921,202000,,2.5,,1200,6548,2018,,168,,,,,https://www.redfin.com/MD/Elkton/38-Azalea-Cir-21921/home/109822732,,,N,Y,39.6542884,-75.7928152
PAST SALE,July-10-2020,Single Family Residential,155 Appleton Rd,Elkton,MD,21921,240000,3,2.0,GREEN GABLES FARM,2460,18905,1964,513,98,,Sold,,,https://www.redfin.com/MD/Elkton/155-Appleton-Rd-21921/home/15145183,BRIGHT MLS,MDCC169562,N,Y,39.626584,-75.824003
PAST SALE,September-17-2019,Single Family Residential,104 Coventry Ct,Elkton,MD,21921,199000,3,2.0,HERITAGE WOODS,1611,24829,1978,810,124,,Sold,,,https://www.redfin.com/MD/Elkton/104-Coventry-Ct-21921/home/15143415,BRIGHT MLS,MDCC164992,N,Y,39.602319,-75.814306
PAST SALE,April-20-2020,Multi-Family (2-4 Unit),232 E High St,Elkton,MD,21921,250000,,,Elkton,2546,4922,1900,594,98,,Sold,,,https://www.redfin.com/MD/Elkton/232-E-High-St-21921/home/15145118,BRIGHT MLS,MDCC169096,N,Y,39.61068,-75.825701
PAST SALE,,Single Family Residential,119 Stockton St,Elkton,MD,21921,155000,,3.0,,2487,9025,1930,,62,,,,,https://www.redfin.com/MD/Elkton/119-Stockton-St-21921/home/15144058,,,N,Y,39.6118678,-75.8289961
PAST SALE,November-20-2020,Single Family Residential,151 S Tartan Dr,Elkton,MD,21921,221500,3,2.0,BUCKHILL FARMS,1527,11238,1978,380,145,,Sold,,,https://www.redfin.com/MD/Elkton/151-S-Tartan-Dr-21921/home/15144211,BRIGHT MLS,MDCC170936,N,Y,39.6053094,-75.7965917
PAST SALE,,Townhouse,310 Buttonwoods Rd,Elkton,MD,21921,164000,,1.5,,1614,2003,1992,,102,,,,,https://www.redfin.com/MD/Elkton/310-Buttonwoods-Rd-21921/home/15138201,,,N,Y,39.588333,-75.830115
PAST SALE,April-30-2021,Single Family Residential,702 Elkton Blvd,Elkton,MD,21921,169333,2,1.0,Elkton,870,8232,1951,219,195,,Sold,,,https://www.redfin.com/MD/Elkton/702-Elkton-Blvd-21921/home/15145140,BRIGHT MLS,MDCC173406,N,Y,39.6136761,-75.8361598
PAST SALE,,Single Family Residential,26 Elk Mills Rd,Elkton,MD,21921,169000,,1.0,,1938,28444,1978,,87,,,,,https://www.redfin.com/MD/Elkton/26-Elk-Mills-Rd-21921/home/15143950,,,N,Y,39.6630519,-75.8518831
PAST SALE,June-4-2020,Townhouse,125 Gooseneck Ct,Elkton,MD,21921,69500,3,1.0,ELKTON TOWNHOUSES,1040,2221,1976,549,67,,Sold,,,https://www.redfin.com/MD/Elkton/125-Gooseneck-Ct-21921/home/15144241,BRIGHT MLS,MDCC168794,N,Y,39.599464,-75.8421989
PAST SALE,,Single Family Residential,304 Park Cir,Elkton,MD,21921,193000,,2.0,,1404,7492,1950,,137,,,,,https://www.redfin.com/MD/Elkton/304-Park-Cir-21921/home/15144819,,,N,Y,39.614226,-75.833689
PAST SALE,November-2-2020,Single Family Residential,3104 Telegraph Rd,Elkton,MD,21921,278900,3,2.5,NONDEV,1814,14580,1950,398,154,,Sold,,,https://www.redfin.com/MD/Elkton/3104-Telegraph-Rd-21921/home/15137511,BRIGHT MLS,MDCC171192,N,Y,39.6990146,-75.9248786
PAST SALE,,Single Family Residential,40 Mary Jane Ln,Elkton,MD,21921,255000,,2.0,,2002,25003,1987,,127,,,,,https://www.redfin.com/MD/Elkton/40-Mary-Jane-Ln-21921/home/15143008,,,N,Y,39.6604544,-75.865722
PAST SALE,April-20-2020,Single Family Residential,2 Southland Ct,Elkton,MD,21921,190000,3,1.0,BUCKHILL FARMS,1611,13329,1977,594,118,,Sold,,,https://www.redfin.com/MD/Elkton/2-Southland-Ct-21921/home/15143968,BRIGHT MLS,MDCC168558,N,Y,39.6063162,-75.7940496
PAST SALE,November-17-2020,Single Family Residential,119 S Tartan Dr,Elkton,MD,21921,246900,4,2.0,BUCKHILL FARMS,1677,9321,1977,383,147,,Sold,,,https://www.redfin.com/MD/Elkton/119-S-Tartan-Dr-21921/home/15144252,BRIGHT MLS,MDCC171238,N,Y,39.6078819,-75.792205
PAST SALE,December-30-2019,Single Family Residential,257 E Main St,Elkton,MD,21921,303250,6,2.5,ELKTON,3100,19602,1883,706,98,,Sold,,,https://www.redfin.com/MD/Elkton/257-E-Main-St-21921/home/15144805,BRIGHT MLS,MDCC164544,N,Y,39.6113344,-75.8205518
PAST SALE,June-7-2021,Townhouse,13 Thyme St,Elkton,MD,21921,165000,3,1.5,WHITEHALL WEST,1152,3615,1991,181,143,,Sold,,,https://www.redfin.com/MD/Elkton/13-Thyme-St-21921/home/15141373,BRIGHT MLS,MDCC174566,N,Y,39.590958,-75.827667
PAST SALE,February-27-2019,Single Family Residential,110 Continental Dr,Elkton,MD,21921,224900,3,3.0,COLONIAL RIDGE,1936,24785,1998,1012,116,,Sold,,,https://www.redfin.com/MD/Elkton/110-Continental-Dr-21921/home/15142085,BRIGHT MLS,MDCC149326,N,Y,39.6106661,-75.8062498
PAST SALE,,Single Family Residential,375 Maloney Rd,Elkton,MD,21921,142450,,2.0,,1620,21344,2004,,88,,,,,https://www.redfin.com/MD/Elkton/375-Maloney-Rd-21921/home/15144247,,,N,Y,39.5995915,-75.8008465
PAST SALE,January-28-2019,Single Family Residential,128 Continental Dr,Elkton,MD,21921,225000,3,2.0,COLONIAL RIDGE,1361,19122,2002,1042,165,,Sold,,,https://www.redfin.com/MD/Elkton/128-Continental-Dr-21921/home/15142087,BRIGHT MLS,MDCC100498,N,Y,39.61115,-75.803855
PAST SALE,July-15-2020,Townhouse,104 Buttonwoods Rd,Elkton,MD,21921,163000,3,3.5,THE COURTS,1594,2178,1992,508,102,,Sold,,,https://www.redfin.com/MD/Elkton/104-Buttonwoods-Rd-21921/home/15141673,BRIGHT MLS,MDCC169318,N,Y,39.5893825,-75.831082
PAST SALE,September-30-2020,Townhouse,15 Thyme St,Elkton,MD,21921,93000,2,1.5,WHITEHALL WEST,1152,5227,1991,431,81,,Sold,,,https://www.redfin.com/MD/Elkton/15-Thyme-St-21921/home/15140536,BRIGHT MLS,MDCC168130,N,Y,39.5910313,-75.8276069
PAST SALE,August-27-2020,Townhouse,407 Buttonwoods Rd,Elkton,MD,21921,169900,3,2.0,THE COURTS,2242,2962,2000,465,76,,Sold,,,https://www.redfin.com/MD/Elkton/407-Buttonwoods-Rd-21921/home/15141906,BRIGHT MLS,MDCC169878,N,Y,39.5878931,-75.8327083
PAST SALE,,Townhouse,321 Buttonwoods Rd,Elkton,MD,21921,107000,,2.5,,1614,1960,1994,,66,,,,,https://www.redfin.com/MD/Elkton/321-Buttonwoods-Rd-21921/home/15140607,,,N,Y,39.587987,-75.830451
PAST SALE,November-22-2019,Townhouse,510 Buttonwoods Rd,Elkton,MD,21921,160000,3,3.5,THE COURTS,1360,2152,1998,744,118,,Sold,,,https://www.redfin.com/MD/Elkton/510-Buttonwoods-Rd-21921/home/15140501,BRIGHT MLS,MDCC166156,N,Y,39.5883899,-75.83373
PAST SALE,January-3-2020,Townhouse,324 Buttonwoods Rd,Elkton,MD,21921,154000,4,3.5,BUTTONWOODS,2138,2962,1999,702,72,,Sold,,,https://www.redfin.com/MD/Elkton/324-Buttonwoods-Rd-21921/home/15140608,BRIGHT MLS,MDCC166954,N,Y,39.587758,-75.830682
PAST SALE,September-18-2020,Townhouse,509 Buttonwoods Rd,Elkton,MD,21921,162500,3,2.5,THE COURTS,1650,2178,1998,443,98,,Sold,,,https://www.redfin.com/MD/Elkton/509-Buttonwoods-Rd-21921/home/15140613,BRIGHT MLS,MDCC169742,N,Y,39.588555,-75.833597
PAST SALE,June-21-2019,Single Family Residential,60 Mary Anita Ct,Elkton,MD,21921,259900,3,2.5,CHIPPENDALE,1856,48874,1991,898,140,,Sold,,,https://www.redfin.com/MD/Elkton/60-Mary-Anita-Ct-21921/home/15140444,BRIGHT MLS,MDCC164296,N,Y,39.6573468,-75.8689335
PAST SALE,March-5-2021,Single Family Residential,424 Tonys Rd,Elkton,MD,21921,304900,3,2.0,Elkton,1904,43560,1978,275,160,,Sold,,,https://www.redfin.com/MD/Elkton/424-Tonys-Rd-21921/home/15141114,BRIGHT MLS,MDCC172810,N,Y,39.6554256,-75.9244256
PAST SALE,November-16-2020,Single Family Residential,7 Saint Ann Cir,Elkton,MD,21921,196000,3,1.0,THOMSON ESTATES,1523,10802,1977,384,129,,Sold,,,https://www.redfin.com/MD/Elkton/7-St-Ann-Cir-21921/home/15143990,BRIGHT MLS,MDCC171288,N,Y,39.6059512,-75.8085014
PAST SALE,,Townhouse,101 Buttonwoods Rd,Elkton,MD,21921,145000,,1.5,,1294,2178,1992,,112,,,,,https://www.redfin.com/MD/Elkton/101-Buttonwoods-Rd-21921/home/15140600,,,N,Y,39.589602,-75.830896
PAST SALE,,Townhouse,210 Buttonwoods Rd,Elkton,MD,21921,114900,,1.5,,1614,1960,1992,,71,,,,,https://www.redfin.com/MD/Elkton/210-Buttonwoods-Rd-21921/home/15138193,,,N,Y,39.588845,-75.831953
PAST SALE,February-14-2020,Single Family Residential,129 Cherry Tree Ln,Elkton,MD,21921,262000,4,2.5,WASHINGTON WOODS,1989,17860,1994,660,132,10,Sold,,,https://www.redfin.com/MD/Elkton/129-Cherry-Tree-Ln-21921/home/15141047,BRIGHT MLS,MDCC165292,N,Y,39.613558,-75.798552
PAST SALE,September-17-2020,Single Family Residential,413 Gray Mount Cir,Elkton,MD,21921,230000,3,1.5,GRAYS HILL,948,6708,1998,444,243,,Sold,,,https://www.redfin.com/MD/Elkton/413-Gray-Mt-Cir-21921/home/15141057,BRIGHT MLS,MDCC170564,N,Y,39.612702,-75.800527
PAST SALE,April-10-2020,Single Family Residential,143 Long Dr,Elkton,MD,21921,335000,4,3.0,WEDGEWOOD HILLS,2340,37070,1994,604,143,,Sold,,,https://www.redfin.com/MD/Elkton/143-Long-Dr-21921/home/15138180,BRIGHT MLS,MDCC167116,N,Y,39.6623228,-75.8731239
PAST SALE,September-13-2019,Single Family Residential,204 Long Dr,Elkton,MD,21921,400000,4,3.5,WEDGEWOOD HILLS,3175,69914,1993,814,126,,Sold,,,https://www.redfin.com/MD/Elkton/204-Long-Dr-21921/home/15141105,BRIGHT MLS,MDCC164528,N,Y,39.664097,-75.874533
PAST SALE,September-30-2019,Single Family Residential,156 Long Dr,Elkton,MD,21921,352500,4,2.5,WEDGEWOOD HILLS,2352,52272,1996,797,150,,Sold,,,https://www.redfin.com/MD/Elkton/156-Long-Dr-21921/home/15141865,BRIGHT MLS,MDCC100039,N,Y,39.6628618,-75.8731772
PAST SALE,August-24-2020,Single Family Residential,138 Long Dr,Elkton,MD,21921,414000,5,3.5,WEDGEWOOD HILLS,3646,55757,1997,468,114,,Sold,,,https://www.redfin.com/MD/Elkton/138-Long-Dr-21921/home/15141863,BRIGHT MLS,MDCC169400,N,Y,39.6628814,-75.872428
PAST SALE,June-4-2021,Single Family Residential,503 Saint Charles St,Elkton,MD,21921,202000,2,1.0,GRAY MOUNT,912,6577,1994,184,221,,Sold,,,https://www.redfin.com/MD/Elkton/503-St-Charles-St-21921/home/15138158,BRIGHT MLS,MDCC174706,N,Y,39.6124133,-75.8009624
PAST SALE,May-29-2020,Single Family Residential,600 Gray Mount Cir,Elkton,MD,21921,209900,4,2.0,GRAY MOUNT,1200,7840,1993,555,175,,Sold,,,https://www.redfin.com/MD/Elkton/600-Gray-Mt-Cir-21921/home/15141097,BRIGHT MLS,MDCC168988,N,Y,39.6125301,-75.8016815
PAST SALE,,Vacant Land,17 Borens Shore Rd,Elkton,MD,21921,390000,,,,,4740156,,,,,,,,https://www.redfin.com/MD/Elkton/17-Borens-Shore-Rd-21921/home/145644485,,,N,Y,39.5559552,-75.8471962
PAST SALE,December-18-2020,Single Family Residential,104 Cherry Tree Ln,Elkton,MD,21921,247500,4,2.5,WASHINGTON WOODS,2270,14069,1994,352,109,,Sold,,,https://www.redfin.com/MD/Elkton/104-Cherry-Tree-Ln-21921/home/15141842,BRIGHT MLS,MDCC171796,N,Y,39.616175,-75.79892
PAST SALE,January-19-2021,Townhouse,190 Independence Dr,Elkton,MD,21921,187500,2,1.5,WASHINGTON WOODS,1930,3092,1995,320,97,11,Sold,,,https://www.redfin.com/MD/Elkton/190-Independence-Dr-21921/home/15141040,BRIGHT MLS,MDCC172544,N,Y,39.614257,-75.798993
PAST SALE,September-27-2019,Single Family Residential,113 Liberty Ln,Elkton,MD,21921,259900,4,2.5,WASHINGTON WOODS,2974,10500,1995,800,87,11,Sold,,,https://www.redfin.com/MD/Elkton/113-Liberty-Ln-21921/home/15138119,BRIGHT MLS,MDCC158760,N,Y,39.6159484,-75.7993927
PAST SALE,April-13-2021,Single Family Residential,58 River Mist Dr,Elkton,MD,21921,348000,3,2.0,RIVER POINT LANDING,1239,51836,1996,236,281,1,Sold,,,https://www.redfin.com/MD/Elkton/58-River-Mist-Dr-21921/home/15140772,BRIGHT MLS,MDCC173500,N,Y,39.5795313,-75.8639473
PAST SALE,November-22-2019,Single Family Residential,153 Nicholas Dr,Elkton,MD,21921,279900,3,2.5,PARADISE PINES,1455,33106,1995,744,192,,Sold,,,https://www.redfin.com/MD/Elkton/153-Nicholas-Dr-21921/home/15141831,BRIGHT MLS,MDCC166266,N,Y,39.6132381,-75.8834256
PAST SALE,July-8-2019,Single Family Residential,75 Wedgemont Dr,Elkton,MD,21921,350200,4,2.5,RICKETTS MILL,1728,44867,1997,881,203,,Sold,,,https://www.redfin.com/MD/Elkton/75-Wedgemont-Dr-21921/home/15141308,BRIGHT MLS,MDCC164382,N,Y,39.642027,-75.840945
PAST SALE,October-30-2020,Single Family Residential,239 Wedgemont Dr,Elkton,MD,21921,395000,4,2.5,RICKETTS MILL,2746,62291,1995,401,144,,Sold,,,https://www.redfin.com/MD/Elkton/239-Wedgemont-Dr-21921/home/15141306,BRIGHT MLS,MDCC171044,N,Y,39.639443,-75.839242
PAST SALE,September-30-2020,Single Family Residential,369 Hutton Rd,Elkton,MD,21921,362000,3,2.5,NONDEVELOPE,2004,201683,1995,431,181,,Sold,,,https://www.redfin.com/MD/Elkton/369-Hutton-Rd-21921/home/15142109,BRIGHT MLS,MDCC170484,N,Y,39.5823512,-75.7899527
PAST SALE,,Single Family Residential,16 Clear Creek Gln,Elkton,MD,21921,320000,,2.0,,1298,57499,1996,,247,,,,,https://www.redfin.com/MD/Elkton/16-Clear-Creek-Gln-21921/home/15140568,,,N,Y,39.581232,-75.865244
PAST SALE,April-26-2021,Single Family Residential,25 Clear Creek Gln,Elkton,MD,21921,295000,3,2.0,RIVERMIST,1612,35980,1998,223,183,,Sold,,,https://www.redfin.com/MD/Elkton/25-Clear-Creek-Gln-21921/home/15140918,BRIGHT MLS,MDCC173376,N,Y,39.5815844,-75.8661047
PAST SALE,,Single Family Residential,52 Blue Jay St,Elkton,MD,21921,325000,,2.0,,1846,93218,2001,,176,,,,,https://www.redfin.com/MD/Elkton/52-Blue-Jay-St-21921/home/15140307,,,N,Y,39.6722,-75.897334
PAST SALE,March-29-2019,Single Family Residential,946 Leeds Rd,Elkton,MD,21921,257350,3,2.0,Elkton,1344,53579,2001,982,191,,Sold,,,https://www.redfin.com/MD/Elkton/946-Leeds-Rd-21921/home/15138071,BRIGHT MLS,MDCC135096,N,Y,39.658265,-75.8717658
PAST SALE,December-15-2020,Townhouse,114 Mike Ct,Elkton,MD,21921,163000,2,1.5,WALNUT HILL,1296,2007,1998,355,126,1,Sold,,,https://www.redfin.com/MD/Elkton/114-Mike-Ct-21921/home/15141798,BRIGHT MLS,MDCC171630,N,Y,39.6248859,-75.838799
PAST SALE,,Single Family Residential,211 Independence Dr,Elkton,MD,21921,292000,,2.0,,1777,10152,2000,,164,,,,,https://www.redfin.com/MD/Elkton/211-Independence-Dr-21921/home/15140863,,,N,Y,39.615541,-75.797351
PAST SALE,January-15-2021,Single Family Residential,51 Clear Creek Gln,Elkton,MD,21921,410000,5,3.5,RIVER POINT LANDING,3281,32191,1998,324,125,1,Sold,,,https://www.redfin.com/MD/Elkton/51-Clear-Creek-Gln-21921/home/15140190,BRIGHT MLS,MDCC172324,N,Y,39.581872,-75.866745
PAST SALE,May-24-2019,Townhouse,43 Hickory Ln,Elkton,MD,21921,169900,3,1.5,MEADOWS AT ELK CREEK,1320,2178,1999,926,129,,Sold,,,https://www.redfin.com/MD/Elkton/43-Hickory-Ln-21921/home/15141638,BRIGHT MLS,MDCC163260,N,Y,39.632843,-75.803771
PAST SALE,September-15-2020,Single Family Residential,198 Thomas Jefferson Ter,Elkton,MD,21921,365000,5,3.5,PATRIOTS GLEN,4330,12344,2001,446,84,43,Sold,,,https://www.redfin.com/MD/Elkton/198-Thomas-Jefferson-Ter-21921/home/15123643,BRIGHT MLS,MDCC170534,N,Y,39.618424,-75.8037525
PAST SALE,November-25-2020,Townhouse,28 Blackgum Rd,Elkton,MD,21921,215500,3,2.5,RIDGELY FOREST,1200,2185,2019,375,180,35,Sold,,,https://www.redfin.com/MD/Elkton/28-Blackgum-Rd-21921/home/23086163,BRIGHT MLS,MDCC171382,N,Y,39.6074958,-75.9183689
PAST SALE,October-23-2020,Single Family Residential,28 Mcarthur Ln,Elkton,MD,21921,355000,4,2.5,PATRIOTS GLEN,3210,12324,2003,408,111,43,Sold,,,https://www.redfin.com/MD/Elkton/28-McArthur-Ln-21921/home/15123096,BRIGHT MLS,MDCC170676,N,Y,39.6196638,-75.8071507
PAST SALE,May-31-2019,Single Family Residential,123 Midland Dr,Elkton,MD,21921,185000,3,1.0,BUCKHILL FARMS,,9017,1978,919,,,Sold,,,https://www.redfin.com/MD/Elkton/123-Midland-Dr-21921/home/15143458,BRIGHT MLS,1003278064,N,Y,39.6074867,-75.7953187
PAST SALE,June-3-2021,Single Family Residential,217 Patriots Way,Elkton,MD,21921,356000,4,2.5,PATRIOTS GLEN,2969,8313,2002,185,120,43,Sold,,,https://www.redfin.com/MD/Elkton/217-Patriots-Way-21921/home/15123141,BRIGHT MLS,MDCC174492,N,Y,39.619921,-75.8046606
PAST SALE,March-15-2021,Single Family Residential,8 John Adams Ln,Elkton,MD,21921,339000,4,2.5,PATRIOTS GLEN,2360,8593,2001,265,144,43,Sold,,,https://www.redfin.com/MD/Elkton/8-John-Adams-Ln-21921/home/15122777,BRIGHT MLS,MDCC172700,N,Y,39.619103,-75.804489
PAST SALE,April-9-2021,Single Family Residential,10 John Adams Ln,Elkton,MD,21921,345000,3,3.0,PATRIOTS GLEN,2680,8593,2002,240,129,43,Sold,,,https://www.redfin.com/MD/Elkton/10-John-Adams-Ln-21921/home/15123087,BRIGHT MLS,MDCC173670,N,Y,39.619262,-75.804654
PAST SALE,June-30-2020,Single Family Residential,109 Patriots Way,Elkton,MD,21921,354900,4,3.5,CLUB AT PATIOTS GLEN,4215,13934,2001,523,84,43,Sold,,,https://www.redfin.com/MD/Elkton/109-Patriots-Way-21921/home/15122763,BRIGHT MLS,MDCC169354,N,Y,39.617025,-75.80389
PAST SALE,April-3-2020,Single Family Residential,201 Thomas Jefferson Ter,Elkton,MD,21921,310000,4,3.5,PATRIOTS GLEN,2808,8106,2003,611,110,43,Sold,,,https://www.redfin.com/MD/Elkton/201-Thomas-Jefferson-Ter-21921/home/15122749,BRIGHT MLS,MDCC168066,N,Y,39.6179268,-75.8038887
PAST SALE,July-28-2021,Single Family Residential,35 Jesse Boyd Cir,Elkton,MD,21921,317000,3,2.5,Elkton,2135,7461,2003,130,148,18,Sold,,,https://www.redfin.com/MD/Elkton/35-Jesse-Boyd-Cir-21921/home/15123070,BRIGHT MLS,MDCC175176,N,Y,39.6256983,-75.837131
PAST SALE,March-1-2019,Townhouse,94 Hickory Ln,Elkton,MD,21921,169900,3,1.5,MEADOWS AT ELK CREEK,1942,2200,2001,1010,87,22,Sold,,,https://www.redfin.com/MD/Elkton/94-Hickory-Ln-21921/home/15122123,BRIGHT MLS,MDCC141556,N,Y,39.62994,-75.805808
PAST SALE,September-6-2019,Vacant Land,Lot 5 Squirrel Ct,Elkton,MD,21921,42500,,,QUAILS NEST,,93654,,821,,,Sold,,,https://www.redfin.com/MD/Elkton/5-Squirrel-Ct-21921/home/17400253,BRIGHT MLS,1003974389,N,Y,39.552316,-75.906544
PAST SALE,November-30-2020,Townhouse,250 Mike Dr,Elkton,MD,21921,166000,3,2.5,WALNUT HILL,2012,2007,2002,370,83,13,Sold,,,https://www.redfin.com/MD/Elkton/250-Mike-Dr-21921/home/15122270,BRIGHT MLS,MDCC171286,N,Y,39.626938,-75.83939
PAST SALE,March-17-2020,Townhouse,277 Mike Dr,Elkton,MD,21921,166000,2,1.5,VILLAGE OF DEER KNOLL,1188,5753,2005,628,140,18,Sold,,,https://www.redfin.com/MD/Elkton/277-Mike-Dr-21921/home/15122223,BRIGHT MLS,MDCC167576,N,Y,39.628195,-75.839155
PAST SALE,May-28-2021,Townhouse,63 Mule Deer Ct,Elkton,MD,21921,220000,3,2.5,PERSIMMON CREEK,1756,2900,2001,191,125,25,Sold,,,https://www.redfin.com/MD/Elkton/63-Mule-Deer-Ct-21921/home/15138577,BRIGHT MLS,MDCC173906,N,Y,39.657316,-75.791182
PAST SALE,April-29-2019,Single Family Residential,331 Suburban Dr,Elkton,MD,21921,228500,4,3.5,ELKTON,2969,8302,2002,951,77,,Sold,,,https://www.redfin.com/MD/Elkton/331-Suburban-Dr-21921/home/15122711,BRIGHT MLS,MDCC149322,N,Y,39.6086469,-75.7890356
PAST SALE,December-26-2019,Townhouse,131 Maffitt St,Elkton,MD,21921,37000,2,1.0,ELKTON,1240,3049,1918,710,30,,Sold,,,https://www.redfin.com/MD/Elkton/131-Maffitt-St-21921/home/15144880,BRIGHT MLS,1000414150,N,Y,39.6074624,-75.8358964
PAST SALE,June-27-2019,Single Family Residential,110 Automotive Blvd,Elkton,MD,21921,300000,4,3.5,CHAPEL RUN,2720,7501,2003,892,110,22,Sold,,,https://www.redfin.com/MD/Elkton/110-Automotive-Blvd-21921/home/15122695,BRIGHT MLS,MDCC163920,N,Y,39.6097793,-75.787728
PAST SALE,March-10-2021,Single Family Residential,119 Automotive Blvd,Elkton,MD,21921,352000,4,3.0,CHAPEL RUN,3329,9066,2003,270,106,22,Sold,,,https://www.redfin.com/MD/Elkton/119-Automotive-Blvd-21921/home/15122207,BRIGHT MLS,MDCC171866,N,Y,39.6102473,-75.7883295
PAST SALE,December-18-2020,Single Family Residential,109 Automotive Blvd,Elkton,MD,21921,261000,3,2.5,CHAPEL RUN,1622,6900,2004,352,161,22,Sold,,,https://www.redfin.com/MD/Elkton/109-Automotive-Blvd-21921/home/15122383,BRIGHT MLS,MDCC171920,N,Y,39.609447,-75.788246
PAST SALE,September-29-2020,Townhouse,224 Bluegrass Dr,Elkton,MD,21921,182000,3,2.5,MEADOWS AT ELK CREEK,1690,2265,2002,432,108,23,Sold,,,https://www.redfin.com/MD/Elkton/224-Bluegrass-Dr-21921/home/15122668,BRIGHT MLS,MDCC170532,N,Y,39.6318654,-75.8034012
PAST SALE,June-3-2021,Townhouse,200 Bluegrass Dr,Elkton,MD,21921,206000,3,1.5,MEADOWS AT ELK CREEK,1958,3300,2002,185,105,23,Sold,,,https://www.redfin.com/MD/Elkton/200-Bluegrass-Dr-21921/home/15122699,BRIGHT MLS,MDCC173774,N,Y,39.632302,-75.8025011
PAST SALE,January-16-2019,Single Family Residential,207 Gilpin Ave,Elkton,MD,21921,280000,5,3.5,GILPIN HEIGHTS,2465,20560,1966,1054,114,,Sold,,,https://www.redfin.com/MD/Elkton/207-Gilpin-Ave-21921/home/15144415,BRIGHT MLS,MDCC114346,N,Y,39.6210239,-75.8349836
PAST SALE,August-21-2020,Townhouse,16 Kina Ct,Elkton,MD,21921,158000,3,1.5,VILLAGE OF PHEASANT GLEN,1296,2152,2004,471,122,18,Sold,,,https://www.redfin.com/MD/Elkton/16-Kina-Ct-21921/home/15121840,BRIGHT MLS,MDCC169814,N,Y,39.628625,-75.840087
PAST SALE,June-19-2019,Townhouse,34 Kina Ct,Elkton,MD,21921,155000,3,2.5,Elkton,1334,3724,2005,900,116,10,Sold,,,https://www.redfin.com/MD/Elkton/34-Kina-Ct-21921/home/15121721,BRIGHT MLS,MDCC163450,N,Y,39.6279659,-75.8402097
PAST SALE,September-30-2019,Single Family Residential,109 Bonnie Marie Ln,Elkton,MD,21921,259900,3,2.5,Elkton,2148,10860,2005,797,121,,Sold,,,https://www.redfin.com/MD/Elkton/109-Bonnie-Marie-Ln-21921/home/15121716,BRIGHT MLS,MDCC164480,N,Y,39.63007321959217,-75.83996240521101
PAST SALE,December-31-2020,Townhouse,6 Kina Ct,Elkton,MD,21921,164900,2,1.5,WALNUT HILL,1310,2294,2004,339,126,18,Sold,,,https://www.redfin.com/MD/Elkton/6-Kina-Ct-21921/home/15121719,BRIGHT MLS,MDCC172348,N,Y,39.628628,-75.839765
PAST SALE,November-13-2020,Single Family Residential,236 Thomas Jefferson Ter,Elkton,MD,21921,320000,3,3.0,PATRIOTS GLEN,2487,8937,2003,387,129,43,Sold,,,https://www.redfin.com/MD/Elkton/236-Thomas-Jefferson-Ter-21921/home/15121368,BRIGHT MLS,MDCC170988,N,Y,39.6181026,-75.807402
PAST SALE,March-13-2020,Single Family Residential,249 Thomas Jefferson Ter,Elkton,MD,21921,300000,4,3.5,PATRIOTS GLEN,3232,8196,2004,632,93,43,Sold,,,https://www.redfin.com/MD/Elkton/249-Thomas-Jefferson-Ter-21921/home/15121670,BRIGHT MLS,MDCC167800,N,Y,39.61793,-75.808336
PAST SALE,October-31-2019,Single Family Residential,417 Melbourne Blvd,Elkton,MD,21921,220000,3,2.0,COLONIAL RIDGE,1602,14462,1997,766,137,,Sold,,,https://www.redfin.com/MD/Elkton/417-Melbourne-Blvd-21921/home/15142350,BRIGHT MLS,MDCC165306,N,Y,39.6097059,-75.804252
PAST SALE,November-12-2020,Single Family Residential,273 Thomas Jefferson Ter,Elkton,MD,21921,350000,4,3.0,CLUB AT PATRIOTS GLEN,3160,7841,2004,388,111,43,Sold,,,https://www.redfin.com/MD/Elkton/273-Thomas-Jefferson-Ter-21921/home/15121607,BRIGHT MLS,MDCC171122,N,Y,39.61975,-75.809861
PAST SALE,March-23-2020,Single Family Residential,177 Thomas Jefferson Ter,Elkton,MD,21921,363499,4,3.5,PATRIOTS GLEN,4215,10474,2005,622,86,43,Sold,,,https://www.redfin.com/MD/Elkton/177-Thomas-Jefferson-Ter-21921/home/15120913,BRIGHT MLS,MDCC166926,N,Y,39.618387,-75.800872
PAST SALE,December-10-2018,Single Family Residential,4 Henry Way,Elkton,MD,21921,405000,6,5.5,PATRIOTS GLEN,4242,11250,2004,1091,95,43,Sold,,,https://www.redfin.com/MD/Elkton/4-Henry-Way-21921/home/15121241,BRIGHT MLS,MDCC100346,N,Y,39.622349,-75.8108357
PAST SALE,,Vacant Land,203 Vince Dr,Elkton,MD,21921,45000,,,,,5150,,,,,,,,https://www.redfin.com/MD/Elkton/203-Vince-Dr-21921/home/17397077,,,N,Y,39.62788,-75.838173
PAST SALE,,Vacant Land,201 Vince Dr,Elkton,MD,21921,45000,,,,,5150,,,,,,,,https://www.redfin.com/MD/Elkton/201-Vince-Dr-21921/home/17397076,,,N,Y,39.627746,-75.838139
PAST SALE,June-4-2019,Single Family Residential,137 Thomas Jefferson Ter,Elkton,MD,21921,330000,4,2.5,CLUB AT PATRIOTS GLE,,9583,2006,915,,43,Sold,,,https://www.redfin.com/MD/Elkton/137-Thomas-Jefferson-Ter-21921/home/15120753,BRIGHT MLS,1001973660,N,Y,39.622285,-75.801935
PAST SALE,,Single Family Residential,148 Thomas Jefferson Ter,Elkton,MD,21921,340000,,2.5,,3757,10715,2006,,90,,,,,https://www.redfin.com/MD/Elkton/148-Thomas-Jefferson-Ter-21921/home/15120642,,,N,Y,39.621538,-75.802491
PAST SALE,June-4-2021,Single Family Residential,150 Thomas Jefferson Ter,Elkton,MD,21921,350000,4,3.5,PATRIOTS GLEN,2400,10715,2006,184,146,43,Sold,,,https://www.redfin.com/MD/Elkton/150-Thomas-Jefferson-Ter-21921/home/15120674,BRIGHT MLS,MDCC174626,N,Y,39.6213185,-75.8023502
PAST SALE,May-5-2020,Single Family Residential,178 Thomas Jefferson Ter,Elkton,MD,21921,375000,4,3.0,PATRIOTS GLEN,4165,12213,2012,579,90,46,Sold,,,https://www.redfin.com/MD/Elkton/178-Thomas-Jefferson-Ter-21921/home/17397405,BRIGHT MLS,MDCC168684,N,Y,39.619379,-75.800618
PAST SALE,December-28-2020,Single Family Residential,190 Thomas Jefferson Ter,Elkton,MD,21921,415000,4,5.0,CLUB AT PATRIOTS GLEN,5111,10661,2005,342,81,43,Sold,,,https://www.redfin.com/MD/Elkton/190-Thomas-Jefferson-Ter-21921/home/15120956,BRIGHT MLS,MDCC171490,N,Y,39.618552,-75.802133
PAST SALE,February-15-2020,Single Family Residential,27 Bonnie Marie Ct,Elkton,MD,21921,250000,4,2.5,WALNUT HILL,1758,10011,2019,659,142,10,Sold,,,https://www.redfin.com/MD/Elkton/27-Bonnie-Marie-Ct-21921/home/21974693,BRIGHT MLS,MDCC134946,N,Y,39.6323291,-75.8392978
PAST SALE,October-26-2020,Single Family Residential,87 Shannon Dr,Elkton,MD,21921,299900,4,2.5,PINES AT CHERRY HILL,2094,8133,2007,405,143,,Sold,,,https://www.redfin.com/MD/Elkton/87-Shannon-Dr-21921/home/15120797,BRIGHT MLS,MDCC170542,N,Y,39.6611039,-75.8477549
PAST SALE,September-30-2019,Townhouse,153 Ben Blvd,Elkton,MD,21921,184900,3,3.5,HICKORY KNOLL,1896,2614,2011,797,98,8,Sold,,,https://www.redfin.com/MD/Elkton/153-Ben-Blvd-21921/home/23085887,BRIGHT MLS,MDCC164278,N,Y,39.6128953,-75.8048827
PAST SALE,June-27-2019,Single Family Residential,133 Ben Blvd,Elkton,MD,21921,170000,3,1.5,HICKORY KNOLL,1440,2359,2011,892,118,,Sold,,,https://www.redfin.com/MD/Elkton/133-Ben-Blvd-21921/home/23085865,BRIGHT MLS,MDCC158666,N,Y,39.6135027,-75.8050699
PAST SALE,February-15-2019,Townhouse,131 Ben Blvd,Elkton,MD,21921,174900,3,1.5,HICKORY KNOLL,1600,2178,2011,1024,109,8,Sold,,,https://www.redfin.com/MD/Elkton/131-Ben-Blvd-21921/home/23085868,BRIGHT MLS,MDCC131518,N,Y,39.6135575,-75.8050729
PAST SALE,September-20-2019,Townhouse,134 Ben Blvd,Elkton,MD,21921,190000,3,3.5,HICKORY KNOLL,2160,2178,2013,807,88,8,Sold,,,https://www.redfin.com/MD/Elkton/134-Ben-Blvd-21921/home/23085848,BRIGHT MLS,MDCC165084,N,Y,39.6133911,-75.8055841
PAST SALE,August-30-2019,Townhouse,108 Ben Blvd,Elkton,MD,21921,184900,3,2.5,HICKORY KNOLL,2376,2178,2011,828,78,8,Sold,,,https://www.redfin.com/MD/Elkton/108-Ben-Blvd-21921/home/23085903,BRIGHT MLS,MDCC164962,N,Y,39.614185,-75.8054681
PAST SALE,,Townhouse,112 Ben Blvd,Elkton,MD,21921,170000,,3.5,,2148,3575,2011,,79,,,,,https://www.redfin.com/MD/Elkton/112-Ben-Blvd-21921/home/23085905,,,N,Y,39.6140265,-75.8055079
PAST SALE,August-26-2019,Single Family Residential,405 Park Pl,Elkton,MD,21921,160000,4,2.0,ELKTON HEIGHTS,1868,10803,1939,832,86,,Sold,,,https://www.redfin.com/MD/Elkton/405-Park-Pl-21921/home/15144606,BRIGHT MLS,MDCC165380,N,Y,39.6158569,-75.8334453
PAST SALE,April-24-2020,Townhouse,11 Sage Dr,Elkton,MD,21921,163000,3,2.0,WHITEHALL WEST,1700,2831,1994,590,96,,Sold,,,https://www.redfin.com/MD/Elkton/11-Sage-Dr-21921/home/15140532,BRIGHT MLS,MDCC168452,N,Y,39.592094,-75.828234
PAST SALE,March-7-2019,Townhouse,430 Buttonwoods Rd,Elkton,MD,21921,149000,3,2.5,BUTTONWOODS,1280,1999,2000,1004,116,,Sold,,,https://www.redfin.com/MD/Elkton/430-Buttonwoods-Rd-21921/home/15138588,BRIGHT MLS,1008354944,N,Y,39.587666,-75.83165
PAST SALE,January-3-2020,Single Family Residential,72 Walnut Grove Rd,Elkton,MD,21921,155000,2,1.0,Elkton,2154,60984,1930,702,72,,Sold,,,https://www.redfin.com/MD/Elkton/72-Walnut-Grove-Rd-21921/home/15144041,BRIGHT MLS,MDCC166940,N,Y,39.655743,-75.868474
PAST SALE,May-2-2019,Townhouse,431 Buttonwoods Rd,Elkton,MD,21921,156000,3,2.5,THE COURTS,1788,2962,2000,948,87,,Sold,,,https://www.redfin.com/MD/Elkton/431-Buttonwoods-Rd-21921/home/15138589,BRIGHT MLS,MDCC158716,N,Y,39.587552,-75.83161
PAST SALE,November-4-2019,Single Family Residential,126 Continental Dr,Elkton,MD,21921,239500,3,3.5,COLONIAL RIDGE,2812,25308,1999,762,85,,Sold,,,https://www.redfin.com/MD/Elkton/126-Continental-Dr-21921/home/15142088,BRIGHT MLS,MDCC166854,N,Y,39.6114691,-75.804152
PAST SALE,February-26-2020,Single Family Residential,125 Milestone Rd,Elkton,MD,21921,195000,4,1.5,THOMSON ESTATES,1296,10106,1975,648,150,,Sold,,,https://www.redfin.com/MD/Elkton/125-Milestone-Rd-21921/home/15144015,BRIGHT MLS,MDCC166094,N,Y,39.6052992,-75.8061618
PAST SALE,January-25-2019,Multi-Family (2-4 Unit),504 Hollingsworth Ave,Elkton,MD,21921,162000,,,Elkton,1248,7143,1947,1045,130,,Sold,,,https://www.redfin.com/MD/Elkton/504-Hollingsworth-Ave-21921/home/15144822,BRIGHT MLS,MDCC134720,N,Y,39.61634,-75.828173
PAST SALE,May-14-2021,Single Family Residential,123 Continental Dr,Elkton,MD,21921,310000,4,2.5,COLONIAL RIDGE,1872,15246,1999,205,166,,Sold,,,https://www.redfin.com/MD/Elkton/123-Continental-Dr-21921/home/15142359,BRIGHT MLS,MDCC174098,N,Y,39.611518,-75.8062955
PAST SALE,February-18-2021,Single Family Residential,124 Continental Dr,Elkton,MD,21921,295000,4,2.5,COLONIAL RIDGE,2744,26136,2000,290,108,,Sold,,,https://www.redfin.com/MD/Elkton/124-Continental-Dr-21921/home/15141982,BRIGHT MLS,MDCC171884,N,Y,39.6114727,-75.8044818
PAST SALE,September-26-2019,Townhouse,26 Honeylocust Cir,Elkton,MD,21921,196560,3,2.0,RIDGELY FOREST,1220,2970,2019,801,161,40,Sold,,,https://www.redfin.com/MD/Elkton/26-Honeylocust-Cir-21921/home/23086147,BRIGHT MLS,MDCC164124,N,Y,39.6088082,-75.919734
PAST SALE,December-28-2018,Single Family Residential,119 Saint Louis Dr,Elkton,MD,21921,211000,4,2.0,COLONIAL RIDGE,1796,8712,1991,1073,117,,Sold,,,https://www.redfin.com/MD/Elkton/119-St-Louis-Dr-21921/home/15141975,BRIGHT MLS,1002135612,N,Y,39.6070768,-75.8086802
PAST SALE,,Townhouse,360 Friendship Rd,Elkton,MD,21921,95000,,1.5,,1188,5227,1990,,80,,,,,https://www.redfin.com/MD/Elkton/360-Friendship-Rd-21921/home/15142199,,,N,Y,39.615966,-75.8251541
PAST SALE,February-22-2019,Single Family Residential,2512 Oldfield Point Rd,Elkton,MD,21921,194500,3,1.5,Elkton,2017,28092,1976,1017,96,,Sold,,,https://www.redfin.com/MD/Elkton/2512-Oldfield-Point-Rd-21921/home/15143624,BRIGHT MLS,MDCC100508,N,Y,39.595064,-75.850684
PAST SALE,October-15-2020,Single Family Residential,163 Woods Way,Elkton,MD,21921,75000,3,2.0,CECIL WOODS,1344,,2015,416,56,,Sold,,,https://www.redfin.com/MD/Elkton/163-Woods-Way-21921/home/173496605,BRIGHT MLS,MDCC171148,N,Y,39.614837,-75.922051
PAST SALE,March-30-2021,Single Family Residential,204 Brown St,Elkton,MD,21921,223000,3,1.0,GARDEN HEIGHTS,1120,11456,1974,250,199,,Sold,,,https://www.redfin.com/MD/Elkton/204-Brown-St-21921/home/15144599,BRIGHT MLS,MDCC173234,N,Y,39.61785,-75.835549
PAST SALE,August-7-2020,Townhouse,146 Cherry Tree Ln,Elkton,MD,21921,155500,2,1.5,WASHINGTON WOODS,1794,2003,1997,485,87,11,Sold,,,https://www.redfin.com/MD/Elkton/146-Cherry-Tree-Ln-21921/home/15141015,BRIGHT MLS,MDCC169854,N,Y,39.61393,-75.799861
PAST SALE,August-5-2020,Single Family Residential,626 Augustine Herman Hwy,Elkton,MD,21921,97000,3,2.0,Elkton,2052,43560,1950,487,47,,Sold,,,https://www.redfin.com/MD/Elkton/626-Augustine-Herman-Hwy-21921/home/15144952,BRIGHT MLS,MDCC168956,N,Y,39.5794216,-75.8192561
PAST SALE,December-20-2018,Single Family Residential,707 Gray Mount Cir,Elkton,MD,21921,180000,3,2.0,GRAY MOUNT,1560,9147,1991,1081,115,,Sold,,,https://www.redfin.com/MD/Elkton/707-Gray-Mt-Cir-21921/home/15142898,BRIGHT MLS,1002307046,N,Y,39.611474,-75.800411
PAST SALE,September-4-2020,Single Family Residential,705 Gray Mount Cir,Elkton,MD,21921,220000,3,1.5,GRAYS HILL,1824,8842,1991,457,121,,Sold,,,https://www.redfin.com/MD/Elkton/705-Gray-Mt-Cir-21921/home/15142021,BRIGHT MLS,MDCC170288,N,Y,39.6115006,-75.8006304
PAST SALE,December-28-2018,Single Family Residential,355 Maloney Rd,Elkton,MD,21921,248000,3,2.5,Elkton,3768,24393,1976,1073,66,,Sold,,,https://www.redfin.com/MD/Elkton/355-Maloney-Rd-21921/home/15143669,BRIGHT MLS,1000469828,N,Y,39.599021,-75.800548
PAST SALE,September-27-2019,Single Family Residential,703 Gray Mount Cir,Elkton,MD,21921,211000,3,2.0,GRAYS HILL,1360,8625,1990,800,155,,Sold,,,https://www.redfin.com/MD/Elkton/703-Gray-Mt-Cir-21921/home/15142899,BRIGHT MLS,MDCC165236,N,Y,39.611523,-75.8008255
PAST SALE,August-23-2019,Single Family Residential,216 Highland Dr,Elkton,MD,21921,259000,3,2.5,KENSINGTON COURTS,2152,8751,2001,835,120,8,Sold,,,https://www.redfin.com/MD/Elkton/216-Highland-Dr-21921/home/15142602,BRIGHT MLS,MDCC165030,N,Y,39.5913407,-75.8365148
PAST SALE,July-2-2019,Townhouse,125 Quail Ct,Elkton,MD,21921,47500,3,1.0,ELKTON TOWNHOUSES,1000,2222,1976,887,48,,Sold,,,https://www.redfin.com/MD/Elkton/125-Quail-Ct-21921/home/15143930,BRIGHT MLS,MDCC164712,N,Y,39.6007434,-75.8436591
PAST SALE,September-20-2019,Single Family Residential,203 Brown St,Elkton,MD,21921,209900,3,1.0,ELKTON HEIGHTS,1325,11456,1950,807,158,,Sold,,,https://www.redfin.com/MD/Elkton/203-Brown-St-21921/home/15144533,BRIGHT MLS,MDCC165670,N,Y,39.6182463,-75.8353793
PAST SALE,December-11-2020,Single Family Residential,222 Highland Dr,Elkton,MD,21921,269000,3,3.0,KENSINGTON COURTS,1866,9265,2002,359,144,10,Sold,,,https://www.redfin.com/MD/Elkton/222-Highland-Dr-21921/home/15142570,BRIGHT MLS,MDCC171738,N,Y,39.5915642,-75.8372296
PAST SALE,June-30-2020,Single Family Residential,209 Highland Dr,Elkton,MD,21921,273000,4,2.5,KENSINGTON COURTS,2469,9385,2001,523,111,,Sold,,,https://www.redfin.com/MD/Elkton/209-Highland-Dr-21921/home/15142046,BRIGHT MLS,MDCC169452,N,Y,39.590562,-75.836213
PAST SALE,December-2-2019,Single Family Residential,21 Doe Dr,Elkton,MD,21921,25000,3,2.0,FOREST GREEN,960,,1998,734,26,,Sold,,,https://www.redfin.com/MD/Elkton/21-Doe-Dr-21921/home/102926928,BRIGHT MLS,MDCC166956,N,Y,39.63017,-75.896621
PAST SALE,January-4-2019,Single Family Residential,1310 Elk Forest Rd,Elkton,MD,21921,440000,3,3.0,BETHEL OF ELK FOREST,2915,87991,1991,1066,151,,Sold,,,https://www.redfin.com/MD/Elkton/1310-Elk-Forest-Rd-21921/home/15148525,BRIGHT MLS,1002267090,N,Y,39.5379899,-75.8539755
PAST SALE,,Single Family Residential,527 Highland Dr,Elkton,MD,21921,206000,,1.0,,908,8779,2003,,227,,,,,https://www.redfin.com/MD/Elkton/527-Highland-Dr-21921/home/15142067,,,N,Y,39.5865539,-75.8417297
PAST SALE,March-26-2019,Single Family Residential,45 Wild Laurel Ct,Elkton,MD,21921,485000,4,3.0,VILLAGES OF ELK NECK,4910,33323,2000,985,99,42,Sold,,,https://www.redfin.com/MD/Elkton/45-Wild-Laurel-Ct-21921/home/15131836,BRIGHT MLS,MDCC145150,N,Y,39.53931,-75.9102
PAST SALE,June-24-2020,Single Family Residential,706 Elkton Blvd,Elkton,MD,21921,160000,2,1.0,ELKTON HEIGHTS,780,8581,1960,529,205,,Sold,,,https://www.redfin.com/MD/Elkton/706-Elkton-Blvd-21921/home/15144889,BRIGHT MLS,MDCC167904,N,Y,39.6132861,-75.8363442
PAST SALE,,Other,104 Church St,Elkton,MD,21921,90000,,,,1296,1613,,,69,,,,,https://www.redfin.com/MD/Elkton/104-Church-St-21921/home/15144716,,,N,Y,39.6094643,-75.8274938
PAST SALE,October-30-2020,Single Family Residential,508 Highland Dr,Elkton,MD,21921,303600,3,2.5,KENSINGTON COURTS,1918,8761,2003,401,158,10,Sold,,,https://www.redfin.com/MD/Elkton/508-Highland-Dr-21921/home/15142620,BRIGHT MLS,MDCC171140,N,Y,39.5885803,-75.8415545
PAST SALE,July-28-2020,Single Family Residential,229 Milhollan Dr,Elkton,MD,21921,385000,4,3.5,KENSINGTON COURTS,2549,11876,2004,495,151,10,Sold,,,https://www.redfin.com/MD/Elkton/229-Milhollan-Dr-21921/home/15142074,BRIGHT MLS,MDCC169502,N,Y,39.585181,-75.840824
PAST SALE,July-22-2019,Townhouse,70 Honeylocust Cir,Elkton,MD,21921,194380,3,2.0,RIDGELY FOREST,1220,2970,2019,867,159,40,Sold,,,https://www.redfin.com/MD/Elkton/70-Honeylocust-Cir-21921/home/23086155,BRIGHT MLS,MDCC164138,N,Y,39.6083648,-75.9205159
PAST SALE,August-2-2019,Single Family Residential,64 Marlyn Dr,Elkton,MD,21921,235000,3,1.5,APPLETON ACRES,1580,20038,1972,856,149,,Sold,,,https://www.redfin.com/MD/Elkton/64-Marlyn-Dr-21921/home/15139959,BRIGHT MLS,MDCC164636,N,Y,39.701374,-75.816379
PAST SALE,July-31-2020,Single Family Residential,227 Milhollan Dr,Elkton,MD,21921,290000,4,2.5,KENSINGTON COURTS,1819,8604,2004,492,159,10,Sold,,,https://www.redfin.com/MD/Elkton/227-Milhollan-Dr-21921/home/15142265,BRIGHT MLS,MDCC169608,N,Y,39.5849648,-75.8407882
PAST SALE,May-14-2021,Single Family Residential,32 N Edgewood Dr,Elkton,MD,21921,400000,4,3.0,APPLETON GLEN,2742,54014,1983,205,146,,Sold,,,https://www.redfin.com/MD/Elkton/32-Edgewood-Dr-N-21921/home/15139960,BRIGHT MLS,MDCC173712,N,Y,39.704697,-75.814855
PAST SALE,April-10-2019,Single Family Residential,5781 Telegraph Rd,Elkton,MD,21921,229900,3,2.0,FAIR HILL,1372,85813,1954,970,168,,Sold,,,https://www.redfin.com/MD/Elkton/5781-Telegraph-Rd-21921/home/15139005,BRIGHT MLS,MDCC127448,N,Y,39.698076,-75.8095387
PAST SALE,December-17-2018,Single Family Residential,532 Highland Dr,Elkton,MD,21921,205900,3,2.0,KENSINGTON COURTS,1357,8759,2003,1084,152,10,Sold,,,https://www.redfin.com/MD/Elkton/532-Highland-Dr-21921/home/15142064,BRIGHT MLS,1002308540,N,Y,39.586474,-75.8423
PAST SALE,December-31-2018,Single Family Residential,109 Locust Ln,Elkton,MD,21921,77000,3,2.0,Elkton,1617,5924,1933,1070,48,,Sold,,,https://www.redfin.com/MD/Elkton/109-Locust-Ln-21921/home/15144385,BRIGHT MLS,1009971756,N,Y,39.6110278,-75.8244562
PAST SALE,February-26-2021,Single Family Residential,103 Brown St,Elkton,MD,21921,212000,2,2.0,ELKTON HEIGHTS,1776,8450,1950,282,119,,Sold,,,https://www.redfin.com/MD/Elkton/103-Brown-St-21921/home/15144895,BRIGHT MLS,MDCC172748,N,Y,39.618757,-75.832751
PAST SALE,July-17-2020,Single Family Residential,126 Kirkcaldy Dr,Elkton,MD,21921,258000,4,2.0,HIGHLANDS,1860,20037,1976,506,139,,Sold,,,https://www.redfin.com/MD/Elkton/126-Kirkcaldy-Dr-21921/home/15138940,BRIGHT MLS,MDCC166812,N,Y,39.68443,-75.791093
PAST SALE,July-2-2020,Single Family Residential,110 Dennis Dr,Elkton,MD,21921,500000,4,2.5,HILLCREST,2984,131987,2001,521,168,,Sold,,,https://www.redfin.com/MD/Elkton/110-Dennis-Dr-21921/home/15139950,BRIGHT MLS,MDCC169178,N,Y,39.698411,-75.7964329
PAST SALE,August-28-2020,Single Family Residential,148 Katherine Ct,Elkton,MD,21921,322500,3,2.5,HILLCREST,2592,28750,1976,464,124,,Sold,,,https://www.redfin.com/MD/Elkton/148-Katherine-Ct-21921/home/15137507,BRIGHT MLS,MDCC170294,N,Y,39.700308,-75.7939967
PAST SALE,February-26-2019,Single Family Residential,120 Ballantrae Dr,Elkton,MD,21921,300000,5,4.0,HIGHLANDS,3146,27791,1976,1013,95,,Sold,,,https://www.redfin.com/MD/Elkton/120-Ballantrae-Dr-21921/home/15141693,BRIGHT MLS,1007778116,N,Y,39.684347,-75.7892789
PAST SALE,June-13-2019,Single Family Residential,109 Kirkcaldy Dr,Elkton,MD,21921,162000,5,3.5,HIGHLANDS,2483,21214,1976,906,65,,Sold,,,https://www.redfin.com/MD/Elkton/109-Kirkcaldy-Dr-21921/home/15141189,BRIGHT MLS,MDCC163234,N,Y,39.68159,-75.790428
PAST SALE,July-8-2019,Single Family Residential,115 Black Oak Dr,Elkton,MD,21921,215000,6,3.5,THABAR,3382,70567,1970,881,64,,Sold,,,https://www.redfin.com/MD/Elkton/115-Black-Oak-Dr-21921/home/15140205,BRIGHT MLS,MDCC163396,N,Y,39.717072,-75.794642
PAST SALE,December-30-2019,Single Family Residential,210 Atlanta Ct,Elkton,MD,21921,269900,4,2.5,TARA,2888,31973,1977,706,93,,Sold,,,https://www.redfin.com/MD/Elkton/210-Atlanta-Ct-21921/home/15137994,BRIGHT MLS,MDCC165938,N,Y,39.703593,-75.788804
PAST SALE,March-15-2021,Single Family Residential,31 Fink Ln,Elkton,MD,21921,372000,3,3.5,FAIR HILL,2969,20037,2001,265,125,,Sold,,,https://www.redfin.com/MD/Elkton/31-Fink-Ln-21921/home/15137990,BRIGHT MLS,MDCC173068,N,Y,39.718355,-75.919981
PAST SALE,November-20-2020,Single Family Residential,185 Kirkcaldy Dr,Elkton,MD,21921,392000,3,3.0,HIGHLANDS,3267,45302,1990,380,120,,Sold,,,https://www.redfin.com/MD/Elkton/185-Kirkcaldy-Dr-21921/home/15137987,BRIGHT MLS,MDCC171074,N,Y,39.68988,-75.792799
PAST SALE,November-23-2020,Single Family Residential,11 High Lawn Ln,Elkton,MD,21921,449000,4,2.5,WYNDHAM AT FAIR HILL,2376,90605,1978,377,189,,Sold,,,https://www.redfin.com/MD/Elkton/11-High-Lawn-Ln-21921/home/15139895,BRIGHT MLS,MDCC171210,N,Y,39.7019848,-75.8913918
PAST SALE,August-16-2019,Single Family Residential,61 S Edgewood Dr,Elkton,MD,21921,265000,3,2.5,Elkton,2399,77537,1979,842,110,,Sold,,,https://www.redfin.com/MD/Elkton/61-S-Edgewood-Dr-21921/home/15138884,BRIGHT MLS,MDCC165046,N,Y,39.703728,-75.8127051
PAST SALE,August-21-2020,Single Family Residential,15 Locharron Dr,Elkton,MD,21921,275000,4,2.5,HIGHLANDS,1781,20037,1978,471,154,,Sold,,,https://www.redfin.com/MD/Elkton/15-Locharron-Dr-21921/home/15137483,BRIGHT MLS,MDCC169908,N,Y,39.689047,-75.7942769
PAST SALE,November-22-2019,Single Family Residential,55 Oakridge Ct,Elkton,MD,21921,230500,3,1.5,OAKRIDGE,1534,35893,1979,744,150,,Sold,,,https://www.redfin.com/MD/Elkton/55-Oakridge-Ct-21921/home/15138853,BRIGHT MLS,MDCC166580,N,Y,39.660299,-75.811366
PAST SALE,September-22-2020,Single Family Residential,104 Silchester Dr,Elkton,MD,21921,263000,3,1.0,SURREY RIDGE,1192,20037,1984,439,221,,Sold,,,https://www.redfin.com/MD/Elkton/104-Silchester-Dr-21921/home/15137261,BRIGHT MLS,MDCC169724,N,Y,39.6866309,-75.8591296
PAST SALE,July-30-2019,Single Family Residential,153 Silchester Dr,Elkton,MD,21921,290000,4,2.5,SURREY RIDGE,1996,34500,1987,859,145,,Sold,,,https://www.redfin.com/MD/Elkton/153-Silchester-Dr-21921/home/15137257,BRIGHT MLS,MDCC163482,N,Y,39.6878256,-75.8572132
PAST SALE,June-13-2019,Single Family Residential,165 Silchester Dr,Elkton,MD,21921,295000,4,2.5,SURREY RIDGE,2204,26092,1981,906,134,,Sold,,,https://www.redfin.com/MD/Elkton/165-Silchester-Dr-21921/home/15140712,BRIGHT MLS,MDCC163244,N,Y,39.6873999,-75.8566408
PAST SALE,December-21-2020,Single Family Residential,42 Elk Hill Ct,Elkton,MD,21921,272500,3,1.5,HIDDEN ACRES,1630,27181,1982,349,167,,Sold,,,https://www.redfin.com/MD/Elkton/42-Elk-Hill-Ct-21921/home/15139136,BRIGHT MLS,MDCC171156,N,Y,39.6825691,-75.8662263
PAST SALE,February-28-2019,Single Family Residential,71 Silchester Ct,Elkton,MD,21921,240000,4,2.5,SURREY RIDGE,2378,29054,1985,1011,101,,Sold,,,https://www.redfin.com/MD/Elkton/71-Silchester-Ct-21921/home/15139708,BRIGHT MLS,MDCC107426,N,Y,39.689077,-75.857704
PAST SALE,October-9-2020,Single Family Residential,6 Jaquette Cir,Elkton,MD,21921,389000,4,2.5,Elkton,2572,56192,1977,422,151,,Sold,,,https://www.redfin.com/MD/Elkton/6-Jaquette-Cir-21921/home/15137503,BRIGHT MLS,MDCC171494,N,Y,39.7007972,-75.8019363
PAST SALE,July-6-2020,Single Family Residential,3700 Blue Ball Rd,Elkton,MD,21921,500000,4,2.5,Elkton,3284,152460,1992,517,152,,Sold,,,https://www.redfin.com/MD/Elkton/3700-Blue-Ball-Rd-21921/home/15138832,BRIGHT MLS,MDCC169568,N,Y,39.7084128,-75.9339528
PAST SALE,June-26-2020,Vacant Land,Elbow Ln,Elkton,MD,21921,140000,,,Elkton,,97139,,527,,,Sold,,,https://www.redfin.com/MD/ELKTON/ELBOW-LN-21921/home/23075894,BRIGHT MLS,MDCC168028,N,Y,39.721949,-75.800676
PAST SALE,July-19-2019,Single Family Residential,190 Kirkcaldy Dr,Elkton,MD,21921,366500,4,2.5,HIGHLANDS,1868,174240,1988,870,196,,Sold,,,https://www.redfin.com/MD/Elkton/190-Kirkcaldy-Dr-21921/home/15138814,BRIGHT MLS,MDCC163940,N,Y,39.6899431,-75.7918603
PAST SALE,,Single Family Residential,2018 Appleton Rd,Elkton,MD,21921,250000,,4.0,,4269,83635,1990,,59,,,,,https://www.redfin.com/MD/Elkton/2018-Appleton-Rd-21921/home/15139569,,,N,Y,39.659597,-75.8125825
PAST SALE,April-30-2021,Single Family Residential,65 Gina Ct,Elkton,MD,21921,560000,5,4.0,WYN LEA,4884,170320,1989,219,115,,Sold,,,https://www.redfin.com/MD/Elkton/65-Gina-Ct-21921/home/15138780,BRIGHT MLS,MDCC173680,N,Y,39.694713,-75.909811
PAST SALE,November-8-2019,Single Family Residential,99 Gina Ct,Elkton,MD,21921,475000,4,3.5,WYN LEA,3635,215970,1988,758,131,,Sold,,,https://www.redfin.com/MD/Elkton/99-Gina-Ct-21921/home/15137190,BRIGHT MLS,MDCC165720,N,Y,39.6955079,-75.910775
PAST SALE,March-22-2021,Single Family Residential,36 Gina Ct,Elkton,MD,21921,460000,4,2.5,WYN LEA AT FAIR HILL,3088,94961,1990,258,149,,Sold,,,https://www.redfin.com/MD/Elkton/36-Gina-Ct-21921/home/15137189,BRIGHT MLS,MDCC171594,N,Y,39.6951155,-75.9078759
PAST SALE,August-30-2019,Single Family Residential,3179 Singerly Rd,Elkton,MD,21921,245000,3,2.0,Elkton,1736,57369,1989,828,141,,Sold,,,https://www.redfin.com/MD/Elkton/3179-Singerly-Rd-21921/home/15139571,BRIGHT MLS,MDCC165514,N,Y,39.69587,-75.869553
PAST SALE,April-19-2019,Single Family Residential,1216 Appleton Rd,Elkton,MD,21921,248900,2,1.5,Elkton,1911,29577,1992,961,130,,Sold,,,https://www.redfin.com/MD/Elkton/1216-Appleton-Rd-21921/home/15138758,BRIGHT MLS,MDCC158624,N,Y,39.660141,-75.812955
PAST SALE,,Single Family Residential,166 Little Egypt Rd,Elkton,MD,21921,385000,,2.0,,3365,66211,1989,,114,,,,,https://www.redfin.com/MD/Elkton/166-Little-Egypt-Rd-21921/home/15141452,,,N,Y,39.7028634,-75.7986742
PAST SALE,August-21-2020,Single Family Residential,159 Gina Ct,Elkton,MD,21921,515000,5,3.5,WYN LEA AT FAIR HILL,3558,249163,1991,471,145,,Sold,,,https://www.redfin.com/MD/Elkton/159-Gina-Ct-21921/home/15141479,BRIGHT MLS,MDCC168812,N,Y,39.6972037,-75.9134339
PAST SALE,July-23-2021,Single Family Residential,4 Appaloosa Trl,Elkton,MD,21921,229000,3,2.5,WEST CREEK VILLAGE,2151,6664,1994,135,106,,Sold,,,https://www.redfin.com/MD/Elkton/4-Appaloosa-Trl-21921/home/15137714,BRIGHT MLS,MDCC173884,N,Y,39.657947,-75.804945
PAST SALE,September-18-2020,Single Family Residential,22 Stirrup Dr,Elkton,MD,21921,240000,3,2.5,WEST CREEK VILLAGE,1890,6621,1995,443,127,,Sold,,,https://www.redfin.com/MD/Elkton/22-Stirrup-Dr-21921/home/15139534,BRIGHT MLS,MDCC170566,N,Y,39.6598818,-75.805025
PAST SALE,May-29-2020,Single Family Residential,142 Winchester Dr,Elkton,MD,21921,193000,2,2.0,WEST CREEK VILLAGE,1039,7840,1993,555,186,,Sold,,,https://www.redfin.com/MD/Elkton/142-Winchester-Dr-21921/home/15139842,BRIGHT MLS,MDCC168016,N,Y,39.6594679,-75.8032489
PAST SALE,July-24-2020,Single Family Residential,5 N Navaho Trl,Elkton,MD,21921,215000,3,2.5,Elkton,1426,8102,1993,499,151,,Sold,,,https://www.redfin.com/MD/Elkton/5-Navaho-Trl-N-21921/home/15137702,BRIGHT MLS,MDCC169338,N,Y,39.659523,-75.8045099
PAST SALE,,Single Family Residential,121 Winchester Dr,Elkton,MD,21921,250000,,2.5,,2490,10149,1992,,100,,,,,https://www.redfin.com/MD/Elkton/121-Winchester-Dr-21921/home/15139541,,,N,Y,39.659036,-75.805468
PAST SALE,December-30-2019,Single Family Residential,94 Hunt Valley Loop,Elkton,MD,21921,448450,3,3.5,FOXCATCHER AT FAIRHILL,3385,140699,1995,706,132,,Sold,,,https://www.redfin.com/MD/Elkton/94-Hunt-Valley-Loop-21921/home/15141394,BRIGHT MLS,MDCC164788,N,Y,39.7086055,-75.8721789
PAST SALE,January-17-2020,Single Family Residential,207 Chestnut Dr,Elkton,MD,21921,214900,3,2.5,WEST CREEK VILLAGE,1740,6499,2002,688,124,,Sold,,,https://www.redfin.com/MD/Elkton/207-Chestnut-Dr-21921/home/15139521,BRIGHT MLS,MDCC166330,N,Y,39.6623827,-75.8053691
PAST SALE,August-24-2020,Single Family Residential,218 Chestnut Dr,Elkton,MD,21921,228900,3,2.5,WEST CREEK VILLAGE,2940,7405,1995,468,78,,Sold,,,https://www.redfin.com/MD/Elkton/218-Chestnut-Dr-21921/home/15139516,BRIGHT MLS,MDCC169978,N,Y,39.663344,-75.805582
PAST SALE,December-20-2019,Single Family Residential,121 Chestnut Dr,Elkton,MD,21921,231000,3,2.5,WEST CREEK VILLAGE,1834,8555,1998,716,126,,Sold,,,https://www.redfin.com/MD/Elkton/121-Chestnut-Dr-21921/home/15138701,BRIGHT MLS,MDCC166202,N,Y,39.662063,-75.803955
PAST SALE,August-14-2020,Single Family Residential,67 Hunt Valley Loop,Elkton,MD,21921,399000,4,2.0,FOX CATCHER AT FAIRH,2098,118919,1995,478,190,,Sold,,,https://www.redfin.com/MD/Elkton/67-Hunt-Valley-Loop-21921/home/15138683,BRIGHT MLS,MDCC169914,N,Y,39.711314,-75.870904
PAST SALE,January-15-2021,Single Family Residential,306 Suburban Dr,Elkton,MD,21921,299900,3,3.0,CHAPEL RUN,2784,7800,2003,324,108,21,Sold,,,https://www.redfin.com/MD/Elkton/306-Suburban-Dr-21921/home/15122103,BRIGHT MLS,MDCC172576,N,Y,39.610708,-75.7881232
PAST SALE,July-15-2020,Single Family Residential,215 Jackson Hall School Rd,Elkton,MD,21921,339900,4,2.0,HIGHLANDS,2536,320602,1900,508,134,,Sold,,,https://www.redfin.com/MD/Elkton/215-Jackson-Hall-School-Rd-21921/home/15141393,BRIGHT MLS,MDCC169526,N,Y,39.692342,-75.792824
PAST SALE,July-31-2020,Single Family Residential,25 Fawn Valley Dr,Elkton,MD,21921,522500,4,4.0,FAWN VALLEY,5763,128502,2000,492,91,,Sold,,,https://www.redfin.com/MD/Elkton/25-Fawn-Valley-Dr-21921/home/15137626,BRIGHT MLS,MDCC169444,N,Y,39.7063879,-75.933346
PAST SALE,October-30-2020,Single Family Residential,12 Mcvey Way,Elkton,MD,21921,76500,3,2.0,FOREST GREEN,1456,,2013,401,53,,Sold,,,https://www.redfin.com/MD/Elkton/12-McVey-Way-21921/home/173371327,BRIGHT MLS,MDCC171432,N,Y,39.6304662,-75.8972901
PAST SALE,February-10-2020,Single Family Residential,84 Grey Fox Dr,Elkton,MD,21921,335000,4,3.5,Elkton,4477,67518,1995,664,75,,Sold,,,https://www.redfin.com/MD/Elkton/84-Grey-Fox-Dr-21921/home/15138648,BRIGHT MLS,MDCC166868,N,Y,39.7166433,-75.8712641
PAST SALE,February-21-2020,Single Family Residential,44 Grey Fox Dr,Elkton,MD,21921,550000,5,4.5,FOX CATCHER AT FAIRH,3838,51401,1996,653,143,,Sold,,,https://www.redfin.com/MD/Elkton/44-Grey-Fox-Dr-21921/home/15137604,BRIGHT MLS,MDCC168690,N,Y,39.7149146,-75.8719506
PAST SALE,,Single Family Residential,12 Stanfield Dr,Elkton,MD,21921,365000,,2.0,,1951,93218,1999,,187,,,,,https://www.redfin.com/MD/Elkton/12-Stanfield-Dr-21921/home/15139409,,,N,Y,39.6908043,-75.9068172
PAST SALE,September-15-2020,Single Family Residential,60 Glen Brook Dr,Elkton,MD,21921,619000,5,4.0,GLEN BROOK WOODS,3733,87120,2001,446,166,42,Sold,,,https://www.redfin.com/MD/Elkton/60-Glen-Brook-Dr-21921/home/15139394,BRIGHT MLS,MDCC170312,N,Y,39.6999236,-75.7984159
PAST SALE,November-27-2020,Townhouse,48 Whitetail Way,Elkton,MD,21921,207000,3,2.5,PERSIMMON CREEK,1744,1800,2000,373,119,23,Sold,,,https://www.redfin.com/MD/Elkton/48-Whitetail-Way-21921/home/15137959,BRIGHT MLS,MDCC171472,N,Y,39.656531,-75.789212
PAST SALE,,Single Family Residential,2636 Blue Ball Rd,Elkton,MD,21921,325000,,2.0,,1824,136778,1972,,178,,,,,https://www.redfin.com/MD/Elkton/2636-Blue-Ball-Rd-21921/home/15139364,,,N,Y,39.6776159,-75.9093107
PAST SALE,March-17-2020,Single Family Residential,45 Gomer Ct,Elkton,MD,21921,590000,4,2.5,MT. GOMERIE,3952,130244,2006,628,149,,Sold,,,https://www.redfin.com/MD/Elkton/45-Gomer-Ct-21921/home/15123845,BRIGHT MLS,MDCC167596,N,Y,39.694891,-75.897441
PAST SALE,November-6-2019,Single Family Residential,225 Kirk Rd,Elkton,MD,21921,155000,4,1.0,Elkton,2016,332798,1944,760,77,,Sold,,,https://www.redfin.com/MD/Elkton/225-Kirk-Rd-21921/home/15137521,BRIGHT MLS,MDCC163806,N,Y,39.677793,-75.896734
PAST SALE,August-9-2019,Single Family Residential,827 Jackson Hall School Rd,Elkton,MD,21921,125000,3,2.0,NONDEVELOPE,1028,27878,1993,849,122,,Sold,,,https://www.redfin.com/MD/Elkton/827-Jackson-Hall-School-Rd-21921/home/15139326,BRIGHT MLS,MDCC163700,N,Y,39.682649,-75.812751
