SALE TYPE,SOLD DATE,PROPERTY TYPE,ADDRESS,CITY,STATE OR PROVINCE,ZIP OR POSTAL CODE,PRICE,BEDS,BATHS,LOCATION,SQUARE FEET,LOT SIZE,YEAR BUILT,DAYS ON MARKET,$/SQUARE FEET,HOA/MONTH,STATUS,NEXT OPEN HOUSE START TIME,NEXT OPEN HOUSE END TIME,URL (SEE https://www.redfin.com/buy-a-home/comparative-market-analysis FOR INFO ON PRICING),SOURCE,MLS#,FAVORITE,INTERESTED,LATITUDE,LONGITUDE
PAST SALE,September-5-2019,Single Family Residential,63 Monnett Ct,Prince Frederick,MD,20678,315000,3,2.0,BRIGHTWELL VILLAGE,1564,7675,2007,822,201,,Sold,,,https://www.redfin.com/MD/Prince-Frederick/63-Monnett-Ct-20678/home/17374085,BRIGHT MLS,MDCA171664,N,Y,38.54703,-76.58415
PAST SALE,October-7-2019,Single Family Residential,416 Whirlaway Dr,Prince Frederick,MD,20678,362000,4,3.0,PRINCE FREDERICK WOODS,2446,5743,2017,790,148,10,Sold,,,https://www.redfin.com/MD/Prince-Frederick/416-Whirlaway-Dr-20678/home/17374816,BRIGHT MLS,MDCA171518,N,Y,38.5300719,-76.5861062
PAST SALE,March-27-2020,Single Family Residential,371 Rachaels Way,Prince Frederick,MD,20678,331000,4,3.5,SYMPHONY WOODS,2782,10256,1993,618,119,,Sold,,,https://www.redfin.com/MD/Prince-Frederick/371-Rachaels-Way-20678/home/15104189,BRIGHT MLS,MDCA174546,N,Y,38.5313324,-76.5734087
PAST SALE,November-2-2021,Single Family Residential,635 Stillwater Ln,Prince Frederick,MD,20678,549900,4,2.5,COLLEGE STATION,2382,56628,2010,33,231,33,Sold,,,https://www.redfin.com/MD/Prince-Frederick/635-Stillwater-Ln-20678/home/17374278,BRIGHT MLS,MDCA2001840,N,Y,38.5421989,-76.6211667
PAST SALE,July-29-2021,Single Family Residential,1615 German Chapel Rd,Prince Frederick,MD,20678,390000,3,2.0,Prince Frederick,2064,43560,1967,129,189,,Sold,,,https://www.redfin.com/MD/Prince-Frederick/1615-German-Chapel-Rd-20678/home/15108830,BRIGHT MLS,MDCA183230,N,Y,38.5193045,-76.5854176
PAST SALE,January-9-2020,Single Family Residential,490 Sylvan Pl,Prince Frederick,MD,20678,518000,4,3.5,COLLEGE STATION,3754,42134,2014,696,138,33,Sold,,,https://www.redfin.com/MD/PRINCE-FREDERICK/490-SYLVAN-PL-20678/home/17374229,BRIGHT MLS,MDCA171240,N,Y,38.546836,-76.613774
PAST SALE,September-23-2021,Townhouse,506 Salisbury Pl,Prince Frederick,MD,20678,295000,3,2.5,CHAPLINE PLACE,2100,1760,2001,73,140,75,Sold,,,https://www.redfin.com/MD/Prince-Frederick/506-Salisbury-Pl-20678/home/15099411,BRIGHT MLS,MDCA2001198,N,Y,38.550012,-76.595858
PAST SALE,November-8-2021,Single Family Residential,419 Rachaels Way,Prince Frederick,MD,20678,350000,3,3.5,SYMPHONY WOODS,1920,15125,1994,27,182,,Sold,,,https://www.redfin.com/MD/Prince-Frederick/419-Rachaels-Way-20678/home/15103834,BRIGHT MLS,MDCA2002050,N,Y,38.5326223,-76.5734087
PAST SALE,July-31-2020,Townhouse,531 English Oak Ln,Prince Frederick,MD,20678,309900,3,2.5,OAK TREE LANDING,2257,2425,2017,492,137,75,Sold,,,https://www.redfin.com/MD/Prince-Frederick/531-English-Oak-Ln-20678/home/23131464,BRIGHT MLS,MDCA175706,N,Y,38.544725,-76.577587
PAST SALE,May-19-2021,Townhouse,584 Burr Oak Ct,Prince Frederick,MD,20678,320000,3,2.5,OAK TREE LANDING,2300,2475,2010,200,139,83,Sold,,,https://www.redfin.com/MD/Prince-Frederick/584-Burr-Oak-Ct-20678/home/23128005,BRIGHT MLS,MDCA181900,N,Y,38.547382,-76.579803
PAST SALE,July-6-2021,Townhouse,425 English Oak Ln,Prince Frederick,MD,20678,350000,3,3.0,OAK TREE LANDING,2110,2241,2013,152,166,75,Sold,,,https://www.redfin.com/MD/Prince-Frederick/425-English-Oak-Ln-20678/home/23130782,BRIGHT MLS,MDCA182952,N,Y,38.5463708,-76.5776075
PAST SALE,April-12-2019,Single Family Residential,2274 Saint Margaret Blvd,Prince Frederick,MD,20678,549900,4,3.5,OAKLAND HALL,4970,26136,2016,968,111,50,Sold,,,https://www.redfin.com/MD/PRINCE-FREDERICK/2274-SAINT-MARGARET-BLVD-20678/home/104272685,BRIGHT MLS,MDCA145058,N,Y,38.503827,-76.553664
MLS Listing,,Townhouse,118 Polo Way,Prince Frederick,MD,20678,364900,3,3.0,PRINCE FREDERICK WOODS,2200,2000,2009,2,166,53,Active,,,https://www.redfin.com/MD/Prince-Frederick/118-Polo-Way-20678/home/17374777,BRIGHT MLS,MDCA2002798,N,Y,38.532534,-76.59057
MLS Listing,,Single Family Residential,3704 Cassell Blvd,Prince Frederick,MD,20678,360000,4,3.0,CHES HGTS,2042,13577,1978,3,176,,Active,December-5-2021 12:00 PM,December-5-2021 02:00 PM,https://www.redfin.com/MD/Prince-Frederick/3704-Cassell-Blvd-20678/home/15105749,BRIGHT MLS,MDCA2002876,N,Y,38.5654909,-76.5362915
MLS Listing,,Single Family Residential,172 Dares Wharf Rd,Prince Frederick,MD,20678,314900,3,1.0,DARES BEACH,1314,42170,1950,4,240,,Active,,,https://www.redfin.com/MD/Prince-Frederick/172-Dares-Wharf-Rd-20678/home/15108156,BRIGHT MLS,MDCA2002958,N,Y,38.5603252,-76.5187903
MLS Listing,,Single Family Residential,4415 Crest Dr,Prince Frederick,MD,20678,359900,4,2.0,DARES BEACH,1488,40800,1988,5,242,,Active,,,https://www.redfin.com/MD/Prince-Frederick/4415-Crest-Dr-20678/home/15108078,BRIGHT MLS,MDCA2002916,N,Y,38.5598718,-76.5230134
MLS Listing,,Townhouse,431 Cambridge Pl,Prince Frederick,MD,20678,334990,3,3.5,CHAPLINE PLACE,2332,2160,2002,12,144,73,Active,,,https://www.redfin.com/MD/Prince-Frederick/431-Cambridge-Pl-20678/home/15098913,BRIGHT MLS,MDCA2002824,N,Y,38.551046,-76.598095
MLS Listing,,Single Family Residential,84 Chesapeake Ave,Prince Frederick,MD,20678,650000,3,3.0,DARES BEACH,1830,,1948,20,355,,Active,,,https://www.redfin.com/MD/Prince-Frederick/84-Chesapeake-Ave-20678/home/15106154,BRIGHT MLS,MDCA2002698,N,Y,38.558139,-76.516228
MLS Listing,,Single Family Residential,4557 Sixes Rd,Prince Frederick,MD,20678,450000,3,2.0,PRINCE FREDERICK,1500,29359,1920,26,300,,Active,,,https://www.redfin.com/MD/Prince-Frederick/4557-Sixes-Rd-20678/home/16853362,BRIGHT MLS,MDCA2002656,N,Y,38.4945112,-76.619197
MLS Listing,,Vacant Land,395 Mason,Prince Frederick,MD,20678,2000000,,,PRINCE FREDERICK TOWN CENTER,,867280,,34,,,Active,,,https://www.redfin.com/MD/Prince-Frederick/395-Mason-Rd-20678/home/17376873,BRIGHT MLS,MDCA2000017,N,Y,38.522676,-76.598249
MLS Listing,,Single Family Residential,420 Clay Hammond,Prince Frederick,MD,20678,485000,4,3.0,Prince Frederick,4652,43560,1969,60,104,,Active,,,https://www.redfin.com/MD/Prince-Frederick/420-Clay-Hammond-Rd-20678/home/15105560,BRIGHT MLS,MDCA2002230,N,Y,38.5612942,-76.5607666
MLS Listing,,Single Family Residential,220 Macrae Ave,Prince Frederick,MD,20678,270000,2,2.0,DARES BEACH,890,4000,1949,80,303,,Active,,,https://www.redfin.com/MD/Prince-Frederick/220-Macrae-Ave-20678/home/15105444,BRIGHT MLS,MDCA2001944,N,Y,38.5608255,-76.5177289
MLS Listing,,Single Family Residential,127 Chesapeake Ave,Prince Frederick,MD,20678,575000,2,1.0,DARES BEACH,1100,12000,1945,127,523,,Active,,,https://www.redfin.com/MD/Prince-Frederick/127-Chesapeake-Ave-20678/home/15108128,BRIGHT MLS,MDCA2001122,N,Y,38.558975,-76.515837
MLS Listing,,Single Family Residential,334 Bay Ave,Prince Frederick,MD,20678,360000,4,3.0,DARES BEACH,1962,12000,1955,138,183,,Active,,,https://www.redfin.com/MD/Prince-Frederick/334-Bay-Ave-20678/home/15105494,BRIGHT MLS,MDCA2000670,N,Y,38.5640327,-76.5172047
MLS Listing,,Vacant Land,3714 Cassell,Prince Frederick,MD,20678,75000,,,CHES HGTS,,43560,,163,,4,Active,,,https://www.redfin.com/MD/Prince-Frederick/3714-Cassell-Blvd-20678/home/17376597,BRIGHT MLS,MDCA2000310,N,Y,38.565925,-76.53519
MLS Listing,,Vacant Land,5935 Ketch Rd,Prince Frederick,MD,20678,169900,,,CEDAR BEACH,,73616,,248,,21,Active,,,https://www.redfin.com/MD/Prince-Frederick/5935-Ketch-Rd-20678/home/15102841,BRIGHT MLS,MDCA181920,N,Y,38.5139039,-76.656233
MLS Listing,,Single Family Residential,4320A N Shore Dr,Prince Frederick,MD,20678,458500,2,2.0,CHES HGTS,1836,34155,,261,250,,Active,,,https://www.redfin.com/MD/Prince-Frederick/4320-N-Shore-Dr-20678/home/17376601,BRIGHT MLS,MDCA181670,N,Y,38.5704459,-76.5232
MLS Listing,,Vacant Land,145 N Solomons Island Rd,Prince Frederick,MD,20678,990000,,,Prince Frederick,,84506,,286,,,Active,,,https://www.redfin.com/MD/Prince-Frederick/145-Solomons-Island-Rd-N-20678/home/144763997,BRIGHT MLS,MDCA181190,N,Y,38.540624,-76.588498
MLS Listing,,Vacant Land,285 Stafford Rd,Prince Frederick,MD,20678,90000,,,Prince Frederick,,63598,,317,,,Active,,,https://www.redfin.com/MD/Prince-Frederick/285-Stafford-Rd-20678/home/28606256,BRIGHT MLS,MDCA180746,N,Y,38.53497,-76.614373
MLS Listing,,Vacant Land,1750 J Harris Rd,Prince Frederick,MD,20678,150000,,,Prince Frederick,,603306,,322,,,Active,,,https://www.redfin.com/MD/Prince-Frederick/1750-Joe-Harris-Rd-20678/home/17377028,BRIGHT MLS,MDCA180618,N,Y,38.506715,-76.581213
MLS Listing,,Vacant Land,185 Radio Dr,Prince Frederick,MD,20678,1495000,,,Prince Frederick,,94961,,372,,,Active,,,https://www.redfin.com/MD/Prince-Frederick/185-Radio-Dr-20678/home/15106229,BRIGHT MLS,MDCA180048,N,Y,38.5468987,-76.5925502
MLS Listing,,Mobile/Manufactured Home,5955 Macs Hollow Rd,Prince Frederick,MD,20678,219900,2,1.0,N/A,420,289674,1970,551,524,,Active,,,https://www.redfin.com/MD/Prince-Frederick/5955-Macs-Hollow-Rd-20678/home/15108715,BRIGHT MLS,MDCA176528,N,Y,38.477212,-76.637422
MLS Listing,,Vacant Land,Macs Hollow Rd,Prince Frederick,MD,20678,59000,,,Prince Frederick,,21344,,555,,,Active,,,https://www.redfin.com/MD/PRINCE-FREDERICK/MACS-HOLLOW-RD-20678/home/17374870,BRIGHT MLS,MDCA176534,N,Y,38.483009,-76.624681
MLS Listing,,Vacant Land,4308 North Shore Dr,Prince Frederick,MD,20678,65000,,,CHES HGTS,,43996,,1034,,40,Active,,,https://www.redfin.com/MD/Prince-Frederick/4308-N-Shore-Dr-20678/home/17376602,BRIGHT MLS,MDCA156496,N,Y,38.5701493,-76.5244922
MLS Listing,,Vacant Land,105 Solomons Island Rd N,Prince Frederick,MD,20678,590000,,,Prince Frederick,,39157,,1364,,,Active,,,https://www.redfin.com/MD/Prince-Frederick/105-Solomons-Island-Rd-N-20678/home/145120139,BRIGHT MLS,1000258256,N,Y,38.539584,-76.588632
MLS Listing,,Vacant Land,1870 Old Adelina Rd,Prince Frederick,MD,20678,89900,,,Prince Frederick,,304920,,1758,,,Active,,,https://www.redfin.com/MD/Prince-Frederick/1870-Old-Adelina-Rd-20678/home/45397955,BRIGHT MLS,1000106677,N,Y,38.483736,-76.616556
MLS Listing,,Vacant Land,1680 Solomons Island Rd S,Prince Frederick,MD,20678,1500000,,,T & T LUMBER YARD,,471058,,2888,,,Active,,,https://www.redfin.com/MD/Prince-Frederick/1680-Solomons-Island-Rd-S-20678/home/80173887,BRIGHT MLS,1000106287,N,Y,38.517717,-76.567461
PAST SALE,April-15-2019,Single Family Residential,2682 Sequoia Way,Prince Frederick,MD,20678,550000,9,4.5,WHISPERING WOODS,5437,236966,1996,965,101,26,Sold,,,https://www.redfin.com/MD/Prince-Frederick/2682-Sequoia-Way-20678/home/15109458,BRIGHT MLS,1002353158,N,Y,38.493087,-76.552152
PAST SALE,March-10-2020,Single Family Residential,362 Equestrian Way,Prince Frederick,MD,20678,395000,4,3.5,PRINCE FRED CROSSING,2987,5449,2012,635,132,63,Sold,,,https://www.redfin.com/MD/Prince-Frederick/362-Equestrian-Way-20678/home/17374700,BRIGHT MLS,MDCA174198,N,Y,38.531929,-76.5879005
PAST SALE,May-15-2019,Single Family Residential,1855 Kingswood Dr,Prince Frederick,MD,20678,398000,3,2.0,KINGSWOOD EST,2922,169884,1971,935,136,,Sold,,,https://www.redfin.com/MD/Prince-Frederick/1855-Kingswood-Dr-20678/unit-1/home/15108363,BRIGHT MLS,MDCA168458,N,Y,38.5592962,-76.5625432
PAST SALE,May-20-2019,Single Family Residential,360 S Shore Ter #1,Prince Frederick,MD,20678,395000,3,3.5,CHES HGTS,2145,95832,1994,930,184,,Sold,,,https://www.redfin.com/MD/Prince-Frederick/360-S-Shore-Dr-20678/unit-1/home/15103941,BRIGHT MLS,MDCA164974,N,Y,38.564731,-76.524473
PAST SALE,June-24-2019,Single Family Residential,240 Barstow Rd,Prince Frederick,MD,20678,251100,4,2.0,Prince Frederick,2000,54450,1961,895,126,,Sold,,,https://www.redfin.com/MD/Prince-Frederick/240-Barstow-Rd-20678/home/15105603,BRIGHT MLS,MDCA170076,N,Y,38.5271649,-76.6229269
PAST SALE,December-2-2019,Single Family Residential,905 Main St,Prince Frederick,MD,20678,290000,5,3.0,Prince Frederick,2279,21780,1978,734,127,,Sold,,,https://www.redfin.com/MD/Prince-Frederick/905-Main-St-20678/home/15105183,BRIGHT MLS,MDCA168774,N,Y,38.5297669,-76.5769303
PAST SALE,March-16-2020,Single Family Residential,1000 Spyglass Way,Prince Frederick,MD,20678,520000,4,3.5,OAKLAND HALL,3819,28211,2017,629,136,50,Sold,,,https://www.redfin.com/MD/Prince-Frederick/1000-Spyglass-Way-20678/home/104272656,BRIGHT MLS,MDCA173426,N,Y,38.5016256,-76.5624126
PAST SALE,June-28-2019,Single Family Residential,3315 Southern Pine Ln,Port Republic,MD,20676,350000,3,2.5,JOHN W SPIVEY PROP,1916,130680,1993,891,183,,Sold,,,https://www.redfin.com/MD/Port-Republic/3315-Southern-Pine-Ln-20676/home/15107036,BRIGHT MLS,MDCA169798,N,Y,38.487388,-76.560315
PAST SALE,September-13-2019,Single Family Residential,19 Goldstein Rd,Prince Frederick,MD,20678,425000,3,2.5,DARES BEACH,1728,77972,2019,814,246,,Sold,,,https://www.redfin.com/MD/Prince-Frederick/19-Goldstein-Rd-20678/home/15108839,BRIGHT MLS,MDCA170856,N,Y,38.5547068,-76.5243232
PAST SALE,November-30-2021,Townhouse,519 English Oak Ln,Prince Frederick,MD,20678,353500,3,3.5,OAK TREE LANDING,2474,3039,2017,5,143,75,Sold,,,https://www.redfin.com/MD/Prince-Frederick/519-English-Oak-Ln-20678/home/23131459,BRIGHT MLS,MDCA2000077,N,Y,38.5449229,-76.577601
PAST SALE,May-11-2020,Townhouse,659 Burr Oak Ct,Prince Frederick,MD,20678,302500,3,2.5,OAK TREE LANDING,2924,3090,2010,573,103,75,Sold,,,https://www.redfin.com/MD/Prince-Frederick/659-Burr-Oak-Ct-20678/home/23130090,BRIGHT MLS,MDCA174722,N,Y,38.547686,-76.578112
PAST SALE,,Townhouse,508 English Oak Ln,Prince Frederick,MD,20678,310000,,2.5,,2006,2527,2016,,155,,,,,https://www.redfin.com/MD/Prince-Frederick/508-English-Oak-Ln-20678/home/23130808,,,N,Y,38.545191,-76.576949
PAST SALE,April-23-2019,Single Family Residential,455 Bradbury Ln,Prince Frederick,MD,20678,438000,4,3.5,COLLEGE STATION,2016,33711,2014,957,217,100,Sold,,,https://www.redfin.com/MD/Prince-Frederick/455-Bradbury-Ln-20678/home/17374234,BRIGHT MLS,1001913716,N,Y,38.5453441,-76.6121401
PAST SALE,April-9-2020,Townhouse,414 English Oak Ln,Prince Frederick,MD,20678,332500,4,3.5,OAK TREE LANDING,2761,3106,2013,605,120,75,Sold,,,https://www.redfin.com/MD/Prince-Frederick/414-English-Oak-Ln-20678/home/23130101,BRIGHT MLS,MDCA174684,N,Y,38.546741,-76.5774996
PAST SALE,October-18-2019,Townhouse,397 English Oak Ln,Prince Frederick,MD,20678,341000,3,3.5,OAK TREE LANDING,2761,3107,2012,779,124,75,Sold,,,https://www.redfin.com/MD/Prince-Frederick/397-English-Oak-Ln-20678/home/23130082,BRIGHT MLS,MDCA171650,N,Y,38.546696,-76.578204
PAST SALE,May-19-2020,Townhouse,456 English Oak Ln,Prince Frederick,MD,20678,306000,4,3.5,OAK TREE LANDING,2542,2279,2014,565,120,75,Sold,,,https://www.redfin.com/MD/Prince-Frederick/456-English-Oak-Ln-20678/home/23130111,BRIGHT MLS,MDCA174354,N,Y,38.5461638,-76.576884
PAST SALE,July-5-2019,Townhouse,462 English Oak Ln,Prince Frederick,MD,20678,343000,4,3.5,OAK TREE LANDING,2747,3053,2014,884,125,75,Sold,,,https://www.redfin.com/MD/Prince-Frederick/462-English-Oak-Ln-20678/home/23130113,BRIGHT MLS,MDCA169162,N,Y,38.546029,-76.576804
PAST SALE,October-23-2020,Single Family Residential,1911 Kathleens Way,Prince Frederick,MD,20678,619900,4,4.0,SIMMONS' RIDGE,5037,41617,2016,408,123,21,Sold,,,https://www.redfin.com/MD/Prince-Frederick/1911-Kathleens-Way-20678/home/23130141,BRIGHT MLS,MDCA178458,N,Y,38.5473867,-76.552973
PAST SALE,June-17-2019,Single Family Residential,1905 Resting Ridge Ln,Prince Frederick,MD,20678,509000,4,3.5,SIMMONS' RIDGE,4095,39955,2015,902,124,21,Sold,,,https://www.redfin.com/MD/Prince-Frederick/1905-Resting-Ridge-Ln-20678/home/23130130,BRIGHT MLS,MDCA165174,N,Y,38.5495413,-76.5542236
PAST SALE,June-28-2019,Single Family Residential,1907 Kathleens Way,Prince Frederick,MD,20678,551000,4,3.5,SIMMONS' RIDGE,4856,37064,2017,891,113,21,Sold,,,https://www.redfin.com/MD/Prince-Frederick/1907-Kathleens-Way-20678/home/23130139,BRIGHT MLS,MDCA168958,N,Y,38.5476202,-76.5538821
PAST SALE,August-28-2020,Townhouse,451 English Oak Ln,Prince Frederick,MD,20678,315000,3,3.0,OAK TREE LANDING,2419,2382,2015,464,130,25,Sold,,,https://www.redfin.com/MD/Prince-Frederick/451-English-Oak-Ln-20678/home/23130778,BRIGHT MLS,MDCA177394,N,Y,38.545996,-76.5774409
PAST SALE,May-17-2019,Townhouse,721 Pin Oak Ct,Prince Frederick,MD,20678,317000,3,2.5,OAK TREE LANDING,2462,2678,2016,933,129,75,Sold,,,https://www.redfin.com/MD/Prince-Frederick/721-Pin-Oak-Ct-20678/home/23130793,BRIGHT MLS,MDCA140388,N,Y,38.5453244,-76.5779199
PAST SALE,,Townhouse,716 Pin Oak Ct,Prince Frederick,MD,20678,315000,,3.0,,2344,2266,2016,,134,,,,,https://www.redfin.com/MD/Prince-Frederick/716-Pin-Oak-Ct-20678/home/23130796,,,N,Y,38.545786,-76.57789
PAST SALE,March-27-2020,Townhouse,741 Pin Oak Ct,Prince Frederick,MD,20678,287000,3,2.5,OAK TREE LANDING,2257,2236,2016,618,127,75,Sold,,,https://www.redfin.com/MD/Prince-Frederick/741-Pin-Oak-Ct-20678/home/23130789,BRIGHT MLS,MDCA173924,N,Y,38.545219,-76.577595
PAST SALE,January-21-2021,Townhouse,708 Pin Oak Ct,Prince Frederick,MD,20678,330000,3,3.5,OAK TREE LANDING,2401,2428,2016,318,137,75,Sold,,,https://www.redfin.com/MD/Prince-Frederick/708-Pin-Oak-Ct-20678/home/23130798,BRIGHT MLS,MDCA180176,N,Y,38.545838,-76.578032
PAST SALE,September-14-2020,Townhouse,500 English Oak Ln,Prince Frederick,MD,20678,327000,4,3.5,OAK TREE LANDING,2502,3453,2016,447,131,75,Sold,,,https://www.redfin.com/MD/Prince-Frederick/500-English-Oak-Ln-20678/home/23130801,BRIGHT MLS,MDCA177640,N,Y,38.545325,-76.5768949
PAST SALE,April-3-2019,Single Family Residential,85 Simmons Ridge Rd,Prince Frederick,MD,20678,498500,4,3.0,SIMMONS' RIDGE,3110,37735,2018,977,160,21,Sold,,,https://www.redfin.com/MD/Prince-Frederick/85-Simmons-Ridge-Rd-20678/home/23128156,BRIGHT MLS,1001647626,N,Y,38.5509005,-76.5557506
PAST SALE,August-16-2019,Single Family Residential,2925 Honey Cove Ct,Prince Frederick,MD,20678,299900,5,4.0,HONEY COVE ESTS,5500,217800,1980,842,55,,Sold,,,https://www.redfin.com/MD/Prince-Frederick/2925-Honey-Cove-Ct-20678/home/15107260,BRIGHT MLS,MDCA170408,N,Y,38.4743306,-76.6022327
PAST SALE,,Townhouse,704 Pin Oak Ct,Prince Frederick,MD,20678,310000,,3.5,,2381,2230,2016,,130,,,,,https://www.redfin.com/MD/Prince-Frederick/704-Pin-Oak-Ct-20678/home/23130791,,,N,Y,38.545864,-76.578102
PAST SALE,,Vacant Land,1740 Dares Beach Rd,Prince Frederick,MD,20678,300000,,,,,1274130,,,,,,,,https://www.redfin.com/MD/Prince-Frederick/1740-Dares-Beach-Rd-20678/home/17376829,,,N,Y,38.556365,-76.56132
PAST SALE,June-21-2019,Townhouse,360 English Oak Ln,Prince Frederick,MD,20678,295000,4,3.0,OAK TREE LANDING,2676,2277,2009,898,110,75,Sold,,,https://www.redfin.com/MD/Prince-Frederick/360-English-Oak-Ln-20678/home/17962757,BRIGHT MLS,MDCA169122,N,Y,38.547202,-76.578833
PAST SALE,January-18-2019,Single Family Residential,1421 Emma St,Prince Frederick,MD,20678,449900,4,3.5,GALLAHANS CHOICE,2892,43355,2015,1052,156,29,Sold,,,https://www.redfin.com/MD/Prince-Frederick/1421-Emma-St-20678/home/23127892,BRIGHT MLS,MDCA106648,N,Y,38.5183497,-76.5796901
PAST SALE,December-18-2020,Single Family Residential,59 Simmons Ridge Rd,Prince Frederick,MD,20678,369239,3,2.5,SIMMONS' RIDGE,2000,46609,,352,185,,Sold,,,https://www.redfin.com/MD/Prince-Frederick/59-Simmons-Ridge-Rd-20678/home/52918426,BRIGHT MLS,MDCA180314,N,Y,38.5529815,-76.5566554
PAST SALE,,Single Family Residential,341 Rachaels Way,Prince Frederick,MD,20678,222500,,2.5,,1308,10037,1995,,170,,,,,https://www.redfin.com/MD/Prince-Frederick/341-Rachaels-Way-20678/home/15102093,,,N,Y,38.531052,-76.5737699
PAST SALE,,Unknown,85 Jibsail Dr,Prince Frederick,MD,20678,350000,,,,,87120,,,,,,,,https://www.redfin.com/MD/Prince-Frederick/85-Jibsail-Dr-20678/home/52918407,,,N,Y,38.511154,-76.6366244
PAST SALE,January-25-2021,Vacant Land,75 Jibsail Dr,Prince Frederick,MD,20678,350000,,,CAL CO INDUSTRIAL PARK,,88427,,314,,,Sold,,,https://www.redfin.com/MD/Prince-Frederick/75-Jibsail-Dr-20678/home/52918406,BRIGHT MLS,MDCA177376,N,Y,38.5105854,-76.6365231
PAST SALE,October-15-2021,Townhouse,358 Cambridge Pl,Prince Frederick,MD,20678,338000,3,3.0,CHAPLINE PLACE,2180,1940,2002,51,155,72,Sold,,,https://www.redfin.com/MD/Prince-Frederick/358-Cambridge-Pl-20678/home/15099576,BRIGHT MLS,MDCA2000620,N,Y,38.549928,-76.598173
PAST SALE,October-7-2020,Single Family Residential,116 Terrace Dr,Prince Frederick,MD,20678,375000,4,3.0,FRIENDLY ACRES,1842,67518,1986,424,204,,Sold,,,https://www.redfin.com/MD/Prince-Frederick/116-Terrace-Dr-20678/home/15105040,BRIGHT MLS,MDCA177976,N,Y,38.5512403,-76.560586
PAST SALE,July-28-2021,Townhouse,440 English Oak Ln,Prince Frederick,MD,20678,350000,3,2.5,OAK TREE LANDING,2976,3327,2014,130,118,75,Sold,,,https://www.redfin.com/MD/Prince-Frederick/440-English-Oak-Ln-20678/home/23130108,BRIGHT MLS,MDCA183498,N,Y,38.5464072,-76.5770632
PAST SALE,December-21-2018,Single Family Residential,121 Thoroughbred Dr,Prince Frederick,MD,20678,309000,4,2.5,PRINCE FREDERICK WOODS,1590,6355,2012,1080,194,63,Sold,,,https://www.redfin.com/MD/Prince-Frederick/121-Thoroughbred-Dr-20678/home/17374719,BRIGHT MLS,1002090628,N,Y,38.5318635,-76.5906076
PAST SALE,June-10-2021,Townhouse,356 English Oak Ln,Prince Frederick,MD,20678,325000,3,3.0,OAK TREE LANDING,2051,2245,2009,178,158,75,Sold,,,https://www.redfin.com/MD/Prince-Frederick/356-English-Oak-Ln-20678/home/21639269,BRIGHT MLS,MDCA182532,N,Y,38.5472139,-76.578909
PAST SALE,March-6-2019,Single Family Residential,2155 Saint Margaret Blvd,Prince Frederick,MD,20678,500000,4,2.5,OAKLAND HALL,4139,33855,2018,1005,121,50,Sold,,,https://www.redfin.com/MD/PRINCE-FREDERICK/2155-SAINT-MARGARET-BLVD-20678/home/104272683,BRIGHT MLS,1006261630,N,Y,38.503444,-76.558665
PAST SALE,January-31-2020,Single Family Residential,126 Oakland Hall Rd,Prince Frederick,MD,20678,529940,5,3.5,OAKLAND HALL,4800,32594,2020,674,110,50,Sold,,,https://www.redfin.com/MD/Prince-Frederick/126-Oakland-Hall-Rd-20678/home/104272697,BRIGHT MLS,MDCA174408,N,Y,38.5006817,-76.5524041
PAST SALE,December-17-2019,Single Family Residential,2415 Stoakley Rd,Prince Frederick,MD,20678,365000,4,2.5,Prince Frederick,3250,87120,1993,719,112,,Sold,,,https://www.redfin.com/MD/Prince-Frederick/2415-Stoakley-Rd-20678/home/15108297,BRIGHT MLS,MDCA172834,N,Y,38.5517605,-76.6302409
PAST SALE,September-27-2019,Single Family Residential,4324 Cassell Blvd,Prince Frederick,MD,20678,315000,3,1.5,CHES HGTS,1176,15023,1977,800,268,6,Sold,,,https://www.redfin.com/MD/Prince-Frederick/4324-Cassell-Blvd-20678/home/15108580,BRIGHT MLS,MDCA168792,N,Y,38.566499,-76.5221552
PAST SALE,September-30-2020,Single Family Residential,308 Saint Phillips Ct,Prince Frederick,MD,20678,565000,4,4.0,OAKLAND HALL,4204,29091,2015,431,134,50,Sold,,,https://www.redfin.com/MD/Prince-Frederick/308-St-Phillips-Ct-20678/home/75125200,BRIGHT MLS,MDCA177988,N,Y,38.5032738,-76.5569118
PAST SALE,August-31-2020,Single Family Residential,2215 Saint Margaret Blvd,Prince Frederick,MD,20678,555000,4,3.5,OAKLAND HALL,3890,32521,2015,461,143,50,Sold,,,https://www.redfin.com/MD/Prince-Frederick/2215-St-Margaret-s-Blvd-20678/home/66022884,BRIGHT MLS,MDCA177692,N,Y,38.5038417,-76.5563355
PAST SALE,,Single Family Residential,2084 St Margaret's Blvd,Prince Frederick,MD,20678,615000,,3.5,,3644,39345,2016,,169,,,,,https://www.redfin.com/MD/Prince-Frederick/2084-St-Margaret-s-Blvd-20678/home/104272654,,,N,Y,38.502705,-76.5623173
PAST SALE,August-19-2021,Single Family Residential,2050 St Pauls Ct,Prince Frederick,MD,20678,636793,6,4.0,OAKLAND HALL,4254,28029,2021,108,150,50,Sold,,,https://www.redfin.com/MD/Prince-Frederick/2050-St-Pauls-Ct-20678/home/174314317,BRIGHT MLS,MDCA180880,N,Y,38.5020265,-76.5669533
PAST SALE,August-26-2021,Single Family Residential,2061 St Pauls Ct,Prince Frederick,MD,20678,643548,5,3.5,OAKLAND HALL,4325,84071,2021,101,149,50,Sold,,,https://www.redfin.com/MD/Prince-Frederick/2061-St-Pauls-Ct-20678/home/174399902,BRIGHT MLS,MDCA181564,N,Y,38.5002518,-76.5684577
PAST SALE,August-12-2021,Single Family Residential,2069 St Pauls Ct,Prince Frederick,MD,20678,572301,4,3.5,OAKLAND HALL,3800,35947,,115,151,50,Sold,,,https://www.redfin.com/MD/Prince-Frederick/2069-St-Pauls-Ct-20678/home/174285082,BRIGHT MLS,MDCA180782,N,Y,38.5020265,-76.5669533
PAST SALE,September-24-2020,Single Family Residential,2409 Senate Ct,Prince Frederick,MD,20678,526354,4,2.5,OAKLAND HALL,2694,40712,2020,437,195,50,Sold,,,https://www.redfin.com/MD/Prince-Frederick/2409-Senate-Ct-20678/home/109852174,BRIGHT MLS,MDCA175824,N,Y,38.5003764,-76.5554372
PAST SALE,September-10-2020,Single Family Residential,154 Oakland Hall Rd,Prince Frederick,MD,20678,555987,4,3.5,OAKLAND HALL,4900,32680,2020,451,113,50,Sold,,,https://www.redfin.com/MD/Prince-Frederick/154-Oakland-Hall-Rd-20678/home/109852222,BRIGHT MLS,MDCA178564,N,Y,38.4989589,-76.5547124
PAST SALE,January-22-2021,Single Family Residential,2404 Comptrollers Ct,Prince Frederick,MD,20678,548870,4,2.5,OAKLAND HALL,3055,36766,2020,317,180,50,Sold,,,https://www.redfin.com/MD/Prince-Frederick/2404-Comptrollers-Ct-20678/home/109852227,BRIGHT MLS,MDCA179522,N,Y,38.5010869,-76.5600993
PAST SALE,November-20-2020,Single Family Residential,186 Oakland Hall Rd,Prince Frederick,MD,20678,549471,4,3.0,OAKLAND HALL,3558,32444,2020,380,154,50,Sold,,,https://www.redfin.com/MD/Prince-Frederick/186-Oakland-Hall-Rd-20678/home/109852192,BRIGHT MLS,MDCA176560,N,Y,38.4969624,-76.5574276
PAST SALE,October-9-2020,Single Family Residential,1070 Clay Hammond Rd,Prince Frederick,MD,20678,590000,4,3.0,Prince Frederick,4042,344995,1974,422,146,,Sold,,,https://www.redfin.com/MD/Prince-Frederick/1070-Clay-Hammond-Rd-20678/home/15106286,BRIGHT MLS,MDCA177678,N,Y,38.570562,-76.566782
PAST SALE,,Single Family Residential,1300 Adelina Rd,Prince Frederick,MD,20678,100000,,2.0,,1290,11456,1946,,78,,,,,https://www.redfin.com/MD/Prince-Frederick/1300-Adelina-Rd-20678/home/15106282,,,N,Y,38.4952319,-76.6220975
PAST SALE,February-5-2021,Single Family Residential,510 German Chapel Rd,Prince Frederick,MD,20678,145000,2,1.0,Prince Frederick,941,39204,1950,303,154,,Sold,,,https://www.redfin.com/MD/Prince-Frederick/510-German-Chapel-Rd-20678/home/15106248,BRIGHT MLS,MDCA179520,N,Y,38.5136544,-76.5690744
PAST SALE,March-1-2021,Single Family Residential,140 Dares Wharf Rd,Prince Frederick,MD,20678,522500,4,3.5,Prince Frederick,2614,56628,2020,279,200,,Sold,,,https://www.redfin.com/MD/Prince-Frederick/140-Dares-Wharf-Rd-20678/home/17377035,BRIGHT MLS,MDCA174990,N,Y,38.5590877,-76.5193735
PAST SALE,March-12-2021,Single Family Residential,235 Tate Rd,Prince Frederick,MD,20678,300500,3,2.0,Prince Frederick,1600,21780,1971,268,188,,Sold,,,https://www.redfin.com/MD/Prince-Frederick/235-Tate-Rd-20678/home/15106691,BRIGHT MLS,MDCA180694,N,Y,38.5369237,-76.5940945
PAST SALE,February-22-2021,Single Family Residential,1895 German Chapel Rd,Prince Frederick,MD,20678,640000,4,3.0,Prince Frederick,3465,57935,1966,286,185,,Sold,,,https://www.redfin.com/MD/Prince-Frederick/1895-German-Chapel-Rd-20678/home/15105836,BRIGHT MLS,MDCA178658,N,Y,38.518309,-76.5903834
PAST SALE,November-6-2020,Single Family Residential,568 Hawk Hill Dr,Prince Frederick,MD,20678,375000,3,2.0,SOUTHGATE,1674,6195,2014,394,224,20,Sold,,,https://www.redfin.com/MD/Prince-Frederick/568-Hawk-Hill-Dr-20678/home/17373992,BRIGHT MLS,MDCA178602,N,Y,38.5335834,-76.5806323
PAST SALE,June-15-2020,Single Family Residential,5870 Hallowing Point Rd,Prince Frederick,MD,20678,470000,4,3.0,Prince Frederick,2760,345431,1992,538,170,,Sold,,,https://www.redfin.com/MD/Prince-Frederick/5870-Hallowing-Point-Rd-20678/home/15108538,BRIGHT MLS,MDCA174552,N,Y,38.508768,-76.653135
PAST SALE,December-30-2020,Vacant Land,4340 Blossom Ln,Prince Frederick,MD,20678,123000,,,DOGWOOD ESTS,,435600,,340,,,Sold,,,https://www.redfin.com/MD/Prince-Frederick/4340-Blossom-Ln-20678/home/17376880,BRIGHT MLS,MDCA156542,N,Y,38.502485,-76.619266
PAST SALE,June-19-2020,Single Family Residential,20 Arthur King Rd,Prince Frederick,MD,20678,277000,5,2.0,Prince Frederick,2568,74052,1992,534,108,,Sold,,,https://www.redfin.com/MD/Prince-Frederick/20-Arthur-King-Rd-20678/home/15105615,BRIGHT MLS,MDCA176098,N,Y,38.5515259,-76.5737699
PAST SALE,March-1-2019,Single Family Residential,3460 Sixes Rd,Prince Frederick,MD,20678,280000,5,1.5,Prince Frederick,1950,119790,1929,1010,144,,Sold,,,https://www.redfin.com/MD/Prince-Frederick/3460-Sixes-Rd-20678/home/15106401,BRIGHT MLS,MDCA130310,N,Y,38.4942462,-76.5993438
PAST SALE,April-8-2021,Single Family Residential,2765 Adelina Rd,Prince Frederick,MD,20678,441000,4,4.0,Prince Frederick,2600,75359,1958,241,170,,Sold,,,https://www.redfin.com/MD/Prince-Frederick/2765-Adelina-Rd-20678/home/15108526,BRIGHT MLS,MDCA181402,N,Y,38.4731029,-76.6179172
PAST SALE,February-25-2021,Single Family Residential,2494 Solomons Island Rd S,Prince Frederick,MD,20678,303000,3,2.0,PRINCE FREDERICK,1860,43560,1980,283,163,,Sold,,,https://www.redfin.com/MD/Prince-Frederick/2494-Solomons-Island-Rd-S-20678/home/15111094,BRIGHT MLS,MDCA179722,N,Y,38.5029049,-76.5453234
PAST SALE,,Single Family Residential,4825 Sandy Point Rd,Prince Frederick,MD,20678,125000,,2.0,,1218,17424,1920,,103,,,,,https://www.redfin.com/MD/Prince-Frederick/4825-Sandy-Point-Rd-20678/home/15105601,,,N,Y,38.4992905,-76.6242356
PAST SALE,January-31-2019,Single Family Residential,4223 Cassell Blvd,Prince Frederick,MD,20678,210000,3,1.0,CHES HGTS,1008,11899,1988,1039,208,,Sold,,,https://www.redfin.com/MD/Prince-Frederick/4223-Cassell-Blvd-20678/home/15103292,BRIGHT MLS,MDCA100158,N,Y,38.5659452,-76.5250007
PAST SALE,March-18-2019,Single Family Residential,2920 Dares Beach Rd,Prince Frederick,MD,20678,235000,2,1.0,Prince Frederick,1680,174240,1950,993,140,,Sold,,,https://www.redfin.com/MD/Prince-Frederick/2920-Dares-Beach-Rd-20678/home/15108447,BRIGHT MLS,MDCA124568,N,Y,38.559741,-76.544259
PAST SALE,,Vacant Land,239 Tate Rd,Prince Frederick,MD,20678,50000,,,,,337154,,,,,,,,https://www.redfin.com/MD/Prince-Frederick/239-Tate-Rd-20678/home/17376842,,,N,Y,38.537971,-76.592491
PAST SALE,,Other,40 Mason Rd,Prince Frederick,MD,20678,6000,,,,,17031,,,,,,,,https://www.redfin.com/MD/Prince-Frederick/40-Mason-Rd-20678/home/17376825,,,N,Y,38.5326641,-76.596658
PAST SALE,,Single Family Residential,149 Arthur King Rd,Prince Frederick,MD,20678,150000,,1.0,,1545,63162,1966,,97,,,,,https://www.redfin.com/MD/Prince-Frederick/149-Arthur-King-Rd-20678/home/15106046,,,N,Y,38.5500611,-76.5750341
PAST SALE,September-27-2019,Single Family Residential,5476 Hallowing Point Rd,Prince Frederick,MD,20678,280000,5,3.0,Prince Frederick,1856,39204,1971,800,151,,Sold,,,https://www.redfin.com/MD/Prince-Frederick/5476-Hallowing-Point-Rd-20678/home/15108279,BRIGHT MLS,MDCA170844,N,Y,38.5071561,-76.6451236
PAST SALE,October-5-2020,Single Family Residential,820 Main St,Prince Frederick,MD,20678,300000,3,2.0,PRINCE FREDERICK,1286,18133,1940,426,233,,Sold,,,https://www.redfin.com/MD/Prince-Frederick/820-Main-St-20678/home/15106886,BRIGHT MLS,MDCA178334,N,Y,38.5315158,-76.5781041
PAST SALE,February-15-2019,Single Family Residential,920 Main St,Prince Frederick,MD,20678,247500,4,3.0,CALVERT TOWNE,2548,15000,1972,1024,97,,Sold,,,https://www.redfin.com/MD/Prince-Frederick/920-Main-St-20678/home/15108615,BRIGHT MLS,1003708618,N,Y,38.5299755,-76.5762982
PAST SALE,August-14-2020,Single Family Residential,101 Calvert Towne Rd,Prince Frederick,MD,20678,429900,5,3.5,CALVERT TOWNE,3200,13625,,478,134,,Sold,,,https://www.redfin.com/MD/Prince-Frederick/101-Calvert-Towne-Rd-20678/home/17376849,BRIGHT MLS,MDCA174388,N,Y,38.5308805,-76.5775637
PAST SALE,July-19-2019,Single Family Residential,295 West Ave,Prince Frederick,MD,20678,225000,2,1.0,DARES BEACH,704,6969,1960,870,320,,Sold,,,https://www.redfin.com/MD/Prince-Frederick/295-West-Ave-20678/home/15105508,BRIGHT MLS,1002272574,N,Y,38.5625908,-76.5180682
PAST SALE,March-8-2019,Single Family Residential,4460 Woodview Ln,Prince Frederick,MD,20678,230000,3,2.5,DARES BEACH,1568,13117,1996,1003,147,,Sold,,,https://www.redfin.com/MD/Prince-Frederick/4460-Woodview-Ln-20678/home/15105526,BRIGHT MLS,MDCA140428,N,Y,38.5630294,-76.5221101
PAST SALE,March-16-2021,Single Family Residential,320 Dares Wharf Rd,Prince Frederick,MD,20678,375000,3,2.0,DARES BEACH,2857,69954,1965,264,131,,Sold,,,https://www.redfin.com/MD/Prince-Frederick/320-Dares-Wharf-Rd-20678/home/15108168,BRIGHT MLS,MDCA174998,N,Y,38.5615301,-76.518587
PAST SALE,,Single Family Residential,210 Bay Ave,Prince Frederick,MD,20678,178000,,1.0,,924,4000,1946,,193,,,,,https://www.redfin.com/MD/Prince-Frederick/210-Bay-Ave-20678/home/15106163,,,N,Y,38.5606447,-76.5168707
PAST SALE,,Vacant Land,30 Macrae Ave,Prince Frederick,MD,20678,10500,,,,,3600,,,,,,,,https://www.redfin.com/MD/Prince-Frederick/30-Macrae-Ave-20678/home/17376810,,,N,Y,38.5561123,-76.5169502
PAST SALE,March-17-2020,Single Family Residential,271 Chesapeake Ave,Prince Frederick,MD,20678,875000,4,4.5,DARES BEACH,4400,13386,2007,628,199,,Sold,,,https://www.redfin.com/MD/Prince-Frederick/271-Chesapeake-Ave-20678/home/15106150,BRIGHT MLS,MDCA169964,N,Y,38.562373,-76.515998
PAST SALE,June-5-2020,Single Family Residential,144 Windcliff Rd,Prince Frederick,MD,20678,470000,5,3.0,WINDCLIFF,2314,19602,1985,548,203,,Sold,,,https://www.redfin.com/MD/Prince-Frederick/144-Windcliff-Rd-20678/home/15106592,BRIGHT MLS,MDCA170484,N,Y,38.5532085,-76.5158092
PAST SALE,September-16-2019,Single Family Residential,3810 Cassell Blvd,Prince Frederick,MD,20678,242000,3,2.0,CHES HGTS,1274,11360,1979,811,190,,Sold,,,https://www.redfin.com/MD/Prince-Frederick/3810-Cassell-Blvd-20678/home/15106519,BRIGHT MLS,MDCA171404,N,Y,38.566213,-76.532814
PAST SALE,,Single Family Residential,4015 Cassell Blvd,Prince Frederick,MD,20678,254900,,1.0,,1808,15114,1985,,141,,,,,https://www.redfin.com/MD/Prince-Frederick/4015-Cassell-Blvd-20678/home/15105756,,,N,Y,38.5659384,-76.5294268
PAST SALE,February-8-2019,Single Family Residential,4120 Cassell Blvd,Prince Frederick,MD,20678,284700,3,2.0,CHES HGTS,1439,9904,1985,1031,198,,Sold,,,https://www.redfin.com/MD/Prince-Frederick/4120-Cassell-Blvd-20678/home/15105694,BRIGHT MLS,1009950578,N,Y,38.5670093,-76.5272137
PAST SALE,,Vacant Land,4404 Ridgeway Ter,Prince Frederick,MD,20678,6000,,,,,16330,,,,,,,,https://www.redfin.com/MD/Prince-Frederick/4404-Ridgeway-Ter-20678/home/17376697,,,N,Y,38.568134,-76.521369
PAST SALE,August-31-2021,Single Family Residential,2441 Abigail Ct,Prince Frederick,MD,20678,550000,4,3.5,WHISPERING WOODS,3037,71874,1997,96,181,26,Sold,,,https://www.redfin.com/MD/Prince-Frederick/2441-Abigail-Ct-20678/home/15106109,BRIGHT MLS,MDCA2000762,N,Y,38.4989109,-76.5444429
PAST SALE,September-9-2019,Single Family Residential,495 Seagull Beach Rd,Prince Frederick,MD,20678,1058000,7,8.0,Prince Frederick,10005,186001,1998,818,106,,Sold,,,https://www.redfin.com/MD/Prince-Frederick/495-Seagull-Beach-Rd-20678/home/15107011,BRIGHT MLS,1000107213,N,Y,38.5013479,-76.6620718
PAST SALE,October-1-2021,Single Family Residential,675 Stratton Pl,Prince Frederick,MD,20678,563000,5,3.5,COLLEGE STATION,3412,46609,2012,65,165,33,Sold,,,https://www.redfin.com/MD/Prince-Frederick/675-Stratton-Pl-20678/home/17374299,BRIGHT MLS,MDCA2000066,N,Y,38.547577,-76.618188
PAST SALE,December-27-2019,Single Family Residential,5458 Hallowing Point Rd,Prince Frederick,MD,20678,13200,2,2.0,CALVERT MOBILE HOME PARK,1000,,1999,709,13,,Sold,,,https://www.redfin.com/MD/Prince-Frederick/5458-Hallowing-Point-Rd-20678/home/21651896,BRIGHT MLS,MDCA171158,N,Y,38.5074257,-76.644421
PAST SALE,May-30-2019,Single Family Residential,4305 Flora Ave,Prince Frederick,MD,20678,285000,3,2.0,CHES HGTS,1404,16139,1979,920,203,,Sold,,,https://www.redfin.com/MD/Prince-Frederick/4305-Flora-Ave-20678/home/15104412,BRIGHT MLS,MDCA168984,N,Y,38.5666381,-76.5236909
PAST SALE,July-15-2021,Single Family Residential,3133 Blackberry Ln,Prince Frederick,MD,20678,565000,4,3.5,WHISPERING WOODS,3556,62726,1997,143,159,26,Sold,,,https://www.redfin.com/MD/Prince-Frederick/3133-Blackberry-Ln-20678/home/15107396,BRIGHT MLS,MDCA182788,N,Y,38.4957445,-76.5463395
PAST SALE,May-10-2019,Single Family Residential,2471 Abigail Ct,Prince Frederick,MD,20678,450000,5,3.5,WHISPERING WOODS,3254,87120,2002,940,138,26,Sold,,,https://www.redfin.com/MD/Prince-Frederick/2471-Abigail-Ct-20678/home/15110048,BRIGHT MLS,MDCA164656,N,Y,38.4981185,-76.5447364
PAST SALE,July-22-2019,Single Family Residential,2540 Fawn Ln,Prince Frederick,MD,20678,405000,4,2.5,WILD DEER CROSSING,2627,47916,1988,867,154,,Sold,,,https://www.redfin.com/MD/Prince-Frederick/2540-Fawn-Ln-20678/home/15104963,BRIGHT MLS,MDCA169850,N,Y,38.5598103,-76.5480329
PAST SALE,March-30-2020,Single Family Residential,3105 Whispering Dr,Prince Frederick,MD,20678,440000,3,3.5,WHISPERING WOODS,3099,43560,1995,615,142,26,Sold,,,https://www.redfin.com/MD/Prince-Frederick/3105-Whispering-Dr-20678/home/15110054,BRIGHT MLS,MDCA174108,N,Y,38.4974455,-76.5545354
PAST SALE,February-28-2020,Single Family Residential,2664 Sequoia Way,Prince Frederick,MD,20678,505000,5,3.5,WHISPERING WOODS,3344,43560,1999,646,151,27,Sold,,,https://www.redfin.com/MD/Prince-Frederick/2664-Sequoia-Way-20678/home/15090512,BRIGHT MLS,MDCA174222,N,Y,38.49421,-76.551792
PAST SALE,,Single Family Residential,955 Cedar Point Ln,Prince Frederick,MD,20678,399900,,2.5,,1992,142441,1985,,201,,,,,https://www.redfin.com/MD/Prince-Frederick/955-Cedar-Point-Ln-20678/home/15103547,,,N,Y,38.5689245,-76.627485
PAST SALE,September-22-2021,Single Family Residential,1804 Crofton Ct,Prince Frederick,MD,20678,244000,2,1.0,YARDLEY HILLS,864,10511,2003,74,282,,Sold,,,https://www.redfin.com/MD/Prince-Frederick/1804-Crofton-Ct-20678/home/15090833,BRIGHT MLS,MDCA183534,N,Y,38.5292574,-76.5999532
PAST SALE,July-21-2021,Single Family Residential,2082 St Pauls Ct,Prince Frederick,MD,20678,702535,4,3.0,OAKLAND HALL,3706,92783,2021,137,190,50,Sold,,,https://www.redfin.com/MD/Prince-Frederick/2082-St-Pauls-Ct-20678/home/174399912,BRIGHT MLS,MDCA181490,N,Y,38.5020265,-76.5669533
PAST SALE,January-29-2019,Single Family Residential,2470 Wood Acres Ct,Prince Frederick,MD,20678,384165,3,2.5,Prince Frederick,2358,436907,1988,1041,163,,Sold,,,https://www.redfin.com/MD/Prince-Frederick/2470-Wood-Acres-Ct-20678/home/15109898,BRIGHT MLS,1006064566,N,Y,38.507297,-76.544785
PAST SALE,April-15-2019,Single Family Residential,4115 Cassell Blvd,Prince Frederick,MD,20678,334900,3,3.0,CHES HGTS,1954,13347,1980,965,171,,Sold,,,https://www.redfin.com/MD/Prince-Frederick/4115-Cassell-Blvd-20678/home/15107387,BRIGHT MLS,MDCA162226,N,Y,38.5665715,-76.5272589
PAST SALE,January-29-2021,Single Family Residential,4155 Valley Lee Ct,Prince Frederick,MD,20678,515000,5,3.5,VALLEY LEE,2848,84071,1988,310,181,,Sold,,,https://www.redfin.com/MD/Prince-Frederick/4155-Valley-Lee-Ct-20678/home/15104764,BRIGHT MLS,MDCA179534,N,Y,38.5105029,-76.6207606
PAST SALE,August-29-2019,Single Family Residential,1561 German Chapel Rd,Prince Frederick,MD,20678,330000,3,3.0,Prince Frederick,1728,164657,1989,829,191,,Sold,,,https://www.redfin.com/MD/Prince-Frederick/1561-German-Chapel-Rd-20678/home/15103416,BRIGHT MLS,MDCA169320,N,Y,38.5182553,-76.5819415
PAST SALE,,Other,4245 Leitches Wharf Rd,Prince Frederick,MD,20678,120000,,,,,217800,,,,,,,,https://www.redfin.com/MD/Prince-Frederick/4245-Leitches-Wharf-Rd-20678/home/17376437,,,N,Y,38.549161,-76.652202
PAST SALE,November-19-2019,Single Family Residential,4223 N Shore Dr,Prince Frederick,MD,20678,315000,3,2.5,CHES HGTS,1740,15274,1975,747,181,,Sold,,,https://www.redfin.com/MD/Prince-Frederick/4223-N-Shore-Dr-20678/home/15107968,BRIGHT MLS,MDCA172676,N,Y,38.5684187,-76.526175
PAST SALE,April-17-2019,Single Family Residential,190 Heather Rd,Prince Frederick,MD,20678,125000,3,2.0,Prince Frederick,1520,39988,1987,963,82,,Sold,,,https://www.redfin.com/MD/Prince-Frederick/190-Heather-Rd-20678/home/15105012,BRIGHT MLS,1003355238,N,Y,38.5319985,-76.604467
PAST SALE,December-11-2020,Single Family Residential,3755 Leitches Wharf Rd,Prince Frederick,MD,20678,490000,5,2.5,Prince Frederick,2755,37374,2004,359,178,,Sold,,,https://www.redfin.com/MD/Prince-Frederick/3755-Leitches-Wharf-Rd-20678/home/15103180,BRIGHT MLS,MDCA179230,N,Y,38.552266,-76.642731
PAST SALE,July-31-2021,Single Family Residential,4020 Cassell Blvd,Prince Frederick,MD,20678,322000,3,2.5,CHES HGTS,1827,10535,1977,127,176,,Sold,,,https://www.redfin.com/MD/Prince-Frederick/4020-Cassell-Blvd-20678/home/15105741,BRIGHT MLS,MDCA182992,N,Y,38.5664707,-76.5291558
PAST SALE,July-15-2021,Townhouse,516 English Oak Ln,Prince Frederick,MD,20678,330000,3,3.5,OAK TREE LANDING,2124,2684,2016,143,155,75,Sold,,,https://www.redfin.com/MD/Prince-Frederick/516-English-Oak-Ln-20678/home/23130810,BRIGHT MLS,MDCA182216,N,Y,38.5450794,-76.5769827
PAST SALE,,Townhouse,378 English Oak Ln,Prince Frederick,MD,20678,285000,,2.5,,1728,2230,2012,,165,,,,,https://www.redfin.com/MD/Prince-Frederick/378-English-Oak-Ln-20678/home/23130086,,,N,Y,38.5470593,-76.5783298
PAST SALE,October-9-2020,Single Family Residential,1994 Dares Beach Rd,Prince Frederick,MD,20678,264900,3,2.0,DARES BEACH,2028,64469,1990,422,131,,Sold,,,https://www.redfin.com/MD/Prince-Frederick/1994-Dares-Beach-Rd-20678/home/15103159,BRIGHT MLS,MDCA175362,N,Y,38.5545917,-76.5589153
PAST SALE,June-12-2020,Single Family Residential,15 Old Time Dr,Prince Frederick,MD,20678,369900,3,2.0,Prince Frederick,2526,55321,1920,541,146,,Sold,,,https://www.redfin.com/MD/Prince-Frederick/15-Old-Time-Dr-20678/home/15105333,BRIGHT MLS,MDCA175350,N,Y,38.5342347,-76.6008108
PAST SALE,,Single Family Residential,1830 Squaw Valley Ln,Prince Frederick,MD,20678,400000,,2.0,,2408,230432,1987,,166,,,,,https://www.redfin.com/MD/Prince-Frederick/1830-Squaw-Valley-Ln-20678/home/15103051,,,N,Y,38.586004,-76.574201
PAST SALE,December-7-2020,Single Family Residential,250 Double Oak Rd N,Prince Frederick,MD,20678,400000,4,2.5,WILD DEER CROSSING,1948,43560,1991,363,205,,Sold,,,https://www.redfin.com/MD/Prince-Frederick/250-Double-Oak-Rd-N-20678/home/15103847,BRIGHT MLS,MDCA179540,N,Y,38.5624106,-76.5518486
PAST SALE,February-12-2021,Single Family Residential,315 J W Williams Rd,Prince Frederick,MD,20678,609000,7,5.5,WARBLESTON RESERVE,4600,118919,1995,296,132,,Sold,,,https://www.redfin.com/MD/Prince-Frederick/315-W-J-Williams-Rd-20678/unit-J/home/15103330,BRIGHT MLS,MDCA179954,N,Y,38.5416289,-76.612253
PAST SALE,November-23-2020,Single Family Residential,255 Cedar Beach Dr,Prince Frederick,MD,20678,490000,4,3.5,CEDAR BEACH,3200,144184,1993,377,153,25,Sold,,,https://www.redfin.com/MD/Prince-Frederick/255-Cedar-Beach-Dr-20678/home/15102838,BRIGHT MLS,MDCA177432,N,Y,38.5155504,-76.6509048
PAST SALE,August-23-2019,Single Family Residential,216 Caney Ct,Prince Frederick,MD,20678,544900,4,3.0,CEDAR BEACH,3181,48352,1999,835,171,25,Sold,,,https://www.redfin.com/MD/Prince-Frederick/216-Caney-Ct-20678/home/15104579,BRIGHT MLS,MDCA171140,N,Y,38.5138985,-76.6553267
PAST SALE,November-1-2019,Single Family Residential,905 Clay Hammond Rd,Prince Frederick,MD,20678,433500,5,3.5,Prince Frederick,3107,217800,1991,765,140,,Sold,,,https://www.redfin.com/MD/Prince-Frederick/905-Clay-Hammond-Rd-20678/home/15102750,BRIGHT MLS,MDCA169146,N,Y,38.5708461,-76.5614865
PAST SALE,April-20-2021,Single Family Residential,1071 Westfield Dr,Prince Frederick,MD,20678,717500,4,2.5,WESTFIELD STATION,2718,656014,1995,229,264,,Sold,,,https://www.redfin.com/MD/Prince-Frederick/1071-Westfield-Dr-20678/home/15104529,BRIGHT MLS,MDCA180656,N,Y,38.5631732,-76.6270563
PAST SALE,December-17-2019,Single Family Residential,1041 Westfield Dr,Prince Frederick,MD,20678,489900,4,2.5,WESTFIELD STATION,2360,96703,1992,719,208,,Sold,,,https://www.redfin.com/MD/Prince-Frederick/1041-Westfield-Dr-20678/home/15104527,BRIGHT MLS,MDCA172550,N,Y,38.5643593,-76.6270337
PAST SALE,March-5-2020,Single Family Residential,2196 Henry Hutchins Rd,Prince Frederick,MD,20678,405000,3,3.5,FOX HILL,2887,89734,1996,640,140,,Sold,,,https://www.redfin.com/MD/Prince-Frederick/2196-Henry-Hutchins-Rd-20678/home/15102747,BRIGHT MLS,MDCA174406,N,Y,38.4896869,-76.6054149
PAST SALE,December-20-2019,Single Family Residential,2200 Henry Hutchins Rd,Prince Frederick,MD,20678,310000,5,3.5,FOX HILL,3324,57935,1997,716,93,,Sold,,,https://www.redfin.com/MD/Prince-Frederick/2200-Henry-Hutchins-Rd-20678/home/15102746,BRIGHT MLS,MDCA171988,N,Y,38.489168,-76.604941
PAST SALE,February-26-2021,Single Family Residential,107 Gray Inn Ct,Prince Frederick,MD,20678,290000,2,2.0,GRAY INN COURT,1393,2378,1993,282,208,135,Sold,,,https://www.redfin.com/MD/Prince-Frederick/107-Gray-Inn-Ct-20678/home/15103670,BRIGHT MLS,MDCA179310,N,Y,38.5390952,-76.5874914
PAST SALE,March-14-2019,Single Family Residential,1611 Clay Hammond Rd,Prince Frederick,MD,20678,499900,4,3.5,HOMELAND,3974,130680,1999,997,126,2,Sold,,,https://www.redfin.com/MD/Prince-Frederick/1611-Clay-Hammond-Rd-20678/home/15103658,BRIGHT MLS,MDCA140292,N,Y,38.5735952,-76.5854628
PAST SALE,June-30-2020,Single Family Residential,7040 Homeland Ct,Prince Frederick,MD,20678,435000,3,2.0,HOMELAND,2262,130680,2002,523,192,2,Sold,,,https://www.redfin.com/MD/Prince-Frederick/7040-Homeland-Ct-20678/home/15103657,BRIGHT MLS,MDCA176274,N,Y,38.5731621,-76.588668
PAST SALE,,Single Family Residential,1680 Clay Hammond Rd,Prince Frederick,MD,20678,560000,,2.5,,2982,134165,1998,,188,,,,,https://www.redfin.com/MD/Prince-Frederick/1680-Clay-Hammond-Rd-20678/home/15104056,,,N,Y,38.5721168,-76.5859142
PAST SALE,,Condo/Co-op,112 Westlake Blvd #112,Prince Frederick,MD,20678,249900,,3.0,,1977,,1992,,126,,,,,https://www.redfin.com/MD/Prince-Frederick/112-Westlake-Blvd-20678/unit-112/home/15104007,,,N,Y,38.5319183,-76.5829271
PAST SALE,,Condo/Co-op,114 Westlake Blvd #114,Prince Frederick,MD,20678,245000,,3.0,,1948,,1992,,126,,,,,https://www.redfin.com/MD/Prince-Frederick/114-Westlake-Blvd-20678/unit-114/home/15103948,,,N,Y,38.5319881,-76.582946
PAST SALE,January-8-2021,Single Family Residential,30 Reids Ln,Prince Frederick,MD,20678,435000,4,2.5,Prince Frederick,2470,50965,1993,331,176,,Sold,,,https://www.redfin.com/MD/Prince-Frederick/30-Reids-Ln-20678/home/15102105,BRIGHT MLS,MDCA179694,N,Y,38.5276907,-76.6173756
PAST SALE,October-7-2020,Single Family Residential,2110 Natures Way,Prince Frederick,MD,20678,815000,5,6.0,CYPRESS KNOLLS,6438,466528,1996,424,127,,Sold,,,https://www.redfin.com/MD/Prince-Frederick/2110-Natures-Way-20678/home/15110249,BRIGHT MLS,MDCA175028,N,Y,38.4919574,-76.5829347
PAST SALE,July-23-2020,Single Family Residential,4116 Cassell Blvd,Prince Frederick,MD,20678,280000,3,2.0,CHES HGTS,1008,11475,1985,500,278,,Sold,,,https://www.redfin.com/MD/Prince-Frederick/4116-Cassell-Blvd-20678/home/15105693,BRIGHT MLS,MDCA176584,N,Y,38.5669551,-76.5274396
PAST SALE,August-25-2021,Single Family Residential,4995 Rumford Pl,Prince Frederick,MD,20678,540000,4,2.5,RUMFORD PLACE,2584,72310,2005,102,209,,Sold,,,https://www.redfin.com/MD/Prince-Frederick/4995-Rumford-Pl-20678/home/23135790,BRIGHT MLS,MDCA183260,N,Y,38.4852966,-76.6195646
PAST SALE,February-26-2021,Townhouse,205 Westlake Blvd #47,Prince Frederick,MD,20678,321000,3,3.0,WESTLAKE,2194,160,1998,282,146,253,Sold,,,https://www.redfin.com/MD/Prince-Frederick/205-Westlake-Blvd-20678/unit-47/home/15102579,BRIGHT MLS,MDCA180330,N,Y,38.531422,-76.583337
PAST SALE,June-27-2019,Single Family Residential,2130 Solomons Island Rd S,Prince Frederick,MD,20678,230000,3,1.5,Prince Frederick,1056,42078,1976,892,218,,Sold,,,https://www.redfin.com/MD/Prince-Frederick/2130-Solomons-Island-Rd-S-20678/home/15115885,BRIGHT MLS,MDCA154708,N,Y,38.5070215,-76.560586
PAST SALE,,Single Family Residential,73 Adderton Dr,Prince Frederick,MD,20678,420000,,2.5,,2638,39247,2002,,159,,,,,https://www.redfin.com/MD/Prince-Frederick/73-Adderton-Dr-20678/home/15091194,,,N,Y,38.5535041,-76.5672233
PAST SALE,,Single Family Residential,903 Augustus Dr,Prince Frederick,MD,20678,207000,,2.0,,1408,125975,1985,,147,,,,,https://www.redfin.com/MD/Prince-Frederick/903-Augustus-Dr-20678/home/15104801,,,N,Y,38.5414692,-76.6006303
PAST SALE,September-23-2020,Townhouse,512 English Oak Ln,Prince Frederick,MD,20678,310000,3,3.5,OAK TREE LANDING,2112,2644,2017,438,147,75,Sold,,,https://www.redfin.com/MD/Prince-Frederick/512-English-Oak-Ln-20678/home/23130809,BRIGHT MLS,MDCA177788,N,Y,38.545133,-76.576969
PAST SALE,February-28-2019,Single Family Residential,4301 Sixes Rd,Prince Frederick,MD,20678,297000,4,3.0,Prince Frederick,2069,135036,1996,1011,144,,Sold,,,https://www.redfin.com/MD/Prince-Frederick/4301-Sixes-Rd-20678/home/15104400,BRIGHT MLS,1006651464,N,Y,38.4922281,-76.6113277
PAST SALE,December-18-2020,Single Family Residential,2400 Comptrollers Ct,Prince Frederick,MD,20678,504126,4,3.5,OAKLAND HALL,3598,38626,2020,352,140,50,Sold,,,https://www.redfin.com/MD/Prince-Frederick/2400-Comptrollers-Ct-20678/home/109852225,BRIGHT MLS,MDCA180316,N,Y,38.5010044,-76.5606755
PAST SALE,,Single Family Residential,1250 Stoakley Rd,Prince Frederick,MD,20678,300000,,1.0,,1176,649915,1940,,255,,,,,https://www.redfin.com/MD/Prince-Frederick/1250-Stoakley-Rd-20678/home/15108808,,,N,Y,38.555148,-76.619078
PAST SALE,July-15-2020,Single Family Residential,5505 Sandy Point Rd,Prince Frederick,MD,20678,369900,3,2.0,Prince Frederick,1858,76230,2020,508,199,,Sold,,,https://www.redfin.com/MD/Prince-Frederick/5505-Sandy-Point-Rd-20678/home/15106258,BRIGHT MLS,MDCA174596,N,Y,38.4945061,-76.6355177
PAST SALE,October-28-2021,Single Family Residential,2124 Saint Margaret Blvd,Prince Frederick,MD,20678,660000,5,3.5,OAKLAND HALL,4561,43560,2015,38,145,50,Sold,,,https://www.redfin.com/MD/Prince-Frederick/2124-St-Margaret-s-Blvd-20678/home/79110771,BRIGHT MLS,MDCA2001800,N,Y,38.5036067,-76.5603598
PAST SALE,November-18-2021,Single Family Residential,2046 St Pauls Ct,Prince Frederick,MD,20678,624666,4,2.5,OAKLAND HALL,3134,30630,2021,17,199,50,Sold,,,https://www.redfin.com/MD/Prince-Frederick/2046-St-Pauls-Ct-20678/home/174314605,BRIGHT MLS,MDCA180884,N,Y,38.5020265,-76.5669533
PAST SALE,October-9-2021,Single Family Residential,2077 St Pauls Ct,Prince Frederick,MD,20678,560713,4,2.5,OAKLAND HALL,3446,33708,2021,57,163,50,Sold,,,https://www.redfin.com/MD/Prince-Frederick/2077-St-Pauls-Ct-20678/home/174399914,BRIGHT MLS,MDCA181562,N,Y,38.5020265,-76.5669533
PAST SALE,October-25-2021,Single Family Residential,3641 Cassell Blvd,Prince Frederick,MD,20678,405000,4,2.0,CHES HGTS,2028,12116,1976,41,200,,Sold,,,https://www.redfin.com/MD/Prince-Frederick/3641-Cassell-Blvd-20678/home/15106543,BRIGHT MLS,MDCA2001664,N,Y,38.564526,-76.5366528
PAST SALE,November-15-2021,Single Family Residential,4830 Egret,Prince Frederick,MD,20678,711100,4,3.0,HERON LANDING SUB,4630,44867,1996,20,154,,Sold,,,https://www.redfin.com/MD/Prince-Frederick/4830-Egret-Ct-20678/home/15103573,BRIGHT MLS,MDCA2002202,N,Y,38.5229316,-76.6457384
PAST SALE,August-31-2021,Townhouse,414 Cambridge Pl,Prince Frederick,MD,20678,310000,3,3.0,CHAPLINE PLACE,1829,2340,2003,96,169,95,Sold,,,https://www.redfin.com/MD/Prince-Frederick/414-Cambridge-Pl-20678/home/15099510,BRIGHT MLS,MDCA2001238,N,Y,38.5507009,-76.59864
PAST SALE,February-22-2019,Single Family Residential,1820 Lottie Fowler Rd,Prince Frederick,MD,20678,380000,3,3.5,SCARBOROUGH FAIRE,2155,43560,2000,1017,176,,Sold,,,https://www.redfin.com/MD/Prince-Frederick/1820-Lottie-Fowler-Rd-20678/unit-RA/home/15099890,BRIGHT MLS,MDCA145674,N,Y,38.5839899,-76.5806323
PAST SALE,June-5-2020,Single Family Residential,2165 Fireberry Ct,Prince Frederick,MD,20678,410000,4,3.5,FOX FIELD,2996,36993,2001,548,137,17,Sold,,,https://www.redfin.com/MD/Prince-Frederick/2165-Fireberry-Ct-20678/home/15100849,BRIGHT MLS,MDCA174926,N,Y,38.4873867,-76.6099285
PAST SALE,October-30-2020,Single Family Residential,1707 Lottie Fowler Rd,Prince Frederick,MD,20678,434000,4,2.5,SCARBOROUGH FAIRE,2140,45738,2003,401,203,,Sold,,,https://www.redfin.com/MD/Prince-Frederick/1707-Lottie-Fowler-Rd-20678/home/15100735,BRIGHT MLS,MDCA178878,N,Y,38.584559,-76.576524
PAST SALE,January-25-2021,Single Family Residential,1731 Lottie Fowler Rd,Prince Frederick,MD,20678,415000,4,3.0,SCARBOROUGH FAIRE,2963,35022,2003,314,140,,Sold,,,https://www.redfin.com/MD/Prince-Frederick/1731-Lottie-Fowler-Rd-20678/home/15100710,BRIGHT MLS,MDCA179768,N,Y,38.5841616,-76.5776075
PAST SALE,,Single Family Residential,820 Noble Ct,Prince Frederick,MD,20678,420000,,2.5,,3122,33524,2000,,135,,,,,https://www.redfin.com/MD/Prince-Frederick/820-Noble-Ct-20678/home/15100053,,,N,Y,38.5700796,-76.5562964
PAST SALE,September-23-2019,Single Family Residential,5300 Sheridan Point Rd,Prince Frederick,MD,20678,390000,3,3.5,CHINQUAPIN RIDGE,3105,114563,2002,804,126,,Sold,,,https://www.redfin.com/MD/Prince-Frederick/5300-Sheridan-Point-Rd-20678/home/15100701,BRIGHT MLS,MDCA169428,N,Y,38.476008,-76.6238816
PAST SALE,December-12-2018,Single Family Residential,202 Macrae Ave,Prince Frederick,MD,20678,75000,3,1.0,DARES BEACH,784,4000,1935,1089,96,,Sold,,,https://www.redfin.com/MD/Prince-Frederick/202-Macrae-Ave-20678/home/15105491,BRIGHT MLS,MDCA100206,N,Y,38.5605033,-76.5177289
PAST SALE,March-26-2020,Townhouse,402 Westlake Blvd #31,Prince Frederick,MD,20678,250000,3,3.0,WESTLAKE,2077,,1998,619,120,253,Sold,,,https://www.redfin.com/MD/Prince-Frederick/402-Westlake-Blvd-20678/unit-31/home/15099938,BRIGHT MLS,MDCA174002,N,Y,38.5307575,-76.5840633
PAST SALE,June-12-2020,Townhouse,322 Cambridge Pl,Prince Frederick,MD,20678,268000,4,3.5,CHAPLINE PLACE,2252,1600,2001,541,119,72,Sold,,,https://www.redfin.com/MD/Prince-Frederick/322-Cambridge-Pl-20678/home/15099578,BRIGHT MLS,MDCA175844,N,Y,38.549784,-76.597449
PAST SALE,July-26-2019,Townhouse,350 Cambridge Pl,Prince Frederick,MD,20678,265000,3,3.0,CHAPLINE PLACE,1774,1940,2002,863,149,73,Sold,,,https://www.redfin.com/MD/Prince-Frederick/350-Cambridge-Pl-20678/home/15099514,BRIGHT MLS,MDCA170150,N,Y,38.549895,-76.598039
PAST SALE,April-5-2019,Townhouse,418 Cambridge Pl,Prince Frederick,MD,20678,286500,3,3.0,CHAPLINE PLACE,2293,2340,2003,975,125,73,Sold,,,https://www.redfin.com/MD/Prince-Frederick/418-Cambridge-Pl-20678/home/15098915,BRIGHT MLS,MDCA140454,N,Y,38.550756,-76.598645
PAST SALE,July-24-2020,Townhouse,419 Cambridge Pl,Prince Frederick,MD,20678,248500,3,3.5,CHAPLINE PLACE,2000,1600,2002,499,124,73,Sold,,,https://www.redfin.com/MD/Prince-Frederick/419-Cambridge-Pl-20678/home/15099825,BRIGHT MLS,MDCA175796,N,Y,38.550872,-76.5980809
PAST SALE,,Townhouse,382 Cambridge Pl,Prince Frederick,MD,20678,250000,,2.5,,1910,2340,2002,,131,,,,,https://www.redfin.com/MD/Prince-Frederick/382-Cambridge-Pl-20678/home/15099828,,,N,Y,38.550178,-76.598736
PAST SALE,March-25-2019,Townhouse,390 Cambridge Pl,Prince Frederick,MD,20678,259900,3,3.0,CHAPLINE PLACE,1910,2340,2002,986,136,72,Sold,,,https://www.redfin.com/MD/Prince-Frederick/390-Cambridge-Pl-20678/home/15098917,BRIGHT MLS,MDCA134382,N,Y,38.550286,-76.598711
PAST SALE,September-26-2019,Townhouse,514 Salisbury Pl,Prince Frederick,MD,20678,235000,3,2.5,CHAPLINE PLACE,1915,1760,2001,801,123,72,Sold,,,https://www.redfin.com/MD/Prince-Frederick/514-Salisbury-Pl-20678/unit-P1/home/15099409,BRIGHT MLS,MDCA171740,N,Y,38.550121,-76.595836
PAST SALE,,Townhouse,141 Winslow Pl,Prince Frederick,MD,20678,235000,,2.5,,2114,1600,2002,,111,,,,,https://www.redfin.com/MD/Prince-Frederick/141-Winslow-Pl-20678/home/15098892,,,N,Y,38.5510734,-76.5955295
PAST SALE,March-20-2020,Townhouse,534 Salisbury Pl,Prince Frederick,MD,20678,278000,4,3.0,CHAPLINE PLACE,2226,1760,2001,625,125,73,Sold,,,https://www.redfin.com/MD/Prince-Frederick/534-Salisbury-Pl-20678/home/15098901,BRIGHT MLS,MDCA173074,N,Y,38.5504729,-76.595763
PAST SALE,February-19-2021,Townhouse,185 Winslow Pl,Prince Frederick,MD,20678,281500,3,3.5,CHAPLINE PLACE,2114,1600,2002,289,133,73,Sold,,,https://www.redfin.com/MD/Prince-Frederick/185-Winslow-Pl-20678/home/15099402,BRIGHT MLS,MDCA179928,N,Y,38.551197,-76.596434
PAST SALE,June-10-2021,Townhouse,218 Cambridge Pl,Prince Frederick,MD,20678,315000,3,3.0,CHAPLINE PLACE,1870,1780,2000,178,168,72,Sold,,,https://www.redfin.com/MD/Prince-Frederick/218-Cambridge-Pl-20678/home/15099821,BRIGHT MLS,MDCA181728,N,Y,38.54952,-76.595307
PAST SALE,November-1-2019,Townhouse,258 Cambridge Pl,Prince Frederick,MD,20678,245000,3,3.0,CHAPLINE PLACE,1850,1780,2001,765,132,73,Sold,,,https://www.redfin.com/MD/Prince-Frederick/258-Cambridge-Pl-20678/home/15098907,BRIGHT MLS,MDCA100037,N,Y,38.549622,-76.5961
PAST SALE,May-17-2019,Townhouse,270 Cambridge Pl,Prince Frederick,MD,20678,205000,3,2.5,CHAPLINE PLACE,1350,2376,2001,933,152,29,Sold,,,https://www.redfin.com/MD/Prince-Frederick/270-Cambridge-Pl-20678/home/15099565,BRIGHT MLS,1007522732,N,Y,38.5496311,-76.5962969
PAST SALE,June-18-2020,Townhouse,286 Cambridge Pl,Prince Frederick,MD,20678,269000,5,3.5,CHAPLINE PLACE,2200,1600,2000,535,122,72,Sold,,,https://www.redfin.com/MD/Prince-Frederick/286-Cambridge-Pl-20678/home/15100481,BRIGHT MLS,MDCA174904,N,Y,38.549748,-76.596694
PAST SALE,September-29-2020,Townhouse,181 Winslow Pl,Prince Frederick,MD,20678,275000,3,3.5,CHAPLINE PLACE,2114,1600,2002,432,130,73,Sold,,,https://www.redfin.com/MD/Prince-Frederick/181-Winslow-Pl-20678/home/15099401,BRIGHT MLS,MDCA177280,N,Y,38.551182,-76.596366
PAST SALE,May-18-2020,Townhouse,173 Winslow Pl,Prince Frederick,MD,20678,270000,4,3.5,CHAPLINE PLACE,2454,1600,2002,566,110,72,Sold,,,https://www.redfin.com/MD/Prince-Frederick/173-Winslow-Pl-20678/home/15099554,BRIGHT MLS,MDCA175368,N,Y,38.551151,-76.596232
PAST SALE,November-30-2020,Single Family Residential,1525 Walters Ln,Prince Frederick,MD,20678,257000,4,2.5,CYPRESS CREEK,2065,34051,2004,370,124,29,Sold,,,https://www.redfin.com/MD/Prince-Frederick/1525-Walters-Ln-20678/home/15091898,BRIGHT MLS,MDCA175438,N,Y,38.5756223,-76.5682617
PAST SALE,October-15-2019,Single Family Residential,1820 Crofton Ct,Prince Frederick,MD,20678,283000,4,3.0,YARDLEY HILLS,1160,13205,2005,782,244,11,Sold,,,https://www.redfin.com/MD/Prince-Frederick/1820-Crofton-Ct-20678/home/15091110,BRIGHT MLS,MDCA171868,N,Y,38.5288172,-76.6006754
PAST SALE,March-30-2021,Single Family Residential,833 Yardley Dr,Prince Frederick,MD,20678,305000,3,2.0,YARDLEY HILLS,1176,11636,2005,250,259,,Sold,,,https://www.redfin.com/MD/Prince-Frederick/833-Yardley-Dr-20678/home/15091108,BRIGHT MLS,MDCA2000040,N,Y,38.5279847,-76.6004497
PAST SALE,April-17-2020,Single Family Residential,1924 Derby Ct,Prince Frederick,MD,20678,248900,3,2.0,YARDLEY HILLS,1132,10890,2004,597,220,,Sold,,,https://www.redfin.com/MD/Prince-Frederick/1924-Derby-Ct-20678/home/15090239,BRIGHT MLS,MDCA174662,N,Y,38.5284794,-76.5995018
PAST SALE,,Single Family Residential,1900 Derby Ct,Prince Frederick,MD,20678,230000,,2.0,,1062,10035,2006,,217,,,,,https://www.redfin.com/MD/Prince-Frederick/1900-Derby-Ct-20678/home/15090827,,,N,Y,38.528897,-76.5982379
PAST SALE,October-29-2019,Townhouse,415 Westlake Blvd #39,Prince Frederick,MD,20678,250000,2,3.0,WESTLAKE,2092,,2002,768,120,253,Sold,,,https://www.redfin.com/MD/Prince-Frederick/415-Westlake-Blvd-20678/unit-39/home/15090810,BRIGHT MLS,MDCA168954,N,Y,38.531374,-76.584386
PAST SALE,,Single Family Residential,331 Whirlaway Dr,Prince Frederick,MD,20678,375000,,2.5,,2312,6033,2014,,162,,,,,https://www.redfin.com/MD/Prince-Frederick/331-Whirlaway-Dr-20678/home/17374707,,,N,Y,38.5314804,-76.5878554
PAST SALE,February-28-2019,Single Family Residential,313 Whirlaway Dr,Prince Frederick,MD,20678,357800,4,3.5,PRINCE FRED CROSSING,3352,5958,2013,1011,107,63,Sold,,,https://www.redfin.com/MD/Prince-Frederick/313-Whirlaway-Dr-20678/home/17374704,BRIGHT MLS,MDCA130326,N,Y,38.5317866,-76.5874808
PAST SALE,July-31-2019,Single Family Residential,301 Whirlaway Dr,Prince Frederick,MD,20678,320000,3,2.5,PRINCE FREDERICK WOODS,2210,5683,2015,858,145,63,Sold,,,https://www.redfin.com/MD/Prince-Frederick/301-Whirlaway-Dr-20678/home/17374702,BRIGHT MLS,MDCA169364,N,Y,38.5319519,-76.587404
PAST SALE,December-20-2019,Single Family Residential,448 Dark Star Way,Prince Frederick,MD,20678,319200,4,3.5,PRINCE FREDERICK WOODS,2246,6124,2013,716,142,63,Sold,,,https://www.redfin.com/MD/Prince-Frederick/448-Dark-Star-Way-20678/home/17374687,BRIGHT MLS,MDCA170344,N,Y,38.5315594,-76.5869724
PAST SALE,November-10-2020,Single Family Residential,55 Thoroughbred Dr,Prince Frederick,MD,20678,396000,4,3.5,PRINCE FREDERICK WOODS,4013,5659,2013,390,99,65,Sold,,,https://www.redfin.com/MD/Prince-Frederick/55-Thoroughbred-Dr-20678/home/15090253,BRIGHT MLS,MDCA178476,N,Y,38.5330129,-76.5919739
PAST SALE,May-12-2021,Single Family Residential,85 Thoroughbred Dr,Prince Frederick,MD,20678,380000,3,2.5,PRINCE FREDERICK WOODS,1740,6054,2011,207,218,60,Sold,,,https://www.redfin.com/MD/Prince-Frederick/85-Thoroughbred-Dr-20678/home/15090839,BRIGHT MLS,MDCA182916,N,Y,38.5324899,-76.5913717
PAST SALE,May-8-2020,Single Family Residential,343 Whirlaway Dr,Prince Frederick,MD,20678,406000,4,3.5,PRINCE FREDERICK WOODS,3055,8696,2014,576,133,60,Sold,,,https://www.redfin.com/MD/Prince-Frederick/343-Whirlaway-Dr-20678/home/17374670,BRIGHT MLS,MDCA175294,N,Y,38.5311543,-76.5881714
PAST SALE,October-23-2020,Single Family Residential,97 Thoroughbred Dr,Prince Frederick,MD,20678,400000,4,2.5,PRINCE FREDERICK WOODS,2090,5613,2011,408,191,60,Sold,,,https://www.redfin.com/MD/Prince-Frederick/97-Thoroughbred-Dr-20678/home/15090905,BRIGHT MLS,MDCA178532,N,Y,38.532268,-76.591121
PAST SALE,December-27-2019,Single Family Residential,133 Thoroughbred Dr,Prince Frederick,MD,20678,310000,3,3.5,PRINCE FREDERICK WOODS,2378,6541,2013,709,130,63,Sold,,,https://www.redfin.com/MD/Prince-Frederick/133-Thoroughbred-Dr-20678/home/17374717,BRIGHT MLS,MDCA171280,N,Y,38.5316713,-76.5903096
PAST SALE,August-6-2020,Single Family Residential,441 Dark Star Way,Prince Frederick,MD,20678,360000,4,3.5,PRINCE FREDERICK WOODS,1908,6236,2013,486,189,65,Sold,,,https://www.redfin.com/MD/Prince-Frederick/441-Dark-Star-Way-20678/home/17374691,BRIGHT MLS,MDCA177176,N,Y,38.5318224,-76.5866365
PAST SALE,May-8-2020,Townhouse,104 Polo Way,Prince Frederick,MD,20678,329900,4,3.5,PRINCE FREDERICK WOODS,2162,4838,2009,576,153,250,Sold,,,https://www.redfin.com/MD/Prince-Frederick/104-Polo-Way-20678/home/17374780,BRIGHT MLS,MDCA175050,N,Y,38.5326853,-76.590415
PAST SALE,December-17-2018,Townhouse,110 Polo Way,Prince Frederick,MD,20678,278000,3,3.0,PRINCE FREDERICK WOODS,1496,2000,2009,1084,186,63,Sold,,,https://www.redfin.com/MD/Prince-Frederick/110-Polo-Way-20678/home/17374779,BRIGHT MLS,1008355122,N,Y,38.5326049,-76.590463
PAST SALE,June-25-2020,Single Family Residential,415 Whirlaway Dr,Prince Frederick,MD,20678,391500,4,3.5,PRINCE FREDERICK WOODS,2234,8729,2017,528,175,65,Sold,,,https://www.redfin.com/MD/Prince-Frederick/415-Whirlaway-Dr-20678/home/17374800,BRIGHT MLS,MDCA176228,N,Y,38.5300235,-76.586688
PAST SALE,August-1-2019,Single Family Residential,636 Yearling Dr,Prince Frederick,MD,20678,361097,4,2.5,PRINCE FREDERICK WOODS,1442,8716,2018,857,250,62,Sold,,,https://www.redfin.com/MD/Prince-Frederick/636-Yearling-Dr-20678/home/17374799,BRIGHT MLS,1000366552,N,Y,38.5292802,-76.5863135
PAST SALE,September-27-2019,Single Family Residential,642 Yearling Dr,Prince Frederick,MD,20678,3680,3,2.5,PRINCE FREDERICK WOODS,1928,8974,2018,800,2,62,Sold,,,https://www.redfin.com/MD/Prince-Frederick/642-Yearling-Dr-20678/home/17374798,BRIGHT MLS,1000366560,N,Y,38.5293057,-76.5865643
PAST SALE,January-11-2019,Single Family Residential,653 Yearling Dr,Prince Frederick,MD,20678,418489,4,3.0,PRINCE FREDERICK WOODS,1520,5431,2018,1059,275,62,Sold,,,https://www.redfin.com/MD/Prince-Frederick/653-Yearling-Dr-20678/home/17374793,BRIGHT MLS,1002224588,N,Y,38.5297674,-76.5869401
PAST SALE,August-28-2020,Townhouse,122 Backstretch Way,Prince Frederick,MD,20678,330500,3,3.0,PRINCE FREDERICK WOODS,2204,4247,2010,464,150,60,Sold,,,https://www.redfin.com/MD/Prince-Frederick/122-Backstretch-Way-20678/home/17374769,BRIGHT MLS,MDCA177154,N,Y,38.532285,-76.589787
PAST SALE,March-26-2021,Townhouse,102 Backstretch Way,Prince Frederick,MD,20678,330000,3,3.5,PRINCE FREDERICK WOODS,2200,2121,2009,254,150,61,Sold,,,https://www.redfin.com/MD/Prince-Frederick/102-Backstretch-Way-20678/home/17374475,BRIGHT MLS,MDCA181178,N,Y,38.53263,-76.589915
PAST SALE,August-16-2019,Single Family Residential,1810 Birds Nest Ln,Prince Frederick,MD,20678,480000,4,2.5,CARDINAL'S CREST,2712,25998,2017,842,177,17,Sold,,,https://www.redfin.com/MD/Prince-Frederick/1810-Birds-Nest-Ln-20678/home/17374541,BRIGHT MLS,MDCA169230,N,Y,38.5509777,-76.558379
PAST SALE,January-17-2020,Single Family Residential,587 Hawk Hill Dr,Prince Frederick,MD,20678,300000,3,2.0,SOUTHGATE,1180,7215,2012,688,254,25,Sold,,,https://www.redfin.com/MD/Prince-Frederick/587-Hawk-Hill-Dr-20678/home/17374007,BRIGHT MLS,MDCA100097,N,Y,38.5330803,-76.5808129
PAST SALE,July-20-2020,Single Family Residential,657 Hawk Hill Dr,Prince Frederick,MD,20678,305000,3,2.0,SOUTHGATE,1340,5092,2012,503,228,20,Sold,,,https://www.redfin.com/MD/Prince-Frederick/657-Hawk-Hill-Dr-20678/home/17374013,BRIGHT MLS,MDCA175988,N,Y,38.532469,-76.5793682
PAST SALE,July-22-2020,Single Family Residential,950 Arden Ct,Prince Frederick,MD,20678,515000,5,3.5,COLLEGE STATION,3665,45302,2013,501,141,33,Sold,,,https://www.redfin.com/MD/Prince-Frederick/950-Arden-Ct-20678/home/17374348,BRIGHT MLS,MDCA175694,N,Y,38.5470275,-76.6287486
PAST SALE,July-30-2020,Single Family Residential,860 Slade Dr,Prince Frederick,MD,20678,451050,4,2.5,COLLEGE STATION,2863,36007,2013,493,158,33,Sold,,,https://www.redfin.com/MD/Prince-Frederick/860-Slade-Dr-20678/home/17374342,BRIGHT MLS,MDCA175732,N,Y,38.546861,-76.6266457
PAST SALE,May-28-2019,Single Family Residential,855 Slade Dr,Prince Frederick,MD,20678,529900,5,3.5,COLLEGE STATION,3971,37876,2013,922,133,33,Sold,,,https://www.redfin.com/MD/Prince-Frederick/855-Slade-Dr-20678/home/17374338,BRIGHT MLS,MDCA164496,N,Y,38.5466693,-76.6260836
PAST SALE,April-27-2021,Single Family Residential,495 Sylvan Pl,Prince Frederick,MD,20678,500000,4,3.0,COLLEGE STATION,4625,38433,2016,222,108,33,Sold,,,https://www.redfin.com/MD/PRINCE-FREDERICK/495-SYLVAN-PL-20678/home/17374230,BRIGHT MLS,MDCA180658,N,Y,38.546575,-76.613024
PAST SALE,May-27-2021,Single Family Residential,3585 Dares Beach Rd,Prince Frederick,MD,20678,579000,3,2.5,Prince Frederick,4764,91476,1998,192,122,,Sold,,,https://www.redfin.com/MD/Prince-Frederick/3585-Dares-Beach-Rd-20678/home/15106216,BRIGHT MLS,MDCA181374,N,Y,38.5579286,-76.5341463
PAST SALE,December-4-2019,Single Family Residential,664 Yearling Dr,Prince Frederick,MD,20678,349858,3,2.5,PRINCE FRED CROSSING,,7533,,732,,63,Sold,,,https://www.redfin.com/MD/Prince-Frederick/664-Yearling-Dr-20678/home/17373974,BRIGHT MLS,MDCA170426,N,Y,38.5293626,-76.5870249
PAST SALE,February-15-2019,Single Family Residential,3136 Whispering Dr,Prince Frederick,MD,20678,425000,4,3.5,WHISPERING WOODS,2857,228690,1997,1024,149,25,Sold,,,https://www.redfin.com/MD/Prince-Frederick/3136-Whispering-Dr-20678/home/15107401,BRIGHT MLS,MDCA105162,N,Y,38.494346,-76.554979
PAST SALE,,Townhouse,592 Burr Oak Ct,Prince Frederick,MD,20678,299500,,2.5,,1960,3781,2010,,153,,,,,https://www.redfin.com/MD/Prince-Frederick/592-Burr-Oak-Ct-20678/home/23128003,,,N,Y,38.5474271,-76.5796729
PAST SALE,February-28-2020,Townhouse,616 Burr Oak Ct,Prince Frederick,MD,20678,290000,4,3.5,OAK TREE LANDING,2700,2330,2008,646,107,75,Sold,,,https://www.redfin.com/MD/Prince-Frederick/616-Burr-Oak-Ct-20678/home/18988993,BRIGHT MLS,MDCA172750,N,Y,38.547718,-76.579295
PAST SALE,October-14-2020,Townhouse,639 Burr Oak Ct,Prince Frederick,MD,20678,282500,3,3.5,OAK TREE LANDING,2266,2266,2009,417,125,75,Sold,,,https://www.redfin.com/MD/Prince-Frederick/639-Burr-Oak-Ct-20678/home/18910044,BRIGHT MLS,MDCA177652,N,Y,38.547513,-76.578548
PAST SALE,April-16-2021,Single Family Residential,365 Equestrian Way,Prince Frederick,MD,20678,379900,3,2.5,PRINCE FRED CROSSING,2238,5706,2015,233,170,60,Sold,,,https://www.redfin.com/MD/Prince-Frederick/365-Equestrian-Way-20678/home/17373973,BRIGHT MLS,MDCA2000024,N,Y,38.5322479,-76.5882165
PAST SALE,October-21-2019,Single Family Residential,246 Rimfire Way,Prince Frederick,MD,20678,365000,4,3.0,PRINCE FRED CROSSING,2293,7626,2014,776,159,60,Sold,,,https://www.redfin.com/MD/Prince-Frederick/246-Rimfire-Way-20678/home/17373966,BRIGHT MLS,MDCA171874,N,Y,38.5328387,-76.587404
PAST SALE,February-28-2019,Single Family Residential,400 Avalon Ct,Prince Frederick,MD,20678,442000,4,2.5,COLLEGE STATION,2685,33076,2018,1011,165,33,Sold,,,https://www.redfin.com/MD/Prince-Frederick/400-Avalon-Ct-20678/home/17374220,BRIGHT MLS,MDCA140546,N,Y,38.5443389,-76.6107761
PAST SALE,September-21-2020,Single Family Residential,58 Simmons Ridge Rd,Prince Frederick,MD,20678,630000,4,4.0,SIMMONS' RIDGE,4462,47480,2016,440,141,21,Sold,,,https://www.redfin.com/MD/Prince-Frederick/58-Simmons-Ridge-Rd-20678/home/23130145,BRIGHT MLS,MDCA178244,N,Y,38.5532889,-76.5534853
PAST SALE,January-19-2021,Single Family Residential,80 Simmons Ridge Rd,Prince Frederick,MD,20678,540175,4,2.5,SIMMONS' RIDGE,4194,39354,2021,320,129,21,Sold,,,https://www.redfin.com/MD/Prince-Frederick/80-Simmons-Ridge-Rd-20678/home/18988977,BRIGHT MLS,MDCA176548,N,Y,38.5516691,-76.5550998
PAST SALE,October-18-2019,Single Family Residential,485 Sylvan Pl,Prince Frederick,MD,20678,462590,4,2.5,COLLEGE STATION,3066,35273,2018,779,151,33,Sold,,,https://www.redfin.com/MD/Prince-Frederick/485-Sylvan-PL-Unknown/home/171630588,BRIGHT MLS,MDCA140550,N,Y,38.54618,-76.61232
PAST SALE,July-20-2021,Townhouse,819 Calvert Towne Dr,Prince Frederick,MD,20678,220000,3,2.5,CALVERT TOWNE,1676,2814,1979,138,131,,Sold,,,https://www.redfin.com/MD/Prince-Frederick/819-Calvert-Towne-Dr-20678/home/15105145,BRIGHT MLS,MDCA183154,N,Y,38.5332709,-76.5764135
PAST SALE,,Single Family Residential,2915 Dares Beach Rd,Prince Frederick,MD,20678,310000,,2.0,,2028,62726,1978,,153,,,,,https://www.redfin.com/MD/Prince-Frederick/2915-Dares-Beach-Rd-20678/home/15105221,,,N,Y,38.5581814,-76.5416656
PAST SALE,April-29-2021,Vacant Land,1451 Clay Hammond Rd,Prince Frederick,MD,20678,105000,,,Prince Frederick,,222156,,220,,,Sold,,,https://www.redfin.com/MD/Prince-Frederick/1451-Clay-Hammond-Rd-20678/home/17526864,BRIGHT MLS,MDCA174212,N,Y,38.572907,-76.576888
PAST SALE,,Vacant Land,4330 Dares Beach Rd,Prince Frederick,MD,20678,75000,,,,,263974,,,,,,,,https://www.redfin.com/MD/Prince-Frederick/4330-Dares-Beach-Rd-20678/home/17376616,,,N,Y,38.557122,-76.526078
PAST SALE,December-29-2020,Single Family Residential,5005 Leitches Wharf Rd,Prince Frederick,MD,20678,1075000,3,3.0,WATERFRONT,5775,261360,1978,341,186,,Sold,,,https://www.redfin.com/MD/Prince-Frederick/5005-Leitches-Wharf-Rd-20678/home/15104729,BRIGHT MLS,MDCA177688,N,Y,38.5424239,-76.664126
PAST SALE,April-24-2020,Single Family Residential,2125 Grays Rd,Prince Frederick,MD,20678,232250,3,1.0,Prince Frederick,960,43996,1980,590,242,,Sold,,,https://www.redfin.com/MD/Prince-Frederick/2125-Grays-Rd-20678/home/15111118,BRIGHT MLS,MDCA175166,N,Y,38.4889268,-76.570745
PAST SALE,January-25-2019,Single Family Residential,2115 Fireberry Ct,Prince Frederick,MD,20678,515000,4,3.5,FOX FIELD,3947,43996,2002,1045,130,17,Sold,,,https://www.redfin.com/MD/Prince-Frederick/2115-Fireberry-Ct-20678/home/15100872,BRIGHT MLS,1002251188,N,Y,38.4889913,-76.6101993
PAST SALE,September-18-2019,Single Family Residential,135 Clay Hammond Rd,Prince Frederick,MD,20678,375333,3,2.5,VIRGINIA SOMERVELL PROP,2576,43560,1985,809,146,,Sold,,,https://www.redfin.com/MD/Prince-Frederick/135-Clay-Hammond-Rd-20678/home/15105514,BRIGHT MLS,MDCA171070,N,Y,38.558647,-76.5581026
PAST SALE,November-18-2020,Single Family Residential,6046 Dusk Dr,Prince Frederick,MD,20678,299900,3,2.0,PATUXENT VIEW,1228,15000,1978,382,244,5,Sold,,,https://www.redfin.com/MD/Prince-Frederick/6046-Dusk-Dr-20678/home/15104426,BRIGHT MLS,MDCA178770,N,Y,38.5034251,-76.6613725
PAST SALE,June-7-2019,Single Family Residential,75 Terrace Dr,Prince Frederick,MD,20678,190000,4,3.0,BAY TERRACE,1782,21629,1973,912,107,,Sold,,,https://www.redfin.com/MD/Prince-Frederick/75-Terrace-Dr-20678/home/15106878,BRIGHT MLS,MDCA168400,N,Y,38.5516574,-76.5624372
PAST SALE,,Vacant Land,333 Seagull Beach Rd,Prince Frederick,MD,20678,10000,,,,,14700,,,,,,,,https://www.redfin.com/MD/Prince-Frederick/333-Seagull-Beach-Rd-20678/home/17376663,,,N,Y,38.503973,-76.65867
PAST SALE,August-25-2021,Single Family Residential,944 Colton Ct,Prince Frederick,MD,20678,375000,3,2.5,SYMPHONY WOODS,2271,20469,1995,102,165,,Sold,,,https://www.redfin.com/MD/Prince-Frederick/944-Colton-Ct-20678/home/15102096,BRIGHT MLS,MDCA2000292,N,Y,38.5316025,-76.5719188
PAST SALE,February-27-2020,Townhouse,59 Clydesdale Ln,Prince Frederick,MD,20678,386963,3,3.0,PRINCE FRED CROSSING,,5562,,647,,63,Sold,,,https://www.redfin.com/MD/Prince-Frederick/59-Clydesdale-Ln-20678/home/109852095,BRIGHT MLS,MDCA174874,N,Y,38.5339048,-76.5903039
PAST SALE,August-27-2020,Single Family Residential,325 Sunset Ln,Prince Frederick,MD,20678,289900,3,1.0,PATUXENT VIEW,1228,15135,1978,465,236,5,Sold,,,https://www.redfin.com/MD/Prince-Frederick/325-Sunset-Ln-20678/home/15104427,BRIGHT MLS,MDCA177264,N,Y,38.5040771,-76.6617786
PAST SALE,November-22-2019,Single Family Residential,665 Yearling Dr,Prince Frederick,MD,20678,387991,4,2.5,PRINCE FREDERICK WOODS,,5947,2019,744,,63,Sold,,,https://www.redfin.com/MD/Prince-Frederick/665-Yearling-Dr-20678/home/17374795,BRIGHT MLS,MDCA169976,N,Y,38.5297195,-76.5873131
PAST SALE,,Single Family Residential,902 Colton Ct,Prince Frederick,MD,20678,385000,4,3.5,,2254,10768,1994,,171,,,,,https://www.redfin.com/MD/Prince-Frederick/902-Colton-Ct-20678/home/15103446,,,N,Y,38.5320563,-76.5730476
PAST SALE,,Single Family Residential,83 Adderton Dr,Prince Frederick,MD,20678,430000,,3.5,,3260,32670,2002,,132,,,,,https://www.redfin.com/MD/Prince-Frederick/83-Adderton-Dr-20678/home/15091901,,,N,Y,38.5539281,-76.5674039
PAST SALE,December-18-2020,Single Family Residential,2628 Sequoia Way,Prince Frederick,MD,20678,455000,3,2.5,WHISPERING WOODS,2266,44431,1992,352,201,26,Sold,,,https://www.redfin.com/MD/Prince-Frederick/2628-Sequoia-Way-20678/home/15107694,BRIGHT MLS,MDCA179640,N,Y,38.4959955,-76.5517809
PAST SALE,May-23-2019,Single Family Residential,2604 Pimlico Way,Prince Frederick,MD,20678,619097,4,3.0,OAKLAND HALL,5543,119790,2019,927,112,50,Sold,,,https://www.redfin.com/MD/Prince-Frederick/294-Merrimac-Ct-20678/home/167709919,BRIGHT MLS,MDCA169294,N,Y,38.5358238,-76.5837478
PAST SALE,,Single Family Residential,155 Rachaels Way,Prince Frederick,MD,20678,380000,,2.5,,3338,10000,2006,,114,,,,,https://www.redfin.com/MD/Prince-Frederick/155-Rachaels-Way-20678/home/15090528,,,N,Y,38.5305751,-76.5752147
PAST SALE,September-17-2021,Single Family Residential,213 Saint Agnes Ct,Prince Frederick,MD,20678,672000,5,3.5,OAKLAND HALL,3554,50530,2018,79,189,50,Sold,,,https://www.redfin.com/MD/Prince-Frederick/213-St-Agnes-Ct-20678/home/104272666,BRIGHT MLS,MDCA2001408,N,Y,38.502574,-76.5553981
PAST SALE,July-18-2019,Single Family Residential,2305 Saint Margaret Blvd,Prince Frederick,MD,20678,566607,5,3.5,OAKLAND HALL,3174,47480,2019,871,179,50,Sold,,,https://www.redfin.com/MD/PRINCE-FREDERICK/2305-SAINT-MARGARET-BLVD-20678/home/104218157,BRIGHT MLS,MDCA156472,N,Y,38.502227,-76.552888
PAST SALE,April-23-2021,Single Family Residential,2104 Saint Margaret Blvd,Prince Frederick,MD,20678,590000,5,3.5,OAKLAND HALL,4124,38364,2016,226,143,50,Sold,,,https://www.redfin.com/MD/Prince-Frederick/2104-St-Margaret-s-Blvd-20678/home/104272660,BRIGHT MLS,MDCA181482,N,Y,38.5033984,-76.5612594
PAST SALE,May-18-2021,Single Family Residential,2414 Senate Ct,Prince Frederick,MD,20678,685000,5,4.5,OAKLAND HALL,5261,52272,2018,201,130,50,Sold,,,https://www.redfin.com/MD/Prince-Frederick/2414-Senate-Ct-20678/home/109852185,BRIGHT MLS,MDCA181682,N,Y,38.5012577,-76.5541108
PAST SALE,November-29-2021,Vacant Land,1545 Clay Hammond Rd,Prince Frederick,MD,20678,140000,,,HOMELAND,,142877,,6,,2,Sold,,,https://www.redfin.com/MD/Prince-Frederick/1545-Clay-Hammond-Rd-20678/home/17376356,BRIGHT MLS,MDCA176832,N,Y,38.574738,-76.581301
PAST SALE,February-27-2020,Single Family Residential,207 Oakland Hall Rd,Prince Frederick,MD,20678,554294,4,3.5,OAKLAND HALL,3943,34765,,647,141,50,Sold,,,https://www.redfin.com/MD/Prince-Frederick/207-Oakland-Hall-Rd-20678/home/167709889,BRIGHT MLS,MDCA173796,N,Y,38.4969851,-76.5612284
PAST SALE,October-2-2020,Single Family Residential,213 Oakland Hall Rd,Prince Frederick,MD,20678,618234,4,2.5,OAKLAND HALL,3055,64904,2020,429,202,50,Sold,,,https://www.redfin.com/MD/Prince-Frederick/213-Oakland-Hall-Rd-20678/home/167709890,BRIGHT MLS,MDCA173954,N,Y,38.4968965,-76.5623573
PAST SALE,June-24-2019,Single Family Residential,2504 Preakness Way,Prince Frederick,MD,20678,519983,3,2.0,OAKLAND HALL,2339,42427,2019,895,222,5,Sold,,,https://www.redfin.com/MD/Prince-Frederick/2504-Preakness-Way-20678/home/167709894,BRIGHT MLS,MDCA170590,N,Y,38.498206,-76.562906
PAST SALE,July-14-2019,Single Family Residential,2502 Preakness Way,Prince Frederick,MD,20678,568479,5,3.5,OAKLAND HALL,3487,47916,2019,875,163,50,Sold,,,https://www.redfin.com/MD/Prince-Frederick/2502-Preakness-Way-20678/home/167709895,BRIGHT MLS,MDCA171048,N,Y,38.498508,-76.563555
PAST SALE,April-9-2020,Single Family Residential,2509 Preakness Way,Prince Frederick,MD,20678,612155,4,3.5,OAKLAND HALL,4417,32592,2020,605,139,50,Sold,,,https://www.redfin.com/MD/Prince-Frederick/2509-Preakness-Way-20678/home/167709897,BRIGHT MLS,MDCA174700,N,Y,38.497438,-76.56316
PAST SALE,November-21-2019,Single Family Residential,218 Oakland Hall Rd,Prince Frederick,MD,20678,478294,3,3.5,OAKLAND HALL,2670,32036,2019,745,179,50,Sold,,,https://www.redfin.com/MD/Prince-Frederick/218-Oakland-Hall-Rd-20678/home/167709900,BRIGHT MLS,MDCA173452,N,Y,38.4963399,-76.5631614
PAST SALE,July-14-2019,Single Family Residential,214 Oakland Hall Rd,Prince Frederick,MD,20678,478705,4,3.0,OAKLAND HALL,3100,33240,,875,154,50,Sold,,,https://www.redfin.com/MD/Prince-Frederick/214-Oakland-Hall-Rd-20678/home/167408011,BRIGHT MLS,MDCA171032,N,Y,38.4962956,-76.5625624
PAST SALE,December-30-2019,Single Family Residential,229 Oakland Hall Rd,Prince Frederick,MD,20678,611912,5,3.5,OAKLAND HALL,4316,39885,2019,706,142,50,Sold,,,https://www.redfin.com/MD/Prince-Frederick/229-Oakland-Hall-Rd-20678/home/167709902,BRIGHT MLS,MDCA172936,N,Y,38.4965668,-76.5654728
PAST SALE,December-20-2019,Single Family Residential,233 Oakland Hall Rd,Prince Frederick,MD,20678,472217,3,2.0,OAKLAND HALL,4512,35715,2019,716,105,50,Sold,,,https://www.redfin.com/MD/Prince-Frederick/233-Oakland-Hall-Rd-20678/home/167709903,BRIGHT MLS,MDCA173790,N,Y,38.4965792,-76.5660368
PAST SALE,November-7-2019,Single Family Residential,237 Oakland Hall Rd,Prince Frederick,MD,20678,616226,4,3.5,OAKLAND HALL,4182,41310,2019,759,147,50,Sold,,,https://www.redfin.com/MD/Prince-Frederick/237-Oakland-Hall-Rd-20678/home/167709904,BRIGHT MLS,MDCA172934,N,Y,38.4964618,-76.5664762
PAST SALE,February-13-2020,Single Family Residential,241 Oakland Hall Rd,Prince Frederick,MD,20678,574194,4,3.5,OAKLAND HALL,4084,37643,2020,661,141,50,Sold,,,https://www.redfin.com/MD/Prince-Frederick/241-Oakland-Hall-Rd-20678/home/167709905,BRIGHT MLS,MDCA174652,N,Y,38.4963896,-76.5669227
PAST SALE,March-10-2019,Single Family Residential,249 Oakland Hall Rd,Prince Frederick,MD,20678,581582,4,3.5,OAKLAND HALL,3562,73181,2019,1001,163,,Sold,,,https://www.redfin.com/MD/Prince-Frederick/249-Oakland-Hall-Rd-20678/home/148150973,BRIGHT MLS,MDCA164860,N,Y,38.4963571,-76.5684655
PAST SALE,August-15-2019,Single Family Residential,244 Oakland Hall Rd,Prince Frederick,MD,20678,616432,4,2.5,OAKLAND HALL,3065,40971,2019,843,201,50,Sold,,,https://www.redfin.com/MD/Prince-Frederick/244-Oakland-Hall-Rd-20678/home/165316429,BRIGHT MLS,MDCA169304,N,Y,38.4956224,-76.5667357
PAST SALE,September-23-2020,Single Family Residential,240 Oakland Hall Rd,Prince Frederick,MD,20678,544213,4,2.5,OAKLAND HALL,3134,34478,,438,174,50,Sold,,,https://www.redfin.com/MD/Prince-Frederick/240-Oakland-Hall-Rd-20678/home/167709906,BRIGHT MLS,MDCA173858,N,Y,38.4956925,-76.5661703
PAST SALE,November-21-2019,Single Family Residential,236 Oakland Hall Rd,Prince Frederick,MD,20678,551941,4,3.0,OAKLAND HALL,3603,35430,2019,745,153,50,Sold,,,https://www.redfin.com/MD/Prince-Frederick/236-Oakland-Hall-Rd-20678/home/167709907,BRIGHT MLS,MDCA173462,N,Y,38.4957935,-76.5656362
PAST SALE,November-21-2019,Single Family Residential,232 Oakland Hall Rd,Prince Frederick,MD,20678,524380,4,2.5,OAKLAND HALL,3182,85378,2019,745,165,50,Sold,,,https://www.redfin.com/MD/Prince-Frederick/232-Oakland-Hall-Rd-20678/home/167709909,BRIGHT MLS,MDCA173460,N,Y,38.4953184,-76.5656339
PAST SALE,May-22-2020,Single Family Residential,228 Oakland Hall Rd,Prince Frederick,MD,20678,491246,3,2.5,OAKLAND HALL,2675,34158,2020,562,184,50,Sold,,,https://www.redfin.com/MD/Prince-Frederick/228-Oakland-Hall-Rd-20678/home/167709911,BRIGHT MLS,MDCA174702,N,Y,38.4960356,-76.5650636
PAST SALE,March-13-2020,Single Family Residential,2599 Turnberry Way,Prince Frederick,MD,20678,496348,4,2.5,OAKLAND HALL,2764,32683,2020,632,180,50,Sold,,,https://www.redfin.com/MD/Prince-Frederick/294-Merrimac-Ct-20678/home/167709912,BRIGHT MLS,MDCA175202,N,Y,38.5358238,-76.5837478
PAST SALE,December-28-2018,Single Family Residential,2603 Turnberry Way,Prince Frederick,MD,20678,533806,4,2.5,OAKLAND HALL,3198,49223,,1073,167,50,Sold,,,https://www.redfin.com/MD/PRINCE-FREDERICK/2603-TURNBERRY-WAY-20678/home/167709914,BRIGHT MLS,MDCA140196,N,Y,38.495416,-76.564397
PAST SALE,September-30-2019,Single Family Residential,2607 Turnberry Way,Prince Frederick,MD,20678,627134,4,4.0,OAKLAND HALL,3547,87991,2019,797,177,50,Sold,,,https://www.redfin.com/MD/Prince-Frederick/294-Merrimac-Ct-20678/home/17377007,BRIGHT MLS,MDCA169286,N,Y,38.5358238,-76.5837478
PAST SALE,September-27-2019,Single Family Residential,2611 Turnberry Way,Prince Frederick,MD,20678,625223,4,2.0,OAKLAND HALL,3276,101059,,800,191,50,Sold,,,https://www.redfin.com/MD/Prince-Frederick/132-Main-St-20678/home/167709915,BRIGHT MLS,MDCA169300,N,Y,38.540058,-76.584201
PAST SALE,December-18-2018,Single Family Residential,2604 Turnberry Way,Prince Frederick,MD,20678,504810,3,2.5,OAKLAND HALL,2250,40004,2018,1083,224,50,Sold,,,https://www.redfin.com/MD/Prince-Frederick/294-Merrimac-Ct-20678/home/167709916,BRIGHT MLS,MDCA140190,N,Y,38.5358238,-76.5837478
PAST SALE,October-14-2019,Single Family Residential,2605 Pimlico Way,Prince Frederick,MD,20678,494590,4,2.5,OAKLAND HALL,3873,73181,2019,783,128,50,Sold,,,https://www.redfin.com/MD/PRINCE-FREDERICK/2605-PIMLICO-WAY-20678/home/167709917,BRIGHT MLS,MDCA172884,N,Y,38.49493,-76.562278
PAST SALE,April-29-2021,Single Family Residential,2021 St Pauls Ct,Prince Frederick,MD,20678,562715,4,2.5,OAKLAND HALL,3366,29218,2021,220,167,50,Sold,,,https://www.redfin.com/MD/Prince-Frederick/2021-St-Pauls-Ct-20678/home/171277672,BRIGHT MLS,MDCA180874,N,Y,38.504064,-76.567455
PAST SALE,June-3-2021,Single Family Residential,1327 St Louis Ct,Prince Frederick,MD,20678,600513,4,2.5,OAKLAND HALL,4280,34116,2021,185,140,50,Sold,,,https://www.redfin.com/MD/Prince-Frederick/1327-St-Louis-Ct-20678/home/171277697,BRIGHT MLS,MDCA180864,N,Y,38.504545,-76.568073
PAST SALE,December-28-2020,Single Family Residential,2030 St Pauls Ct,Prince Frederick,MD,20678,594749,4,2.5,OAKLAND HALL,3440,32544,2020,342,173,50,Sold,,,https://www.redfin.com/MD/Prince-Frederick/2030-St-Pauls-Ct-20678/home/171277679,BRIGHT MLS,MDCA180402,N,Y,38.503194,-76.56646
PAST SALE,February-18-2021,Single Family Residential,2041 St Pauls Ct,Prince Frederick,MD,20678,612703,4,4.5,OAKLAND HALL,4820,35736,,290,127,50,Sold,,,https://www.redfin.com/MD/Prince-Frederick/2041-St-Pauls-Ct-20678/home/171277683,BRIGHT MLS,MDCA180150,N,Y,38.502116,-76.567622
PAST SALE,April-8-2021,Single Family Residential,1305 St Louis Ct,Prince Frederick,MD,20678,491514,3,2.0,OAKLAND HALL,2246,32751,2021,241,219,50,Sold,,,https://www.redfin.com/MD/Prince-Frederick/1305-St-Louis-Ct-20678/home/171277686,BRIGHT MLS,MDCA180872,N,Y,38.503273,-76.567461
PAST SALE,May-6-2021,Single Family Residential,2025 St Pauls Ct,Prince Frederick,MD,20678,643848,6,4.0,OAKLAND HALL,4780,29788,2021,213,135,50,Sold,,,https://www.redfin.com/MD/Prince-Frederick/2025-St-Pauls-Ct-20678/home/171277687,BRIGHT MLS,MDCA180878,N,Y,38.503676,-76.567447
PAST SALE,March-4-2021,Single Family Residential,2018 St Pauls Ct,Prince Frederick,MD,20678,579039,5,3.5,OAKLAND HALL,5536,30020,2021,276,105,50,Sold,,,https://www.redfin.com/MD/Prince-Frederick/2018-St-Pauls-Ct-20678/home/171277670,BRIGHT MLS,MDCA180860,N,Y,38.504225,-76.566477
PAST SALE,March-25-2021,Single Family Residential,1328 St Louis Ct,Prince Frederick,MD,20678,533541,4,2.5,OAKLAND HALL,2677,30569,2021,255,199,50,Sold,,,https://www.redfin.com/MD/Prince-Frederick/1328-St-Louis-Ct-20678/home/171277693,BRIGHT MLS,MDCA180856,N,Y,38.504404,-76.569247
PAST SALE,July-9-2020,Single Family Residential,2004 St. Paul's Ct,Prince Frederick,MD,20678,709616,5,3.5,OAKLAND HALL,4398,60984,2020,514,161,50,Sold,,,https://www.redfin.com/MD/Prince-Frederick/2004-St-Pauls-Ct-20678/home/171277667,BRIGHT MLS,MDCA176566,N,Y,38.5061994,-76.5666949
PAST SALE,December-21-2018,Single Family Residential,2609 Pimlico Way,Prince Frederick,MD,20678,671968,4,3.5,OAKLAND HALL,3940,156380,2018,1080,171,50,Sold,,,https://www.redfin.com/MD/Unknown/2609-Pimlico-Way-20678/home/167709918,BRIGHT MLS,MDCA140076,N,Y,38.4940429,-76.5621476
PAST SALE,January-31-2019,Single Family Residential,2010 Baythorne Rd,Prince Frederick,MD,20678,499900,4,3.5,COLLEGE STATION,3024,35093,2012,1039,165,33,Sold,,,https://www.redfin.com/MD/Prince-Frederick/2010-Baythorne-Rd-20678/home/17374261,BRIGHT MLS,MDCA100332,N,Y,38.5424337,-76.6148482
PAST SALE,November-12-2020,Single Family Residential,6050 Daybreak Dr,Prince Frederick,MD,20678,285000,3,2.0,PATUXENT VIEW,1144,17631,1977,388,249,,Sold,,,https://www.redfin.com/MD/Prince-Frederick/6050-Daybreak-Dr-20678/home/15107121,BRIGHT MLS,MDCA178818,N,Y,38.5024974,-76.6613725
PAST SALE,September-30-2021,Single Family Residential,2062 St Pauls Ct,Prince Frederick,MD,20678,605764,4,2.5,OAKLAND HALL,4390,42539,2021,66,138,50,Sold,,,https://www.redfin.com/MD/Prince-Frederick/2062-St-Pauls-Ct-20678/home/174335136,BRIGHT MLS,MDCA180922,N,Y,38.5020265,-76.5669533
PAST SALE,January-29-2021,Single Family Residential,3560 Sixes Rd,Prince Frederick,MD,20678,405000,3,3.0,Prince Frederick,2256,68825,1990,310,180,,Sold,,,https://www.redfin.com/MD/Prince-Frederick/3560-Sixes-Rd-20678/home/15104573,BRIGHT MLS,MDCA180318,N,Y,38.4949364,-76.6009463
PAST SALE,August-10-2021,Townhouse,541 Bridgeport Pl,Prince Frederick,MD,20678,315000,3,3.0,CHAPLINE PLACE,1738,1760,2002,117,181,73,Sold,,,https://www.redfin.com/MD/Prince-Frederick/541-Bridgeport-Pl-20678/home/15099556,BRIGHT MLS,MDCA2000314,N,Y,38.550592,-76.596136
PAST SALE,September-28-2021,Single Family Residential,372 Whirlaway Dr,Prince Frederick,MD,20678,425000,4,2.5,PRINCE FREDERICK WOODS,2441,9221,2016,68,174,60,Sold,,,https://www.redfin.com/MD/Prince-Frederick/372-Whirlaway-Dr-20678/home/17374680,BRIGHT MLS,MDCA2001490,N,Y,38.5305774,-76.5876276
PAST SALE,December-28-2018,Single Family Residential,4008 Cassell Blvd,Prince Frederick,MD,20678,261500,4,3.0,CHES HGTS,1656,16167,1982,1073,158,,Sold,,,https://www.redfin.com/MD/Prince-Frederick/4008-Cassell-Blvd-20678/home/15106517,BRIGHT MLS,1000132134,N,Y,38.5661052,-76.5305107
PAST SALE,May-14-2021,Single Family Residential,1675 German Chapel Rd,Prince Frederick,MD,20678,280000,4,1.0,BARSTOW,2073,32670,1969,205,135,,Sold,,,https://www.redfin.com/MD/Prince-Frederick/1675-German-Chapel-Rd-20678/home/15108679,BRIGHT MLS,MDCA181034,N,Y,38.518384,-76.587678
PAST SALE,August-31-2021,Single Family Residential,485 Stoakley Rd,Prince Frederick,MD,20678,370000,3,2.5,Prince Frederick,1749,233046,1971,96,212,,Sold,,,https://www.redfin.com/MD/Prince-Frederick/485-Stoakley-Rd-20678/home/15107533,BRIGHT MLS,MDCA2000644,N,Y,38.559268,-76.605909
PAST SALE,December-2-2020,Single Family Residential,1985 Adelina Rd,Prince Frederick,MD,20678,354900,4,3.0,Prince Frederick,2238,24393,1975,368,159,,Sold,,,https://www.redfin.com/MD/Prince-Frederick/1985-Adelina-Rd-20678/home/15105662,BRIGHT MLS,MDCA179376,N,Y,38.4863269,-76.6217175
PAST SALE,,Unknown,,Prince Frederick,MD,,533806,,,,,,,,,,,,,https://www.redfin.com/MD/Prince-Frederick/Unknown-Unknown/home/160038472,,,N,Y,38.5403996,-76.5844017
PAST SALE,March-13-2020,Single Family Residential,4484 Virginia Ave,Prince Frederick,MD,20678,275000,4,3.0,DARES BEACH,1800,113256,1950,632,153,,Sold,,,https://www.redfin.com/MD/Prince-Frederick/4484-Virginia-Ave-20678/home/15108527,BRIGHT MLS,MDCA174260,N,Y,38.5618001,-76.5191742
PAST SALE,January-9-2020,Single Family Residential,220 Terrace Dr,Prince Frederick,MD,20678,330000,5,3.5,Prince Frederick,2688,197762,1990,696,123,,Sold,,,https://www.redfin.com/MD/Prince-Frederick/220-Terrace-Dr-20678/home/15108543,BRIGHT MLS,MDCA173266,N,Y,38.5490327,-76.5592766
PAST SALE,May-25-2021,Single Family Residential,6201 Norwood Rd,Prince Frederick,MD,20678,756000,5,3.5,Prince Frederick,3792,46609,1966,194,199,,Sold,,,https://www.redfin.com/MD/Prince-Frederick/6201-Ray-Norwood-Rd-20678/home/15108472,BRIGHT MLS,MDCA182026,N,Y,38.4955025,-76.6504086
PAST SALE,July-13-2021,Single Family Residential,65 Adelina Rd,Prince Frederick,MD,20678,365000,4,2.0,Prince Frederick,2052,41904,1972,145,178,,Sold,,,https://www.redfin.com/MD/Prince-Frederick/65-Adelina-Rd-20678/home/15108452,BRIGHT MLS,MDCA183444,N,Y,38.5101386,-76.6228366
PAST SALE,,Unknown,,Prince Frederick,MD,,504810,,,,,,,,,,,,,https://www.redfin.com/MD/Prince-Frederick/Unknown-Unknown/home/160445874,,,N,Y,38.5403996,-76.5844017
PAST SALE,May-28-2021,Single Family Residential,1525 Adelina Rd,Prince Frederick,MD,20678,265000,3,1.0,Prince Frederick,953,43560,1950,191,278,,Sold,,,https://www.redfin.com/MD/Prince-Frederick/1525-Adelina-Rd-20678/home/15106898,BRIGHT MLS,MDCA182420,N,Y,38.4897899,-76.6216792
PAST SALE,September-27-2021,Single Family Residential,3425 Leitches Wharf Rd,Prince Frederick,MD,20678,255000,2,1.0,Prince Frederick,1084,96703,1945,69,235,,Sold,,,https://www.redfin.com/MD/Prince-Frederick/3425-Leitches-Wharf-Rd-20678/home/15106943,BRIGHT MLS,MDCA2001226,N,Y,38.550125,-76.640007
PAST SALE,November-26-2020,Single Family Residential,1655 German Chapel Rd,Prince Frederick,MD,20678,415000,4,2.5,Prince Frederick,5014,32670,1979,374,83,,Sold,,,https://www.redfin.com/MD/Prince-Frederick/1655-German-Chapel-Rd-20678/home/15106976,BRIGHT MLS,MDCA178010,N,Y,38.5185906,-76.5869074
PAST SALE,August-30-2019,Single Family Residential,515 Clay Hammond Rd,Prince Frederick,MD,20678,425000,3,2.0,Prince Frederick,3336,43560,1987,828,127,,Sold,,,https://www.redfin.com/MD/Prince-Frederick/515-Clay-Hammond-Rd-20678/home/15108796,BRIGHT MLS,MDCA171052,N,Y,38.5630248,-76.5598861
PAST SALE,December-3-2021,Single Family Residential,1185 Gallahan Rd,Prince Frederick,MD,20678,515000,5,2.5,GALLAHANS CHOICE,2593,35549,2016,2,199,29,Sold,,,https://www.redfin.com/MD/Prince-Frederick/1185-Gallahan-Rd-20678/home/15089806,BRIGHT MLS,MDCA2002458,N,Y,38.5188101,-76.5825932
PAST SALE,October-15-2020,Single Family Residential,521 Paula Ter,Prince Frederick,MD,20678,290000,3,2.0,CHES HGTS,1760,22738,1990,416,165,,Sold,,,https://www.redfin.com/MD/Prince-Frederick/521-Paula-Ter-20678/home/15105538,BRIGHT MLS,MDCA177080,N,Y,38.5706298,-76.5244135
PAST SALE,July-31-2020,Single Family Residential,4305 Paula Ct,Prince Frederick,MD,20678,308000,3,1.5,CHES HGTS,1560,21834,1976,492,197,,Sold,,,https://www.redfin.com/MD/Prince-Frederick/4305-Paula-Ct-20678/home/15108585,BRIGHT MLS,MDCA177148,N,Y,38.5687505,-76.5241877
PAST SALE,August-21-2020,Single Family Residential,74 Central Dr,Prince Frederick,MD,20678,302000,3,2.0,CENTRAL VILLAGE,888,15588,1980,471,340,,Sold,,,https://www.redfin.com/MD/Prince-Frederick/74-Central-Dr-20678/home/15105543,BRIGHT MLS,MDCA177054,N,Y,38.5555027,-76.5764336
PAST SALE,October-28-2020,Single Family Residential,165 Central Dr,Prince Frederick,MD,20678,285000,3,2.0,CENTRAL VILLAGE,1488,15355,1959,403,192,,Sold,,,https://www.redfin.com/MD/Prince-Frederick/165-Central-Dr-20678/home/15106320,BRIGHT MLS,MDCA177254,N,Y,38.5538927,-76.5757564
PAST SALE,July-9-2021,Single Family Residential,240 Bay Ave,Prince Frederick,MD,20678,303000,3,1.0,DARES BEACH,1288,8000,1951,149,235,,Sold,,,https://www.redfin.com/MD/Prince-Frederick/240-Bay-Ave-20678/home/15108126,BRIGHT MLS,MDCA183058,N,Y,38.5613645,-76.5168255
PAST SALE,September-17-2021,Single Family Residential,30 S Chesapeake Ave,Prince Frederick,MD,20678,629999,4,2.0,DARES BEACH,2272,34658,1936,79,277,,Sold,,,https://www.redfin.com/MD/Prince-Frederick/30-S-Chesapeake-Ave-20678/home/15108120,BRIGHT MLS,MDCA183152,N,Y,38.5560971,-76.515877
PAST SALE,April-2-2021,Single Family Residential,432 Paula Ter,Prince Frederick,MD,20678,375000,3,2.0,CHES HGTS,1739,13560,1976,247,216,,Sold,,,https://www.redfin.com/MD/Prince-Frederick/432-Paula-Ter-20678/home/15105790,BRIGHT MLS,MDCA181124,N,Y,38.5681846,-76.5254636
PAST SALE,August-6-2020,Single Family Residential,4310 Flora Ave,Prince Frederick,MD,20678,295000,3,2.0,CHES HGTS,1540,23707,1976,486,192,,Sold,,,https://www.redfin.com/MD/Prince-Frederick/4310-Flora-Ave-20678/home/15106844,BRIGHT MLS,MDCA177064,N,Y,38.5670448,-76.5244135
PAST SALE,August-23-2019,Single Family Residential,425 Paula Ter,Prince Frederick,MD,20678,290000,3,1.5,CHES HGTS,1722,15472,1976,835,168,,Sold,,,https://www.redfin.com/MD/Prince-Frederick/425-Paula-Ter-20678/home/15106864,BRIGHT MLS,MDCA169888,N,Y,38.567849,-76.525091
PAST SALE,November-19-2020,Single Family Residential,20 Macrae Ave,Prince Frederick,MD,20678,365000,3,3.0,DARES BEACH,2580,9000,1997,381,141,,Sold,,,https://www.redfin.com/MD/Prince-Frederick/20-S-Macrae-Ave-20678/home/15102952,BRIGHT MLS,MDCA179168,N,Y,38.5564777,-76.5168932
PAST SALE,,Single Family Residential,4419 S Shore Dr,Prince Frederick,MD,20678,360000,,1.5,,1680,30371,1977,,214,,,,,https://www.redfin.com/MD/Prince-Frederick/4419-S-Shore-Dr-20678/home/15105974,,,N,Y,38.5643108,-76.5206647
PAST SALE,July-15-2020,Single Family Residential,25 S Macrae Ave,Prince Frederick,MD,20678,415000,4,3.0,DARES BEACH,2668,22000,1964,508,156,,Sold,,,https://www.redfin.com/MD/Prince-Frederick/25-S-Macrae-Ave-20678/home/15106199,BRIGHT MLS,MDCA176212,N,Y,38.556231,-76.5173675
PAST SALE,May-28-2020,Single Family Residential,6056 Daybreak Dr,Prince Frederick,MD,20678,299600,6,2.0,PATUXENT VIEW,2428,18272,1977,556,123,,Sold,,,https://www.redfin.com/MD/Prince-Frederick/6056-Daybreak-Dr-20678/home/15104435,BRIGHT MLS,MDCA174342,N,Y,38.5024285,-76.6618237
PAST SALE,March-31-2021,Single Family Residential,175 Macrae Ave,Prince Frederick,MD,20678,260000,2,1.0,DARES BEACH,1056,8000,1979,249,246,13,Sold,,,https://www.redfin.com/MD/Prince-Frederick/175-Macrae-Ave-20678/home/15105279,BRIGHT MLS,MDCA180642,N,Y,38.5600932,-76.5173223
PAST SALE,July-24-2020,Single Family Residential,110 Helena Dr,Prince Frederick,MD,20678,360000,4,3.0,THE KNOLLS,2580,20691,1978,499,140,,Sold,,,https://www.redfin.com/MD/Prince-Frederick/110-Helena-Dr-20678/home/15103649,BRIGHT MLS,MDCA174918,N,Y,38.5354722,-76.6003594
PAST SALE,,Single Family Residential,317 Sunset Ln,Prince Frederick,MD,20678,275700,,2.0,,1680,15135,1979,,164,,,,,https://www.redfin.com/MD/Prince-Frederick/317-Sunset-Ln-20678/home/15103726,,,N,Y,38.5043822,-76.6618011
PAST SALE,March-1-2021,Single Family Residential,2450 Abigail Ct,Prince Frederick,MD,20678,560521,5,2.5,WHISPERING WOODS,2829,109336,2000,279,198,26,Sold,,,https://www.redfin.com/MD/Prince-Frederick/2450-Abigail-Ct-20678/home/15110050,BRIGHT MLS,MDCA180726,N,Y,38.4982796,-76.5431784
