SALE TYPE,SOLD DATE,PROPERTY TYPE,ADDRESS,CITY,STATE OR PROVINCE,ZIP OR POSTAL CODE,PRICE,BEDS,BATHS,LOCATION,SQUARE FEET,LOT SIZE,YEAR BUILT,DAYS ON MARKET,$/SQUARE FEET,HOA/MONTH,STATUS,NEXT OPEN HOUSE START TIME,NEXT OPEN HOUSE END TIME,URL (SEE https://www.redfin.com/buy-a-home/comparative-market-analysis FOR INFO ON PRICING),SOURCE,MLS#,FAVORITE,INTERESTED,LATITUDE,LONGITUDE
PAST SALE,February-27-2019,Single Family Residential,5906 Point Pleasant Rd,Baltimore,MD,21206,239900,4,3.0,PLEASANT PROSPECT,1935,8125,1973,1012,124,,Sold,,,https://www.redfin.com/MD/Baltimore/5906-Point-Pleasant-Rd-21206/home/9414541,BRIGHT MLS,MDBC255058,N,Y,39.3461542,-76.518858
PAST SALE,,Townhouse,5847 Arizona Ave,Baltimore,MD,21206,155000,,1.0,,1152,4067,1960,,135,,,,,https://www.redfin.com/MD/Baltimore/5847-Arizona-Ave-21206/home/11118017,,,N,Y,39.3356397,-76.5354042
PAST SALE,July-2-2021,Single Family Residential,18 Madeline Ave,Baltimore,MD,21206,285000,4,2.0,OVERLEA PARK,1698,12100,1923,156,168,,Sold,,,https://www.redfin.com/MD/Baltimore/18-Madeline-Ave-21206/home/9408457,BRIGHT MLS,MDBC527088,N,Y,39.357504,-76.5246845
PAST SALE,,Townhouse,5408 Sinclair Greens Dr,Baltimore,MD,21206,232500,,2.5,,1600,2962,2005,,145,,,,,https://www.redfin.com/MD/Baltimore/5408-Sinclair-Greens-Dr-21206/home/11223039,,,N,Y,39.3207251,-76.538821
PAST SALE,October-29-2021,Single Family Residential,4010 Ridgecroft Rd,Baltimore,MD,21206,245000,4,2.0,Ward 27,1304,9370,1924,37,188,,Sold,,,https://www.redfin.com/MD/Baltimore/4010-Ridgecroft-Rd-21206/home/11129394,BRIGHT MLS,MDBA2009118,N,Y,39.3365185,-76.5571543
PAST SALE,July-23-2021,Townhouse,5423 Frankford Estates Dr,Baltimore,MD,21206,261000,3,3.0,Ward 26,1700,2875,2005,135,154,60,Sold,,,https://www.redfin.com/MD/Baltimore/5423-Frankford-Estates-Dr-21206/home/28546379,BRIGHT MLS,MDBA2000888,N,Y,39.3197187,-76.5384499
PAST SALE,,Single Family Residential,310 Dale Ave,Baltimore,MD,21206,224000,,2.0,,1080,6360,1940,,207,,,,,https://www.redfin.com/MD/Baltimore/310-Dale-Ave-21206/home/9393896,,,N,Y,39.3548325,-76.5219294
PAST SALE,May-29-2020,Single Family Residential,5841 Daybreak Ter,Baltimore,MD,21206,331000,3,2.5,DAYBREAK ESTATES,2813,7056,1986,555,118,,Sold,,,https://www.redfin.com/MD/Baltimore/5841-Daybreak-Ter-21206/home/9420779,BRIGHT MLS,MDBC490060,N,Y,39.3445993,-76.5178192
PAST SALE,March-4-2020,Single Family Residential,4608 Mary Ave,Baltimore,MD,21206,245000,5,2.5,Ward 26,2376,7000,2008,641,103,,Sold,,,https://www.redfin.com/MD/Baltimore/4608-Mary-Ave-21206/home/11098189,BRIGHT MLS,MDBA493438,N,Y,39.3429722,-76.536156
PAST SALE,,Townhouse,5405 Sinclair Greens Dr,Baltimore,MD,21206,220000,,2.5,,1700,2788,2005,,129,,,,,https://www.redfin.com/MD/Baltimore/5405-Sinclair-Greens-Dr-21206/home/28546342,,,N,Y,39.3203078,-76.5389488
PAST SALE,October-15-2021,Multi-Family (2-4 Unit),4308 Hamilton Ave,Baltimore,MD,21206,315000,,,Ward 26,3271,10995,1912,51,96,,Sold,,,https://www.redfin.com/MD/Baltimore/4308-Hamilton-Ave-21206/home/11099345,BRIGHT MLS,MDBA553852,N,Y,39.3409303,-76.5435171
PAST SALE,August-22-2019,Single Family Residential,4102 Wilke Ave,Baltimore,MD,21206,219000,3,2.0,WALTHERSON,1806,6756,1927,836,121,,Sold,,,https://www.redfin.com/MD/Baltimore/4102-Wilke-Ave-21206/home/11120323,BRIGHT MLS,MDBA468436,N,Y,39.3341475,-76.5596829
PAST SALE,September-30-2021,Townhouse,5404 Sinclair Greens Dr,Baltimore,MD,21206,260000,4,3.0,Ward 26,1600,2962,2005,66,163,60,Sold,,,https://www.redfin.com/MD/Baltimore/5404-Sinclair-Greens-Dr-21206/home/11891598,BRIGHT MLS,MDBA2005388,N,Y,39.3206229,-76.5390023
MLS Listing,,Townhouse,6107 Fairwood Ave,Baltimore,MD,21206,199000,3,2.0,Ward 27,1690,1240,1976,1,118,35,Active,,,https://www.redfin.com/MD/Baltimore/6107-Fairwood-Ave-21206/home/11134306,BRIGHT MLS,MDBA2020800,N,Y,39.3493729,-76.5425702
MLS Listing,,Single Family Residential,711 Old Home Rd,Baltimore,MD,21206,324900,4,3.0,ELMWOOD,2378,6250,1928,2,137,,Active,December-5-2021 12:00 PM,December-5-2021 02:00 PM,https://www.redfin.com/MD/Baltimore/711-Old-Home-Rd-21206/home/9401836,BRIGHT MLS,MDBC2017664,N,Y,39.35211,-76.525253
MLS Listing,,Townhouse,4107 Kinsway,Baltimore,MD,21206,179750,3,1.5,Ward 27,1552,871,1942,3,116,,Active,,,https://www.redfin.com/MD/Baltimore/4107-Kinsway-21206/home/11134056,BRIGHT MLS,MDBA2019862,N,Y,39.3446404,-76.5440514
MLS Listing,,Townhouse,5512 Whitby Rd,Baltimore,MD,21206,219900,3,1.5,Ward 26,1440,,1959,3,153,,Active,,,https://www.redfin.com/MD/Baltimore/5512-Whitby-Rd-21206/home/11118653,BRIGHT MLS,MDBA2020524,N,Y,39.3342308,-76.5314636
MLS Listing,,Single Family Residential,4600 Springwood Ave,Baltimore,MD,21206,299900,3,2.0,BELMAR,1952,9702,1953,4,154,,Active,,,https://www.redfin.com/MD/Baltimore/4600-Springwood-Ave-21206/home/9396851,BRIGHT MLS,MDBC2016372,N,Y,39.347794,-76.5267169
MLS Listing,,Townhouse,6141 Twilight Ct,Baltimore,MD,21206,235000,3,2.5,DAYBREAK ESTATES,1970,3984,1989,4,119,30,Active,December-5-2021 12:00 PM,December-5-2021 04:00 PM,https://www.redfin.com/MD/Baltimore/6141-Twilight-Ct-21206/home/9421644,BRIGHT MLS,MDBC2016412,N,Y,39.344839,-76.515508
MLS Listing,,Single Family Residential,4408 Forest View Ave,Baltimore,MD,21206,299900,4,3.5,Ward 26,1780,6969,1919,4,168,,Active,,,https://www.redfin.com/MD/Baltimore/4408-Forest-View-Ave-21206/home/11096674,BRIGHT MLS,MDBA2020024,N,Y,39.3501391,-76.5324527
MLS Listing,,Single Family Residential,7212 Beech Ave,Baltimore,MD,21206,349900,4,3.0,CHERRY HEIGHTS,2074,5810,1951,4,169,,Active,December-5-2021 11:00 AM,December-5-2021 01:00 PM,https://www.redfin.com/MD/Baltimore/7212-Beech-Ave-21206/home/9391275,BRIGHT MLS,MDBC2017640,N,Y,39.3578547,-76.5221665
MLS Listing,,Townhouse,4311 Roberton Ave,Baltimore,MD,21206,89900,3,1.5,Ward 26,896,,1956,4,100,,Active,,,https://www.redfin.com/MD/Baltimore/4311-Roberton-Ave-21206/home/11102262,BRIGHT MLS,MDBA2019356,N,Y,39.3244324,-76.5558557
MLS Listing,,Single Family Residential,4002 Ridgecroft Rd,Baltimore,MD,21206,259900,4,1.0,Ward 27,1182,6996,1924,5,220,,Active,,,https://www.redfin.com/MD/Baltimore/4002-Ridgecroft-Rd-21206/home/11129407,BRIGHT MLS,MDBA2019920,N,Y,39.3371023,-76.5573801
MLS Listing,,Single Family Residential,4502 Glenarm Ave,Baltimore,MD,21206,250000,3,1.0,Ward 26,1696,14850,1900,5,147,,Active,,,https://www.redfin.com/MD/Baltimore/4502-Glenarm-Ave-21206/home/11097938,BRIGHT MLS,MDBA2020056,N,Y,39.3441105,-76.5367281
MLS Listing,,Single Family Residential,4414 Bayonne Ave,Baltimore,MD,21206,240000,3,2.0,Ward 26,1308,6499,1924,5,183,,Active,,,https://www.redfin.com/MD/Baltimore/4414-Bayonne-Ave-21206/home/11098941,BRIGHT MLS,MDBA2019532,N,Y,39.3415195,-76.5387167
MLS Listing,,Single Family Residential,5421 Omaha Ave,Baltimore,MD,21206,239900,3,1.5,Ward 26,1648,7118,1954,5,146,,Active,,,https://www.redfin.com/MD/Baltimore/5421-Omaha-Ave-21206/home/11088650,BRIGHT MLS,MDBA2019944,N,Y,39.3262233,-76.538956
MLS Listing,,Single Family Residential,4524 Hazelwood Ave,Baltimore,MD,21206,279900,4,2.0,Ward 26,2205,16200,1956,8,127,,Active,,,https://www.redfin.com/MD/Baltimore/4524-Hazelwood-Ave-21206/home/11099470,BRIGHT MLS,MDBA2019550,N,Y,39.3391267,-76.5390011
MLS Listing,,Single Family Residential,6104 Eastern Pkwy,Baltimore,MD,21206,269900,3,2.0,Ward 27,1768,5763,1955,8,153,,Active,,,https://www.redfin.com/MD/Baltimore/6104-Eastern-Pkwy-21206/home/11131257,BRIGHT MLS,MDBA2018858,N,Y,39.3546075,-76.5471298
MLS Listing,,Townhouse,5604 Biddison Ave,Baltimore,MD,21206,229900,3,1.5,Ward 27,1196,4494,1955,8,192,,Active,,,https://www.redfin.com/MD/Baltimore/5604-Biddison-Ave-21206/home/11124371,BRIGHT MLS,MDBA2019750,N,Y,39.3457527,-76.5506971
MLS Listing,,Single Family Residential,3613 Glenarm Ave,Baltimore,MD,21206,265000,4,2.0,Ward 27,2340,8303,1957,10,113,,Active,,,https://www.redfin.com/MD/Baltimore/3613-Glenarm-Ave-21206/home/11133522,BRIGHT MLS,MDBA2019526,N,Y,39.3503545,-76.5471749
MLS Listing,,Single Family Residential,4415 Forest View Ave,Baltimore,MD,21206,299900,4,1.5,Ward 26,1659,10500,1910,10,181,,Active,,,https://www.redfin.com/MD/Baltimore/4415-Forest-View-Ave-21206/home/11096805,BRIGHT MLS,MDBA2018880,N,Y,39.3497014,-76.5317753
MLS Listing,,Single Family Residential,5512 Hilltop Ave,Baltimore,MD,21206,299900,4,2.0,Ward 27,1488,7497,1924,11,202,,Active,,,https://www.redfin.com/MD/Baltimore/5512-Hilltop-Ave-21206/home/11127500,BRIGHT MLS,MDBA2019582,N,Y,39.3416365,-76.550302
MLS Listing,,Single Family Residential,5114 Mcfaul Rd,Baltimore,MD,21206,300000,5,2.0,BLACKTHORN,2144,7150,1963,12,140,,Active,December-5-2021 12:00 PM,December-5-2021 04:00 PM,https://www.redfin.com/MD/Baltimore/5114-McFaul-Rd-21206/home/9405036,BRIGHT MLS,MDBC2010510,N,Y,39.3371689,-76.5203125
MLS Listing,,Single Family Residential,5718 White Ave,Baltimore,MD,21206,75000,3,2.5,Ward 26,1650,5497,1956,13,45,,Active,,,https://www.redfin.com/MD/Baltimore/5718-White-Ave-21206/home/11094379,BRIGHT MLS,MDBA2019382,N,Y,39.3391937,-76.534485
MLS Listing,,Townhouse,5617 Leiden Rd,Baltimore,MD,21206,120000,3,1.5,HOLLAND HILL,1184,4060,1964,15,101,,Active,,,https://www.redfin.com/MD/Baltimore/5617-Leiden-Rd-21206/home/9405180,BRIGHT MLS,MDBC2016930,N,Y,39.3342021,-76.5276541
MLS Listing,,Single Family Residential,4617 Hazelwood Ave,Baltimore,MD,21206,248200,4,2.0,Ward 26,2038,3737,1951,15,122,,Active,,,https://www.redfin.com/MD/Baltimore/4617-Hazelwood-Ave-21206/home/11887268,BRIGHT MLS,MDBA2019240,N,Y,39.3405999,-76.5362915
MLS Listing,,Townhouse,5969 Glen Falls Ave,Baltimore,MD,21206,219900,4,2.0,Ward 27,1650,1000,1951,16,133,,Active,,,https://www.redfin.com/MD/Baltimore/5969-Glen-Falls-Ave-21206/home/11134455,BRIGHT MLS,MDBA2019170,N,Y,39.347834,-76.541403
MLS Listing,,Single Family Residential,6017 Eastern Pkwy,Baltimore,MD,21206,299999,5,3.0,Ward 27,1353,7309,1952,16,222,,Active,,,https://www.redfin.com/MD/Baltimore/6017-Eastern-Pkwy-21206/home/11132118,BRIGHT MLS,MDBA2019192,N,Y,39.353029,-76.546904
MLS Listing,,Townhouse,5401 Seward Ave,Baltimore,MD,21206,199900,2,2.5,Ward 26,1280,,1956,16,156,,Active,,,https://www.redfin.com/MD/Baltimore/5401-Seward-Ave-21206/home/11088188,BRIGHT MLS,MDBA2007064,N,Y,39.3281415,-76.5404081
MLS Listing,,Townhouse,5527 Silverbell Rd,Baltimore,MD,21206,189900,3,1.0,Ward 26,1728,1348,1960,17,110,,Active,,,https://www.redfin.com/MD/Baltimore/5527-Silverbell-Rd-21206/home/11118757,BRIGHT MLS,MDBA2018420,N,Y,39.3352851,-76.5320463
MLS Listing,,Single Family Residential,3803 Cedarhurst Rd,Baltimore,MD,21206,289900,3,2.0,Ward 27,1404,4413,1958,17,206,,Active,,,https://www.redfin.com/MD/Baltimore/3803-Cedarhurst-Rd-21206/home/11121910,BRIGHT MLS,MDBA2018516,N,Y,39.3370044,-76.5633403
MLS Listing,,Townhouse,4361 Seidel Ave,Baltimore,MD,21206,145000,2,1.5,Ward 26,1015,,1951,19,143,,Active,,,https://www.redfin.com/MD/Baltimore/4361-Seidel-Ave-21206/home/11115385,BRIGHT MLS,MDBA2018670,N,Y,39.3271859,-76.560665
MLS Listing,,Single Family Residential,5202 Kenwood Ave,Baltimore,MD,21206,275000,4,1.5,KENWOOD PARK,1122,5100,1928,20,245,,Active,,,https://www.redfin.com/MD/Baltimore/5202-Kenwood-Ave-21206/home/9401389,BRIGHT MLS,MDBC2016100,N,Y,39.354577,-76.5129861
MLS Listing,,Townhouse,5807 Judith Way,Baltimore,MD,21206,169900,3,1.5,Ward 26,1152,,1960,24,147,,Active,,,https://www.redfin.com/MD/Baltimore/5807-Judith-Way-21206/home/11117594,BRIGHT MLS,MDBA2018018,N,Y,39.333774,-76.5358204
MLS Listing,,Townhouse,4312 Brehms Ln,Baltimore,MD,21206,189000,3,1.0,Ward 26,1378,4356,1955,25,137,1,Active,,,https://www.redfin.com/MD/Baltimore/4312-Brehms-Ln-21206/home/11101427,BRIGHT MLS,MDBA2010586,N,Y,39.3252365,-76.5601683
MLS Listing,,Townhouse,5210 Darien Rd,Baltimore,MD,21206,173000,2,1.5,Ward 26,1440,1980,1962,26,120,,Active,,,https://www.redfin.com/MD/Baltimore/5210-Darien-Rd-21206/home/11087728,BRIGHT MLS,MDBA2018070,N,Y,39.327007,-76.5319077
MLS Listing,,Single Family Residential,11 Willow Ave,Baltimore,MD,21206,325000,7,4.5,OVERLEA PARK,2606,11250,1911,26,125,,Active,,,https://www.redfin.com/MD/Baltimore/11-Willow-Ave-21206/home/9400990,BRIGHT MLS,MDBC2015740,N,Y,39.3568329,-76.5262567
MLS Listing,,Townhouse,4822 Midline Rd,Baltimore,MD,21206,107000,3,1.5,Ward 26,1489,1863,1959,26,72,,Active,,,https://www.redfin.com/MD/Baltimore/4822-Midline-Rd-21206/home/11089315,BRIGHT MLS,MDBA2017980,N,Y,39.322871,-76.5370592
MLS Listing,,Townhouse,5466 Bucknell Rd,Baltimore,MD,21206,175000,3,1.5,Ward 26,1152,1800,1959,30,152,,Active,,,https://www.redfin.com/MD/Baltimore/5466-Bucknell-Rd-21206/home/11117676,BRIGHT MLS,MDBA2017220,N,Y,39.3340555,-76.5342028
MLS Listing,,Townhouse,5608 Biddison Ave,Baltimore,MD,21206,239000,3,1.5,Ward 27,1196,5662,1955,33,200,,Active,,,https://www.redfin.com/MD/Baltimore/5608-Biddison-Ave-21206/home/11124378,BRIGHT MLS,MDBA2016652,N,Y,39.3458596,-76.5505052
MLS Listing,,Townhouse,4795 1/2 Shamrock Ave,Baltimore,MD,21206,157000,3,1.5,Ward 26,1280,1600,1957,34,123,,Active,,,https://www.redfin.com/MD/Baltimore/4789-1-2-Shamrock-Ave-21206/home/143324284,BRIGHT MLS,MDBA2017172,N,Y,39.3231286,-76.5542399
MLS Listing,,Single Family Residential,718 Elmwood Rd,Baltimore,MD,21206,289900,4,2.5,ELMWOOD,1548,8047,1928,34,187,,Active,,,https://www.redfin.com/MD/Baltimore/718-Elmwood-Rd-21206/home/9403369,BRIGHT MLS,MDBC2015020,N,Y,39.3533628,-76.5250007
MLS Listing,,Single Family Residential,3620 Mary Ave,Baltimore,MD,21206,249900,3,2.0,Ward 27,1842,5345,1924,34,136,,Active,,,https://www.redfin.com/MD/Baltimore/3620-Mary-Ave-21206/home/11133534,BRIGHT MLS,MDBA2017028,N,Y,39.3496931,-76.5473894
MLS Listing,,Townhouse,4210 Berger Ave,Baltimore,MD,21206,125000,4,1.5,Ward 26,1966,6534,1928,34,64,,Active,,,https://www.redfin.com/MD/Baltimore/4210-Berger-Ave-21206/home/11093378,BRIGHT MLS,MDBA2017054,N,Y,39.340195,-76.5473443
MLS Listing,,Townhouse,6019 Arizona Ave,Baltimore,MD,21206,179950,3,1.5,Ward 26,1440,3,1960,35,125,,Active,,,https://www.redfin.com/MD/Baltimore/6019-Arizona-Ave-21206/home/11118461,BRIGHT MLS,MDBA2016382,N,Y,39.3358286,-76.5324587
MLS Listing,,Single Family Residential,6112 Ridgeview Ave,Baltimore,MD,21206,239500,3,1.5,Ward 27,1768,8098,1940,36,135,,Active,December-5-2021 12:00 PM,December-5-2021 03:00 PM,https://www.redfin.com/MD/Baltimore/6112-Ridgeview-Ave-21206/home/11135067,BRIGHT MLS,MDBA2016928,N,Y,39.349268,-76.5399495
MLS Listing,,Townhouse,4320 Seidel Ave,Baltimore,MD,21206,189000,4,2.0,Ward 26,1395,3484,1948,37,135,,Active,,,https://www.redfin.com/MD/Baltimore/4320-Seidel-Ave-21206/home/11115513,BRIGHT MLS,MDBA2016836,N,Y,39.3284308,-76.5607553
MLS Listing,,Single Family Residential,6401 Brook,Baltimore,MD,21206,264000,3,3.0,Ward 27,1592,9000,1950,38,166,,Active,,,https://www.redfin.com/MD/Baltimore/6401-Brook-Ave-21206/home/11142502,BRIGHT MLS,MDBA2013944,N,Y,39.3532775,-76.5351173
MLS Listing,,Townhouse,5676 Leiden Rd,Baltimore,MD,21206,170000,3,1.5,HOLLAND HILL,1459,3820,1964,40,117,,Active,,,https://www.redfin.com/MD/Baltimore/5676-Leiden-Rd-21206/home/9391752,BRIGHT MLS,MDBC2014522,N,Y,39.3350725,-76.5272081
MLS Listing,,Single Family Residential,405 Walcott Rd,Baltimore,MD,21206,240000,3,2.0,ELMWOOD,1208,6500,1928,42,199,,Active,,,https://www.redfin.com/MD/Baltimore/405-Walcott-Rd-21206/home/9396187,BRIGHT MLS,MDBC2013798,N,Y,39.3527447,-76.523465
MLS Listing,,Single Family Residential,3818 Ridgecroft Rd,Baltimore,MD,21206,264999,4,2.0,Ward 27,1700,6996,1937,42,156,,Active,,,https://www.redfin.com/MD/Baltimore/3818-Ridgecroft-Rd-21206/home/11129466,BRIGHT MLS,MDBA2016196,N,Y,39.3385537,-76.5578768
MLS Listing,,Single Family Residential,4211 Woodlea,Baltimore,MD,21206,247999,3,3.5,Ward 26,1515,5388,1924,43,164,,Active,,,https://www.redfin.com/MD/Baltimore/4211-Woodlea-Ave-21206/home/11116515,BRIGHT MLS,MDBA2000727,N,Y,39.3334051,-76.5561497
MLS Listing,,Single Family Residential,4501 Hamilton Ave,Baltimore,MD,21206,239900,3,2.0,Ward 26,1779,16962,1958,44,135,,Active,,,https://www.redfin.com/MD/Baltimore/4501-Hamilton-Ave-21206/home/11093951,BRIGHT MLS,MDBA2016030,N,Y,39.3389856,-76.5415301
MLS Listing,,Townhouse,5655 Leiden Rd,Baltimore,MD,21206,214999,3,2.0,HOLLAND HILL,1334,2120,1964,45,161,,Active,,,https://www.redfin.com/MD/Baltimore/5655-Leiden-Rd-21206/home/9400136,BRIGHT MLS,MDBC2014038,N,Y,39.3345697,-76.527225
MLS Listing,,Single Family Residential,4704 Hazelwood Ave,Baltimore,MD,21206,244900,4,2.0,Ward 26,1850,4604,1952,45,132,,Active,December-5-2021 10:00 AM,December-5-2021 01:00 PM,https://www.redfin.com/MD/Baltimore/4704-Hazelwood-Ave-21206/home/11099002,BRIGHT MLS,MDBA2000083,N,Y,39.341775,-76.5345189
MLS Listing,,Townhouse,4905 Barbara Ave,Baltimore,MD,21206,216900,3,2.0,Ward 26,1220,2178,1974,53,178,,Active,,,https://www.redfin.com/MD/Baltimore/4905-Barbara-Ave-21206/home/11117105,BRIGHT MLS,MDBA2001187,N,Y,39.3295064,-76.5505168
MLS Listing,,Multi-Family (2-4 Unit),4000 Southern Ave,Baltimore,MD,21206,209900,,,Ward 27,2246,7096,1923,53,93,,Active,,,https://www.redfin.com/MD/Baltimore/4000-Southern-Ave-21206/home/11129787,BRIGHT MLS,MDBA2000403,N,Y,39.3365255,-76.5595926
MLS Listing,,Townhouse,5422 Frankford Ests,Baltimore,MD,21206,255000,4,3.0,Ward 26,1380,1917,2005,58,185,60,Active,,,https://www.redfin.com/MD/Baltimore/5422-Frankford-Estates-Dr-21206/home/11891672,BRIGHT MLS,MDBA2014954,N,Y,39.3200754,-76.5385233
MLS Listing,,Single Family Residential,5907 Winthrope Ave,Baltimore,MD,21206,245000,4,2.5,Ward 27,1584,9609,1951,62,155,,Active,,,https://www.redfin.com/MD/Baltimore/5907-Winthrope-Ave-21206/home/11132288,BRIGHT MLS,MDBA2005484,N,Y,39.3511099,-76.5475926
MLS Listing,,Vacant Land,4806 Pleasant View Ave,Baltimore,MD,21206,60000,,,Ward 26,,10258,,66,,,Active,,,https://www.redfin.com/MD/Baltimore/4806-Pleasant-View-Ave-21206/home/11091940,BRIGHT MLS,MDBA2014724,N,Y,39.3289649,-76.548077
MLS Listing,,Single Family Residential,5205 Eugene Ave,Baltimore,MD,21206,384900,4,4.5,Ward 27,3510,4791,1936,67,110,,Active,,,https://www.redfin.com/MD/Baltimore/5205-Eugene-Ave-21206/home/11127949,BRIGHT MLS,MDBA2011830,N,Y,39.3391679,-76.5546257
MLS Listing,,Single Family Residential,3807 Cedarhurst Rd,Baltimore,MD,21206,259000,4,2.0,Ward 27,1872,4413,1958,67,138,,Active,,,https://www.redfin.com/MD/Baltimore/3807-Cedarhurst-Rd-21206/home/11121916,BRIGHT MLS,MDBA2013426,N,Y,39.3367496,-76.5632048
MLS Listing,,Single Family Residential,4207 Glenmore Ave,Baltimore,MD,21206,300000,4,2.5,Ward 26,2115,6765,1924,69,142,,Active,,,https://www.redfin.com/MD/Baltimore/4207-Glenmore-Ave-21206/home/11096722,BRIGHT MLS,MDBA2014162,N,Y,39.350797,-76.5339882
MLS Listing,,Single Family Residential,6005 Westwood Ave,Baltimore,MD,21206,275000,3,2.0,BELMAR,1216,8694,1956,73,226,,Active,,,https://www.redfin.com/MD/Baltimore/6005-Westwood-Ave-21206/home/9410055,BRIGHT MLS,MDBC2010464,N,Y,39.3464083,-76.5272025
MLS Listing,,Townhouse,5103 Belair Rd,Baltimore,MD,21206,121499,3,1.0,Ward 26,1154,,1929,75,105,,Active,,,https://www.redfin.com/MD/Baltimore/5103-Belair-Rd-21206/home/11092036,BRIGHT MLS,MDBA2012392,N,Y,39.3360928,-76.5541178
MLS Listing,,Townhouse,4408 Belair Rd,Baltimore,MD,21206,169000,4,2.0,Ward 27,1482,,1924,85,114,,Active,,,https://www.redfin.com/MD/Baltimore/4408-Belair-Rd-21206/home/11123415,BRIGHT MLS,MDBA2011954,N,Y,39.3292961,-76.5644138
MLS Listing,,Single Family Residential,4811 Mannasota Ave,Baltimore,MD,21206,225000,4,2.0,Ward 26,1485,7518,1960,88,152,,Active,,,https://www.redfin.com/MD/Baltimore/4811-Mannasota-Ave-21206/home/11116632,BRIGHT MLS,MDBA2011800,N,Y,39.3323601,-76.5559803
MLS Listing,,Townhouse,5528 Bucknell Rd,Baltimore,MD,21206,149000,3,1.5,Ward 26,1407,,1959,93,106,,Active,,,https://www.redfin.com/MD/Baltimore/5528-Bucknell-Rd-21206/home/11118006,BRIGHT MLS,MDBA2011246,N,Y,39.3353001,-76.5346318
MLS Listing,,Single Family Residential,4610 Eugene Ave,Baltimore,MD,21206,265000,4,2.5,Ward 27,1638,4791,1958,94,162,,Active,,,https://www.redfin.com/MD/Baltimore/4610-Eugene-Ave-21206/home/11121895,BRIGHT MLS,MDBA2011000,N,Y,39.3375803,-76.5631597
MLS Listing,,Townhouse,513 Saint Patrick Rd,Baltimore,MD,21206,161900,2,1.0,ELMWOOD,790,4560,1949,97,205,,Active,,,https://www.redfin.com/MD/Baltimore/513-St-Patrick-Rd-21206/home/9396892,BRIGHT MLS,MDBC2009524,N,Y,39.347851,-76.5214604
MLS Listing,,Single Family Residential,14 Maple Ave,Baltimore,MD,21206,179900,4,2.0,OVERLEA,1277,5800,1923,107,141,,Active,,,https://www.redfin.com/MD/Baltimore/14-Maple-Ave-21206/home/9391293,BRIGHT MLS,MDBC2008602,N,Y,39.3554288,-76.5272729
MLS Listing,,Townhouse,4712 Shamrock Ave,Baltimore,MD,21206,110000,3,1.5,Ward 26,1432,1742,1956,109,77,,Active,,,https://www.redfin.com/MD/Baltimore/4712-Shamrock-Ave-21206/home/11102529,BRIGHT MLS,MDBA2009094,N,Y,39.3232745,-76.5562513
MLS Listing,,Townhouse,5409 Remmell Ave,Baltimore,MD,21206,260000,3,3.5,Ward 27,1344,4356,1948,113,193,,Active,,,https://www.redfin.com/MD/Baltimore/5409-Remmell-Ave-21206/home/11127547,BRIGHT MLS,MDBA2008406,N,Y,39.3422449,-76.5522663
MLS Listing,,Single Family Residential,4307 Stanwood Ave,Baltimore,MD,21206,229900,3,2.0,Ward 26,1800,4609,1927,114,128,,Active,,,https://www.redfin.com/MD/Baltimore/4307-Stanwood-Ave-21206/home/11115625,BRIGHT MLS,MDBA2008564,N,Y,39.3284365,-76.5597845
MLS Listing,,Single Family Residential,4010 Southern Ave,Baltimore,MD,21206,290000,5,3.0,Ward 27,1590,7096,1923,116,182,,Active,,,https://www.redfin.com/MD/Baltimore/4010-Southern-Ave-21206/home/11129772,BRIGHT MLS,MDBA2006854,N,Y,39.3358621,-76.5593669
MLS Listing,,Single Family Residential,4209 Moravia Rd,Baltimore,MD,21206,239900,3,2.5,Ward 26,1058,6255,1927,117,227,,Active,,,https://www.redfin.com/MD/Baltimore/4209-Moravia-Rd-21206/home/11115664,BRIGHT MLS,MDBA2007880,N,Y,39.3303496,-76.5611617
MLS Listing,,Single Family Residential,4111 Idaho Ave,Baltimore,MD,21206,279900,4,3.5,Ward 27,1678,11391,1920,121,167,,Active,,,https://www.redfin.com/MD/Baltimore/4111-Idaho-Ave-21206/home/11127404,BRIGHT MLS,MDBA2007386,N,Y,39.3400794,-76.5505165
MLS Listing,,Single Family Residential,4221 Belmar Ave,Baltimore,MD,21206,235000,4,1.5,BALTIMORE,2000,7405,1919,124,118,,Active,,,https://www.redfin.com/MD/Baltimore/4221-Belmar-Ave-21206/home/11096504,BRIGHT MLS,MDBC2004020,N,Y,39.3515985,-76.5306462
MLS Listing,,Townhouse,4137 Eierman Ave,Baltimore,MD,21206,163000,4,2.0,Ward 27,1386,1386,1927,147,118,,Active,,,https://www.redfin.com/MD/Baltimore/4137-Eierman-Ave-21206/home/11123513,BRIGHT MLS,MDBA2003016,N,Y,39.3294037,-76.5655358
MLS Listing,,Single Family Residential,4400 White Ave,Baltimore,MD,21206,249000,3,2.0,Ward 26,2146,7248,1912,153,116,,Active,,,https://www.redfin.com/MD/Baltimore/4400-White-Ave-21206/home/11099093,BRIGHT MLS,MDBA2002344,N,Y,39.3426212,-76.5396073
For-Sale-by-Owner Listing,,Single Family Residential,4503 Fullerton Ave,Nottingham,MD,21236,299900,3,2.0,Nottingham,1690,,1959,26,177,,Active,,,https://www.redfin.com/MD/Nottingham/4503-Fullerton-Ave-21236/home/9404203,Fizber.com,11455580,N,Y,39.3586966,-76.5179886
For-Sale-by-Owner Listing,,Vacant Land,4802 Calumet Ave,Baltimore,MD,21206,60000,,,Baltimore,,19575,,36,,,Active,,,https://www.redfin.com/MD/Baltimore/4802-Calumet-Ave-21206/home/11092014,Fizber.com,11454775,N,Y,39.3302184,-76.5449283
For-Sale-by-Owner Listing,,Single Family Residential,5612 Anthony Ave,Baltimore,MD,21206,204000,3,1.5,Baltimore,2268,6913,1956,50,90,,Active,,,https://www.redfin.com/MD/Baltimore/5612-Anthony-Ave-21206/home/11093857,Fizber.com,11453035,N,Y,39.3387569,-76.5436526
For-Sale-by-Owner Listing,,Single Family Residential,4127 Marx Ave,Baltimore,MD,21206,249000,4,1.5,Baltimore,2852,12632,1925,197,87,,Active,,,https://www.redfin.com/MD/Baltimore/4127-Marx-Ave-21206/home/11120431,Fizber.com,11438553,N,Y,39.3335047,-76.5609924
PAST SALE,August-23-2021,Townhouse,4215 Berger Ave,Baltimore,MD,21206,125000,3,2.0,Ward 26,1468,1168,1927,104,85,,Sold,,,https://www.redfin.com/MD/Baltimore/4215-Berger-Ave-21206/home/11093240,BRIGHT MLS,MDBA552864,N,Y,39.3398381,-76.5475249
PAST SALE,May-10-2019,Townhouse,4425 Shamrock Ave,Baltimore,MD,21206,115000,4,1.5,PARKSIDE,1204,,1955,940,96,,Sold,,,https://www.redfin.com/MD/Baltimore/4425-Shamrock-Ave-21206/home/11101342,BRIGHT MLS,MDBA302546,N,Y,39.3245328,-76.5609585
PAST SALE,March-6-2020,Townhouse,5943 Lillyan Ave,Baltimore,MD,21206,75000,3,2.0,Ward 27,1284,1536,1954,639,58,,Sold,,,https://www.redfin.com/MD/Baltimore/5943-Lillyan-Ave-21206/home/11133947,BRIGHT MLS,MDBA497688,N,Y,39.3485773,-76.5442747
PAST SALE,,Townhouse,5932 Glen Falls Ave,Baltimore,MD,21206,70000,,1.0,,1440,1710,1948,,49,,,,,https://www.redfin.com/MD/Baltimore/5932-Glen-Falls-Ave-21206/home/11135006,,,N,Y,39.3469844,-76.5421872
PAST SALE,August-30-2019,Townhouse,5015 Belair Rd,Baltimore,MD,21206,106000,3,1.5,BALTIMORE CITY,1162,,1929,828,91,,Sold,,,https://www.redfin.com/MD/Baltimore/5015-Belair-Rd-21206/home/11092057,BRIGHT MLS,MDBA436796,N,Y,39.335805,-76.5545467
PAST SALE,March-26-2020,Single Family Residential,4508 Luerssen Ave,Baltimore,MD,21206,292000,7,4.0,Ward 27,3080,10125,1900,619,95,,Sold,,,https://www.redfin.com/MD/Baltimore/4508-Luerssen-Ave-21206/home/11120648,BRIGHT MLS,MDBA497348,N,Y,39.336062,-76.5637918
PAST SALE,,Single Family Residential,8 Ian Ct,Baltimore,MD,21206,305000,,3.0,,1722,16814,2001,,177,,,,,https://www.redfin.com/MD/Baltimore/8-Ian-Ct-21206/home/9689166,,,N,Y,39.3522194,-76.5030937
PAST SALE,,Townhouse,3702 Springwood Ave,Baltimore,MD,21206,170000,,2.0,,1524,3672,1952,,112,,,,,https://www.redfin.com/MD/Baltimore/3702-Springwood-Ave-21206/home/11132551,,,N,Y,39.3502908,-76.5440026
PAST SALE,August-16-2019,Townhouse,4102 Granite Ave,Baltimore,MD,21206,80000,3,2.0,BALTIMORE CITY,1516,1742,1946,842,53,,Sold,,,https://www.redfin.com/MD/Baltimore/4102-Granite-Rd-21206/home/11887476,BRIGHT MLS,MDBA435638,N,Y,39.345538,-76.5423029
PAST SALE,February-19-2021,Townhouse,5255 Darien Rd,Baltimore,MD,21206,120000,3,1.5,Ward 26,1440,6860,1963,289,83,,Sold,,,https://www.redfin.com/MD/Baltimore/5255-Darien-Rd-21206/home/11087619,BRIGHT MLS,MDBA535556,N,Y,39.3283219,-76.5319898
PAST SALE,,Townhouse,5912 Walther Ave,Baltimore,MD,21206,200000,,1.0,,1152,3886,1953,,174,,,,,https://www.redfin.com/MD/Baltimore/5912-Walther-Ave-21206/home/11132305,,,N,Y,39.3502479,-76.5463508
PAST SALE,March-20-2020,Townhouse,5435 Remmell Ave,Baltimore,MD,21206,184000,4,2.0,Ward 27,2064,43,1948,625,89,,Sold,,,https://www.redfin.com/MD/Baltimore/5435-Remmell-Ave-21206/home/11127578,BRIGHT MLS,MDBA494270,N,Y,39.3429902,-76.551239
PAST SALE,March-29-2019,Townhouse,4238 Shamrock Ave,Baltimore,MD,21206,80000,3,1.5,BELAIR EDISON,1500,2031,1939,982,53,,Sold,,,https://www.redfin.com/MD/Baltimore/4238-Shamrock-Ave-21206/home/11114048,BRIGHT MLS,MDBA304952,N,Y,39.3274432,-76.5640514
PAST SALE,,Single Family Residential,3500 Glenmore Ave,Baltimore,MD,21206,290000,,3.0,,2448,6312,1931,,118,,,,,https://www.redfin.com/MD/Baltimore/3500-Glenmore-Ave-21206/home/11131280,,,N,Y,39.3542147,-76.5478523
PAST SALE,,Single Family Residential,6101 Ridgeview Ave,Baltimore,MD,21206,296000,,2.5,,2387,13050,1958,,124,,,,,https://www.redfin.com/MD/Baltimore/6101-Ridgeview-Ave-21206/home/11135128,,,N,Y,39.3484071,-76.5395656
PAST SALE,June-20-2019,Townhouse,4747 Chatford Ave,Baltimore,MD,21206,124000,3,1.5,HERRING RUN PARK,896,1600,1956,899,138,,Sold,,,https://www.redfin.com/MD/Baltimore/4747-Chatford-Ave-21206/home/11102445,BRIGHT MLS,MDBA463318,N,Y,39.323768,-76.5551111
PAST SALE,,Single Family Residential,4907 Anntana Ave,Baltimore,MD,21206,245000,,1.0,,1842,7379,1952,,133,,,,,https://www.redfin.com/MD/Baltimore/4907-Anntana-Ave-21206/home/11095842,,,N,Y,39.3315843,-76.5405366
PAST SALE,September-14-2021,Townhouse,5928 Glen Falls Ave,Baltimore,MD,21206,162400,3,1.5,Ward 27,1440,1306,1948,82,113,,Sold,,,https://www.redfin.com/MD/Baltimore/5928-Glen-Falls-Ave-21206/home/11135001,BRIGHT MLS,MDBA2003620,N,Y,39.346888,-76.542257
PAST SALE,September-17-2019,Townhouse,4839 Bowland Ave,Baltimore,MD,21206,95000,3,2.0,BALTIMORE CITY,1280,871,1958,810,74,,Sold,,,https://www.redfin.com/MD/Baltimore/4839-Bowland-Ave-21206/home/11100423,BRIGHT MLS,MDBA475334,N,Y,39.3191197,-76.5496843
PAST SALE,September-30-2019,Single Family Residential,6017 Carter Ave,Baltimore,MD,21214,242500,3,2.0,BALTIMORE CITY,1476,8625,1957,797,164,,Sold,,,https://www.redfin.com/MD/Baltimore/6017-Carter-Ave-21214/home/11132182,BRIGHT MLS,MDBA480554,N,Y,39.3533843,-76.5478974
PAST SALE,June-28-2019,Townhouse,4806 Sipple Ave,Baltimore,MD,21206,120000,3,3.0,BALTIMORE CITY,1568,1368,1960,891,77,,Sold,,,https://www.redfin.com/MD/Baltimore/4806-Sipple-Ave-21206/home/11117130,BRIGHT MLS,MDBA465868,N,Y,39.3291393,-76.5503246
PAST SALE,,Single Family Residential,6002 Plumer Ave,Baltimore,MD,21206,175000,,1.0,,1514,7292,1947,,116,,,,,https://www.redfin.com/MD/Baltimore/6002-Plumer-Ave-21206/home/11097371,,,N,Y,39.3472021,-76.5321817
PAST SALE,January-13-2020,Single Family Residential,5601 Greenhill Ave,Baltimore,MD,21206,98000,4,2.5,Ward 26,1700,5493,1957,692,58,,Sold,,,https://www.redfin.com/MD/Baltimore/5601-Greenhill-Ave-21206/home/11094754,BRIGHT MLS,MDBA493684,N,Y,39.3383558,-76.5453234
PAST SALE,December-3-2021,Townhouse,4203 Sheldon Ave,Baltimore,MD,21206,160000,3,2.0,Ward 26,1740,1,1937,2,92,,Sold,,,https://www.redfin.com/MD/Baltimore/4203-Sheldon-Ave-21206/home/11114069,BRIGHT MLS,MDBA2014792,N,Y,39.3283919,-76.5647355
PAST SALE,September-6-2019,Single Family Residential,4512 Woodlea Ave,Baltimore,MD,21206,215000,4,3.0,GARDENVILE,2088,4657,1940,821,103,,Sold,,,https://www.redfin.com/MD/Baltimore/4512-Woodlea-Ave-21206/home/11116890,BRIGHT MLS,MDBA478328,N,Y,39.331204,-76.5529098
PAST SALE,May-1-2019,Townhouse,5405 Frankford Estates Dr,Baltimore,MD,21206,218000,3,2.5,FRANKFORD ESTATES,1700,1917,2004,949,128,65,Sold,,,https://www.redfin.com/MD/Baltimore/5405-Frankford-Estates-Dr-21206/home/11222627,BRIGHT MLS,MDBA439960,N,Y,39.3193864,-76.5397506
PAST SALE,,Townhouse,5543 Bucknell Rd,Baltimore,MD,21206,155000,,1.0,,1152,3973,1959,,135,,,,,https://www.redfin.com/MD/Baltimore/5543-Bucknell-Rd-21206/home/11118162,,,N,Y,39.3357008,-76.5343157
PAST SALE,February-12-2021,Single Family Residential,4506 Woodlea Ave,Baltimore,MD,21206,232000,4,2.5,Ward 26,1155,4765,1940,296,201,,Sold,,,https://www.redfin.com/MD/Baltimore/4506-Woodlea-Ave-21206/home/11116883,BRIGHT MLS,MDBA532586,N,Y,39.3314401,-76.5532259
PAST SALE,October-25-2019,Townhouse,5116 Pembroke Ave,Baltimore,MD,21206,144900,3,1.0,WALTERSON,1200,4198,1953,772,121,,Sold,,,https://www.redfin.com/MD/Baltimore/5116-Pembroke-Ave-21206/home/11128471,BRIGHT MLS,MDBA482642,N,Y,39.3415732,-76.557572
PAST SALE,,Single Family Residential,5617 Benton Heights Ave,Baltimore,MD,21206,255000,,2.0,,1623,7109,1953,,157,,,,,https://www.redfin.com/MD/Baltimore/5617-Benton-Heights-Ave-21206/home/11127260,,,N,Y,39.3426756,-76.5468588
PAST SALE,April-30-2019,Townhouse,6815 Fairdel Ave,Baltimore,MD,21234,179500,3,2.0,BALTIMORE CITY,1280,,1959,950,140,,Sold,,,https://www.redfin.com/MD/Baltimore/6815-Fairdel-Ave-21234/home/11139760,BRIGHT MLS,MDBA440062,N,Y,39.3606234,-76.5372177
PAST SALE,April-20-2021,Townhouse,4508 Simms Ave,Baltimore,MD,21206,210000,3,2.0,Ward 27,1260,1000,1951,229,167,,Sold,,,https://www.redfin.com/MD/Baltimore/4508-Simms-Ave-21206/home/11122011,BRIGHT MLS,MDBA542000,N,Y,39.3348184,-76.5629093
PAST SALE,October-1-2019,Single Family Residential,4210 Bayonne Ave,Baltimore,MD,21206,300000,4,3.0,GARDENVILLE,2649,12998,1912,796,113,,Sold,,,https://www.redfin.com/MD/Baltimore/4210-Bayonne-Ave-21206/home/11098829,BRIGHT MLS,MDBA100814,N,Y,39.3425358,-76.5432913
PAST SALE,April-29-2021,Townhouse,6115 Fairwood Ave,Baltimore,MD,21206,165000,3,1.5,SPRINGWOOD ESTATES,1380,2100,1976,220,120,31,Sold,,,https://www.redfin.com/MD/Baltimore/6115-Fairwood-Ave-21206/home/11134318,BRIGHT MLS,MDBA537262,N,Y,39.349648,-76.542535
PAST SALE,,Townhouse,5123 Benton Heights Ave,Baltimore,MD,21206,99900,,1.0,,976,1592,1923,,102,,,,,https://www.redfin.com/MD/Baltimore/5123-Benton-Heights-Ave-21206/home/11129275,,,N,Y,39.3369654,-76.5544826
PAST SALE,January-15-2020,Townhouse,4112 Kinsway,Baltimore,MD,21206,113300,3,1.0,BENTON HEIGHTS,1152,1306,1942,690,98,,Sold,,,https://www.redfin.com/MD/Baltimore/4112-Kinsway-21206/home/11134694,BRIGHT MLS,MDBA490518,N,Y,39.3446166,-76.5434789
PAST SALE,December-21-2018,Townhouse,5737 Nicken Ct,Baltimore,MD,21206,249990,3,3.5,HIDDEN MEADOWS,2184,2910,2018,1080,114,75,Sold,,,https://www.redfin.com/MD/Baltimore/5737-Nicken-Ct-21206/home/109942751,BRIGHT MLS,1004187022,N,Y,39.346577,-76.509532
PAST SALE,January-15-2020,Single Family Residential,6017 Winthrope Ave,Baltimore,MD,21206,101100,4,1.0,GLENHAM - BELFORD,1386,6360,1952,690,73,,Sold,,,https://www.redfin.com/MD/Baltimore/6017-Winthrope-Ave-21206/home/11132036,BRIGHT MLS,MDBA488786,N,Y,39.3525384,-76.545775
PAST SALE,,Townhouse,3907 Marx Ave,Baltimore,MD,21206,107000,,2.0,,1600,4580,1958,,67,,,,,https://www.redfin.com/MD/Baltimore/3907-Marx-Ave-21206/home/11121959,,,N,Y,39.3371678,-76.5623123
PAST SALE,March-29-2019,Single Family Residential,5017 Hamilton Ave,Baltimore,MD,21206,319000,4,4.5,BALTIMORE CITY-21206,2988,19768,1900,982,107,,Sold,,,https://www.redfin.com/MD/Baltimore/5017-Hamilton-Ave-21206/home/11118883,BRIGHT MLS,MDBA302800,N,Y,39.3367685,-76.5321366
PAST SALE,March-22-2019,Townhouse,5734 Nicken Ct,Baltimore,MD,21206,259990,3,3.5,HIDDEN MEADOWS,2184,2910,2018,989,119,75,Sold,,,https://www.redfin.com/MD/Baltimore/5734-Nicken-Ct-21206/home/109942208,BRIGHT MLS,1002352192,N,Y,39.3466753,-76.5100408
PAST SALE,March-20-2020,Townhouse,3710 Echodale Ave,Baltimore,MD,21206,130500,3,2.5,Ward 27,1814,,1937,625,72,,Sold,,,https://www.redfin.com/MD/Baltimore/3710-Echodale-Ave-21206/home/11125768,BRIGHT MLS,MDBA499414,N,Y,39.343455,-76.5563077
PAST SALE,February-25-2021,Townhouse,3526 E Northern Pkwy,Baltimore,MD,21206,143000,3,1.0,Ward 27,1500,3484,1955,283,95,,Sold,,,https://www.redfin.com/MD/Baltimore/3526-E-Northern-Pkwy-21206/home/11138083,BRIGHT MLS,MDBA531932,N,Y,39.3592792,-76.5398928
PAST SALE,January-23-2019,Townhouse,5729 Nicken Ct,Baltimore,MD,21206,239990,3,2.5,HIDDEN MEADOWS,2184,1940,2018,1047,110,75,Sold,,,https://www.redfin.com/MD/Baltimore/5729-Nicken-Ct-21206/home/109942596,BRIGHT MLS,1002352048,N,Y,39.3468055,-76.5095391
PAST SALE,June-5-2020,Single Family Residential,4509 Glenarm Ave,Baltimore,MD,21206,274900,3,3.0,Ward 26,2105,13038,1922,548,131,,Sold,,,https://www.redfin.com/MD/Baltimore/4509-Glenarm-Ave-21206/home/11099125,BRIGHT MLS,MDBA497310,N,Y,39.3437681,-76.5368334
PAST SALE,,Townhouse,3713 Raspe Ave,Baltimore,MD,21206,205000,,1.0,,1024,2705,1952,,200,,,,,https://www.redfin.com/MD/Baltimore/3713-Raspe-Ave-21206/home/11132442,,,N,Y,39.3506783,-76.5432349
PAST SALE,March-6-2020,Single Family Residential,4014 E Northern Pkwy,Baltimore,MD,21206,231000,4,2.0,Ward 27,1792,7248,1924,639,129,,Sold,,,https://www.redfin.com/MD/Baltimore/4014-E-Northern-Pkwy-21206/home/11140161,BRIGHT MLS,MDBA493164,N,Y,39.3570927,-76.5310075
PAST SALE,,Townhouse,5325 Todd Ave,Baltimore,MD,21206,77000,,1.0,,1280,4373,1955,,60,,,,,https://www.redfin.com/MD/Baltimore/5325-Todd-Ave-21206/home/11088387,,,N,Y,39.3289884,-76.5385157
PAST SALE,March-5-2019,Townhouse,5731 Nicken Ct,Baltimore,MD,21206,265000,3,3.0,HIDDEN MEADOWS,2184,1940,2018,1006,121,75,Sold,,,https://www.redfin.com/MD/Baltimore/5731-Nicken-Ct-21206/home/109942242,BRIGHT MLS,1002352130,N,Y,39.3467508,-76.5095369
PAST SALE,February-5-2020,Single Family Residential,3908 Pinewood Ave,Baltimore,MD,21206,133000,3,1.5,BALTIMORE CITY-21206,1380,7248,1951,669,96,,Sold,,,https://www.redfin.com/MD/Baltimore/3908-Pinewood-Ave-21206/home/11887500,BRIGHT MLS,MDBA481876,N,Y,39.3557396,-76.5337173
PAST SALE,November-16-2021,Townhouse,4787 Chatford Ave,Baltimore,MD,21206,165000,3,2.0,Ward 26,1232,896,1956,19,134,,Sold,,,https://www.redfin.com/MD/Baltimore/4787-Chatford-Ave-21206/home/11102502,BRIGHT MLS,MDBA2013442,N,Y,39.3239489,-76.5539371
PAST SALE,March-15-2019,Townhouse,5730 Nicken Ct,Baltimore,MD,21206,249990,3,3.0,HIDDEN MEADOWS,2184,1940,2018,996,114,75,Sold,,,https://www.redfin.com/MD/Baltimore/5730-Nicken-Ct-21206/home/109942364,BRIGHT MLS,1002352100,N,Y,39.346785,-76.5100418
PAST SALE,,Single Family Residential,5404 Plainfield Ave,Baltimore,MD,21206,245000,,1.5,,1874,5998,1932,,131,,,,,https://www.redfin.com/MD/Baltimore/5404-Plainfield-Ave-21206/home/11092804,,,N,Y,39.3354584,-76.5459895
PAST SALE,,Townhouse,4239 Nicholas Ave,Baltimore,MD,21206,50000,,1.5,,1370,1635,1928,,36,,,,,https://www.redfin.com/MD/Baltimore/4239-Nicholas-Ave-21206/home/11887366,,,N,Y,39.3282731,-76.5631484
PAST SALE,September-18-2019,Single Family Residential,4424 Springwood Ave,Baltimore,MD,21206,226000,4,3.0,BELMAR,1768,6996,1957,809,128,,Sold,,,https://www.redfin.com/MD/Baltimore/4424-Springwood-Ave-21206/home/11887289,BRIGHT MLS,MDBA478766,N,Y,39.3481288,-76.5308381
PAST SALE,December-28-2018,Townhouse,5716 Nicken Ct,Baltimore,MD,21206,259990,3,3.5,HIDDEN MEADOWS,2184,1940,2018,1073,119,75,Sold,,,https://www.redfin.com/MD/Baltimore/5716-Nicken-Ct-21206/home/109942556,BRIGHT MLS,1000380000,N,Y,39.3472248,-76.5100492
PAST SALE,May-21-2021,Single Family Residential,5506 Greenhill Ave,Baltimore,MD,21206,215000,3,1.0,Ward 26,809,8751,1956,198,266,,Sold,,,https://www.redfin.com/MD/Baltimore/5506-Greenhill-Ave-21206/home/11093356,BRIGHT MLS,MDBA538948,N,Y,39.3381194,-76.5463621
PAST SALE,September-30-2021,Single Family Residential,4415 Lasalle Ave,Baltimore,MD,21206,295000,4,3.5,Ward 26,1838,10136,1934,66,161,,Sold,,,https://www.redfin.com/MD/Baltimore/4415-Lasalle-Ave-21206/home/11092694,BRIGHT MLS,MDBA2006608,N,Y,39.3357721,-76.5472702
PAST SALE,March-28-2019,Townhouse,5702 Nicken Ct,Baltimore,MD,21206,279990,3,3.5,HIDDEN MEADOWS,2184,1940,2019,983,128,75,Sold,,,https://www.redfin.com/MD/Baltimore/5702-Nicken-Ct-21206/home/109942648,BRIGHT MLS,MDBC331434,N,Y,39.3476926,-76.5097237
PAST SALE,,Townhouse,4243 Shamrock Ave,Baltimore,MD,21206,160000,,2.0,,1580,1666,1940,,101,,,,,https://www.redfin.com/MD/Baltimore/4243-Shamrock-Ave-21206/home/11113984,,,N,Y,39.3271334,-76.5642358
PAST SALE,September-30-2021,Townhouse,3907 Southern Ave,Baltimore,MD,21206,159000,2,1.0,Ward 27,870,2805,1950,66,183,,Sold,,,https://www.redfin.com/MD/Baltimore/3907-Southern-Ave-21206/home/11121605,BRIGHT MLS,MDBA2008274,N,Y,39.3377321,-76.5604618
PAST SALE,August-13-2021,Single Family Residential,4201 Prague Ave,Baltimore,MD,21206,299900,4,2.0,MACHACEK,1968,21712,1903,114,152,,Sold,,,https://www.redfin.com/MD/Baltimore/4201-Prague-Ave-21206/home/9425070,BRIGHT MLS,MDBC2000292,N,Y,39.3554631,-76.5297296
PAST SALE,,Single Family Residential,313 Willow Ave,Baltimore,MD,21206,162000,,1.0,,1826,7580,1940,,89,,,,,https://www.redfin.com/MD/Baltimore/313-Willow-Ave-21206/home/9411546,,,N,Y,39.3544142,-76.5223865
PAST SALE,December-28-2018,Townhouse,4322 Roberton Ave,Baltimore,MD,21206,107000,2,1.5,PARKSIDE,896,1632,1955,1073,119,,Sold,,,https://www.redfin.com/MD/Baltimore/4322-Roberton-Ave-21206/home/11101903,BRIGHT MLS,1008357066,N,Y,39.3248825,-76.5561271
PAST SALE,,Single Family Residential,5101 Eugene Ave,Baltimore,MD,21206,264000,,1.0,,984,5625,1928,,268,,,,,https://www.redfin.com/MD/Baltimore/5101-Eugene-Ave-21206/home/11128953,,,N,Y,39.3385172,-76.5562061
PAST SALE,March-15-2019,Townhouse,5726 Nicken Ct,Baltimore,MD,21206,262000,3,3.5,HIDDEN MEADOWS,2184,2910,2018,996,120,75,Sold,,,https://www.redfin.com/MD/Baltimore/5726-Nicken-Ct-21206/home/109942174,BRIGHT MLS,1002351824,N,Y,39.3469087,-76.510044
PAST SALE,,Single Family Residential,5920 Greenhill Ave,Baltimore,MD,21206,262000,,2.0,,1652,8999,1900,,159,,,,,https://www.redfin.com/MD/Baltimore/5920-Greenhill-Ave-21206/home/11097784,,,N,Y,39.345835,-76.537827
PAST SALE,,Single Family Residential,3800 White Ave,Baltimore,MD,21206,240000,,2.0,,1772,10500,1995,,135,,,,,https://www.redfin.com/MD/Baltimore/3800-White-Ave-21206/home/11133571,,,N,Y,39.3483087,-76.5477168
PAST SALE,September-17-2021,Townhouse,4203 Nicholas Ave,Baltimore,MD,21206,108000,3,2.0,Ward 26,1170,1815,1928,79,92,,Sold,,,https://www.redfin.com/MD/Baltimore/4203-Nicholas-Ave-21206/home/11114280,BRIGHT MLS,MDBA2003344,N,Y,39.3287957,-76.5638708
PAST SALE,,Townhouse,3624 Eastwood Dr,Baltimore,MD,21206,172000,,1.0,,1152,2944,1948,,149,,,,,https://www.redfin.com/MD/Baltimore/3624-Eastwood-Dr-21206/home/11123143,,,N,Y,39.3317867,-76.5700339
PAST SALE,,Single Family Residential,6208 Hilltop Ave,Baltimore,MD,21206,96000,,1.5,,1476,6299,1959,,65,,,,,https://www.redfin.com/MD/Baltimore/6208-Hilltop-Ave-21206/home/11131992,,,N,Y,39.3522021,-76.5442753
PAST SALE,October-14-2021,Townhouse,3905 W Overlea Ave,Baltimore,MD,21206,130000,3,1.0,Ward 27,1104,4356,1926,52,118,,Sold,,,https://www.redfin.com/MD/Baltimore/3905-W-Overlea-Ave-21206/home/11140111,BRIGHT MLS,MDBA2004616,N,Y,39.3580656,-76.5329382
PAST SALE,August-19-2020,Single Family Residential,4312 Anntana Ave,Baltimore,MD,21206,259000,5,3.0,Ward 26,2394,8638,1900,473,108,,Sold,,,https://www.redfin.com/MD/Baltimore/4312-Anntana-Ave-21206/home/11093217,BRIGHT MLS,MDBA504056,N,Y,39.33865,-76.5468137
PAST SALE,August-23-2019,Townhouse,3815 White Ave,Baltimore,MD,21206,155000,3,2.5,HAMILTON AREA,1898,,1960,835,82,,Sold,,,https://www.redfin.com/MD/Baltimore/3815-White-Ave-21206/home/11123929,BRIGHT MLS,MDBA476876,N,Y,39.3472958,-76.5478184
PAST SALE,January-15-2020,Single Family Residential,4317 Willshire Ave,Baltimore,MD,21206,144400,3,1.0,Ward 26,1263,5802,1929,690,114,,Sold,,,https://www.redfin.com/MD/Baltimore/4317-Willshire-Ave-21206/home/11093070,BRIGHT MLS,MDBA493516,N,Y,39.3374159,-76.547491
PAST SALE,June-30-2020,Single Family Residential,5504 East Ave,Baltimore,MD,21206,310000,3,2.0,KENWOOD PARK,1898,25831,1915,523,163,,Sold,,,https://www.redfin.com/MD/Baltimore/5504-East-Ave-21206/home/9401575,BRIGHT MLS,MDBC486338,N,Y,39.3511324,-76.5086165
PAST SALE,January-24-2020,Single Family Residential,4109 Marx Ave,Baltimore,MD,21206,205000,3,2.0,GARDENVILE,1658,7057,1927,681,124,,Sold,,,https://www.redfin.com/MD/Baltimore/4109-Marx-Ave-21206/home/11120445,BRIGHT MLS,MDBA490090,N,Y,39.3344176,-76.5613084
PAST SALE,March-5-2021,Single Family Residential,3831 Echodale Ave,Baltimore,MD,21206,300000,5,4.5,Ward 27,3100,5863,1926,275,97,,Sold,,,https://www.redfin.com/MD/Baltimore/3831-Echodale-Ave-21206/home/11128002,BRIGHT MLS,MDBA525908,N,Y,39.3405107,-76.5545354
PAST SALE,July-10-2020,Single Family Residential,6621 Fairdel Ave,Baltimore,MD,21206,235000,3,2.0,Ward 27,1167,8250,1928,513,201,,Sold,,,https://www.redfin.com/MD/Baltimore/6621-Fairdel-Ave-21206/home/11140706,BRIGHT MLS,MDBA506368,N,Y,39.3580975,-76.5392269
PAST SALE,July-27-2021,Single Family Residential,3808 Pinewood Ave,Baltimore,MD,21206,275000,5,2.5,Ward 27,2568,7250,1910,131,107,,Sold,,,https://www.redfin.com/MD/Baltimore/3808-Pinewood-Ave-21206/home/11887501,BRIGHT MLS,MDBA554466,N,Y,39.3561481,-76.5351625
PAST SALE,July-25-2019,Vacant Land,LOT129 Beech Ave,Baltimore,MD,21206,30000,,,CHERRY HEIGHTS,,7280,,864,,,Sold,,,https://www.redfin.com/MD/Overlea/LOT129-Beech-Ave-21206/home/148380650,BRIGHT MLS,MDBC224966,N,Y,39.35915804,-76.52013563
PAST SALE,December-18-2019,Single Family Residential,4925 Lasalle Ave,Baltimore,MD,21206,216900,4,3.0,GARDEN VILLAGE,2182,5650,1948,718,99,,Sold,,,https://www.redfin.com/MD/Baltimore/4925-Lasalle-Ave-21206/home/11095591,BRIGHT MLS,MDBA483342,N,Y,39.330281,-76.5413043
PAST SALE,February-26-2019,Single Family Residential,6413 Alta Ave,Baltimore,MD,21206,190000,3,2.0,GLENMORE,2203,7505,1962,1013,86,,Sold,,,https://www.redfin.com/MD/Baltimore/6413-Alta-Ave-21206/home/11140933,BRIGHT MLS,MDBA263690,N,Y,39.357721,-76.544054
PAST SALE,October-31-2019,Multi-Family (2-4 Unit),4100 Harris Ave,Baltimore,MD,21206,87500,,,PARKSIDE/BELAIR,2257,6247,1924,766,39,,Sold,,,https://www.redfin.com/MD/Baltimore/4100-Harris-Ave-21206/home/11123439,BRIGHT MLS,MDBA479076,N,Y,39.3293969,-76.566625
PAST SALE,,Single Family Residential,6410 Alta Ave,Baltimore,MD,21206,220000,,1.5,,1729,7998,1960,,127,,,,,https://www.redfin.com/MD/Baltimore/6410-Alta-Ave-21206/home/11141333,,,N,Y,39.3578591,-76.544635
PAST SALE,,Single Family Residential,3909 Pinewood Ave,Baltimore,MD,21206,275000,,1.0,,1235,5057,1928,,223,,,,,https://www.redfin.com/MD/Baltimore/3909-Pinewood-Ave-21206/home/11142397,,,N,Y,39.3553709,-76.5337139
PAST SALE,May-17-2019,Single Family Residential,6023 Alta Ave,Baltimore,MD,21206,233500,4,3.0,HAMILTON,1996,6360,1952,933,117,,Sold,,,https://www.redfin.com/MD/Baltimore/6023-Alta-Ave-21206/home/11131926,BRIGHT MLS,MDBA439174,N,Y,39.3521141,-76.5448719
PAST SALE,April-10-2019,Townhouse,4600 Sunbrook Ave,Baltimore,MD,21206,50500,2,1.5,GARDENVILLE,960,4356,1952,970,53,,Sold,,,https://www.redfin.com/MD/Baltimore/4600-Sunbrook-Ave-21206/home/11094252,BRIGHT MLS,MDBA440684,N,Y,39.3394801,-76.5358975
PAST SALE,October-30-2019,Single Family Residential,3902 White Ave,Baltimore,MD,21206,225000,4,2.0,HAMILITON,2548,15298,1941,767,88,,Sold,,,https://www.redfin.com/MD/Baltimore/3902-White-Ave-21206/home/11133878,BRIGHT MLS,MDBA466714,N,Y,39.3469664,-76.5464524
PAST SALE,September-28-2021,Single Family Residential,6127 Fairdel Ave,Baltimore,MD,21206,165000,3,2.0,Ward 27,1635,8098,1932,68,101,,Sold,,,https://www.redfin.com/MD/Baltimore/6127-Fairdel-Ave-21206/home/11135084,BRIGHT MLS,MDBA2000722,N,Y,39.3503438,-76.5404688
PAST SALE,August-14-2020,Single Family Residential,6111 Fairdel Ave,Baltimore,MD,21206,252000,4,2.0,Ward 27,2553,8100,1960,478,99,,Sold,,,https://www.redfin.com/MD/Baltimore/6111-Fairdel-Ave-21206/home/11135096,BRIGHT MLS,MDBA512682,N,Y,39.3493137,-76.540593
PAST SALE,August-15-2019,Townhouse,4347 Nicholas Ave,Baltimore,MD,21206,98000,2,2.0,BELAIR EDISON,1015,1190,1951,843,97,,Sold,,,https://www.redfin.com/MD/Baltimore/4347-Nicholas-Ave-21206/home/11115157,BRIGHT MLS,MDBA469448,N,Y,39.327001,-76.5616358
PAST SALE,March-28-2019,Townhouse,5882 Belair Rd,Baltimore,MD,21206,99900,2,1.5,BALTIMORE CITY,940,4356,1930,983,106,,Sold,,,https://www.redfin.com/MD/Baltimore/5882-Belair-Rd-21206/home/11134526,BRIGHT MLS,MDBA208238,N,Y,39.3454498,-76.5415803
PAST SALE,May-14-2020,Vacant Land,Lot 18 Burland Ave,Baltimore,MD,21206,5000,,,Ward 26,,8917,,570,,,Sold,,,https://www.redfin.com/MD/Baltimore/Lot-18-Burland-Ave-21206/home/171246478,BRIGHT MLS,MDBA506218,N,Y,39.33905088,-76.53518972
PAST SALE,October-17-2019,Townhouse,4110 Granite Ave,Baltimore,MD,21206,82974,3,1.5,Baltimore,1516,1306,1946,780,55,,Sold,,,https://www.redfin.com/MD/Baltimore/4110-Granite-Rd-21206/home/11134629,BRIGHT MLS,MDBA437254,N,Y,39.3453921,-76.5420944
PAST SALE,June-23-2021,Townhouse,4116 Kinsway,Baltimore,MD,21206,153000,3,1.5,Ward 27,1152,1152,1942,165,133,,Sold,,,https://www.redfin.com/MD/Baltimore/4116-Kinsway-21206/home/11134699,BRIGHT MLS,MDBA549964,N,Y,39.3445389,-76.5433877
PAST SALE,August-23-2021,Single Family Residential,4514 Parkmont Ave,Baltimore,MD,21206,196000,3,1.5,Ward 26,1106,5793,1962,104,177,,Sold,,,https://www.redfin.com/MD/Baltimore/4514-Parkmont-Ave-21206/home/11097270,BRIGHT MLS,MDBA2003922,N,Y,39.3466502,-76.5315495
PAST SALE,,Single Family Residential,3902 Parkside Dr,Baltimore,MD,21206,249000,4,2.5,,1936,8878,1910,,129,,,,,https://www.redfin.com/MD/Baltimore/3902-Parkside-Dr-21206/home/11123474,,,N,Y,39.3304687,-76.5676184
PAST SALE,February-27-2019,Single Family Residential,4204 Powell Ave,Baltimore,MD,21206,195000,3,2.0,CEDMONT,1547,5650,1932,1012,126,,Sold,,,https://www.redfin.com/MD/Baltimore/4204-Powell-Ave-21206/home/11097612,BRIGHT MLS,MDBA101476,N,Y,39.3472386,-76.5378937
PAST SALE,April-28-2021,Single Family Residential,5946 Kavon Ave,Baltimore,MD,21206,275000,3,2.5,Ward 26,2076,6943,1900,221,132,,Sold,,,https://www.redfin.com/MD/Baltimore/5946-Kavon-Ave-21206/home/11097704,BRIGHT MLS,MDBA543152,N,Y,39.3469706,-76.5380076
PAST SALE,September-10-2021,Single Family Residential,4504 White Ave,Baltimore,MD,21206,285000,6,2.5,Ward 26,1938,14497,1925,86,147,,Sold,,,https://www.redfin.com/MD/Baltimore/4504-White-Ave-21206/home/11099106,BRIGHT MLS,MDBA2007232,N,Y,39.3423403,-76.5382334
PAST SALE,December-23-2019,Single Family Residential,4618 Kavon Ave,Baltimore,MD,21206,229900,5,2.0,GARDENVILE,1688,6247,1925,713,136,,Sold,,,https://www.redfin.com/MD/Baltimore/4618-Kavon-Ave-21206/home/11116383,BRIGHT MLS,MDBA481532,N,Y,39.3310451,-76.5593669
PAST SALE,June-3-2019,Single Family Residential,4001 Hamilton Ave,Baltimore,MD,21206,223000,3,2.0,Baltimore,1936,7649,1940,916,115,,Sold,,,https://www.redfin.com/MD/Baltimore/4001-Hamilton-Ave-21206/home/11127534,BRIGHT MLS,MDBA436556,N,Y,39.3438161,-76.5491167
PAST SALE,June-14-2019,Townhouse,5447 Belle Vista Ave,Baltimore,MD,21206,182000,3,3.0,Baltimore,1344,5227,1948,905,135,,Sold,,,https://www.redfin.com/MD/Baltimore/5447-Belle-Vista-Ave-21206/home/11127632,BRIGHT MLS,MDBA464544,N,Y,39.3423104,-76.5506181
PAST SALE,,Townhouse,5424 Belle Vista Ave,Baltimore,MD,21206,146000,,2.0,,1344,5108,1948,,109,,,,,https://www.redfin.com/MD/Baltimore/5424-Belle-Vista-Ave-21206/home/11127689,,,N,Y,39.342162,-76.551522
PAST SALE,January-5-2021,Townhouse,5414 Belle Vista Ave,Baltimore,MD,21206,220000,4,2.5,Ward 27,2016,,1948,334,109,,Sold,,,https://www.redfin.com/MD/Baltimore/5414-Belle-Vista-Ave-21206/home/11127680,BRIGHT MLS,MDBA529586,N,Y,39.3417661,-76.551747
PAST SALE,May-8-2020,Single Family Residential,4405 Furley Ave,Baltimore,MD,21206,205000,3,1.5,Ward 26,1450,4918,1922,576,141,,Sold,,,https://www.redfin.com/MD/Baltimore/4405-Furley-Ave-21206/home/11115817,BRIGHT MLS,MDBA500670,N,Y,39.3310275,-76.5568383
PAST SALE,December-13-2018,Single Family Residential,4301 Willshire Ave,Baltimore,MD,21206,219000,4,2.5,WALTHERSON,2222,9548,1922,1088,99,,Sold,,,https://www.redfin.com/MD/Baltimore/4301-Willshire-Ave-21206/home/11093047,BRIGHT MLS,MDBA100576,N,Y,39.3382963,-76.5484304
PAST SALE,October-4-2021,Single Family Residential,3723 Ridgecroft Rd,Baltimore,MD,21206,235000,3,2.0,Ward 27,984,6390,1927,62,239,,Sold,,,https://www.redfin.com/MD/Baltimore/3723-Ridgecroft-Rd-21206/home/11128808,BRIGHT MLS,MDBA2010502,N,Y,39.3398989,-76.558825
PAST SALE,June-25-2021,Single Family Residential,4007 Parkwood Ave,Baltimore,MD,21206,284900,4,2.5,Ward 27,1583,5706,1928,163,180,,Sold,,,https://www.redfin.com/MD/Baltimore/4007-Parkwood-Ave-21206/home/11129423,BRIGHT MLS,MDBA550564,N,Y,39.3364285,-76.5563867
PAST SALE,April-9-2020,Single Family Residential,5125 Benton Heights Ave,Baltimore,MD,21206,204000,3,2.0,ANTHONYVILLE,1368,3999,1925,605,149,,Sold,,,https://www.redfin.com/MD/Baltimore/5125-Benton-Heights-Ave-21206/home/11129251,BRIGHT MLS,MDBA497054,N,Y,39.3371007,-76.5543096
PAST SALE,,Single Family Residential,4108 Southern Ave,Baltimore,MD,21206,340000,,3.0,,2121,7096,1923,,160,,,,,https://www.redfin.com/MD/Baltimore/4108-Southern-Ave-21206/home/11129752,,,N,Y,39.3347397,-76.5589605
PAST SALE,July-26-2021,Single Family Residential,4212 Stanwood Ave,Baltimore,MD,21206,93000,3,2.0,Ward 26,1210,5676,1926,132,77,,Sold,,,https://www.redfin.com/MD/Baltimore/4212-Stanwood-Ave-21206/home/11115720,BRIGHT MLS,MDBA532800,N,Y,39.3297942,-76.5612633
PAST SALE,October-21-2020,Single Family Residential,4715 Greenhill Ave,Baltimore,MD,21206,197000,2,2.0,Ward 26,1293,5340,1942,410,152,,Sold,,,https://www.redfin.com/MD/Baltimore/4715-Greenhill-Ave-21206/home/11117171,BRIGHT MLS,MDBA513378,N,Y,39.3312089,-76.5543096
PAST SALE,February-14-2019,Townhouse,5006 Belair Rd,Baltimore,MD,21206,43450,3,1.0,WALTHERSON,1176,1176,1923,1025,37,,Sold,,,https://www.redfin.com/MD/Baltimore/5006-Belair-Rd-21206/home/11129313,BRIGHT MLS,MDBA302508,N,Y,39.3359533,-76.5551337
PAST SALE,March-22-2019,Single Family Residential,4301 White Ave,Baltimore,MD,21206,134000,3,2.0,Baltimore,1125,5400,1950,989,119,,Sold,,,https://www.redfin.com/MD/Baltimore/4301-White-Ave-21206/home/11098863,BRIGHT MLS,MDBA357666,N,Y,39.3425787,-76.540943
PAST SALE,March-3-2020,Single Family Residential,4608 Powell Ave,Baltimore,MD,21206,115300,5,3.0,HAZELWOOD PARK,2640,13080,1952,642,44,,Sold,,,https://www.redfin.com/MD/Baltimore/4608-Powell-Ave-21206/home/9390225,BRIGHT MLS,MDBC484268,N,Y,39.3455599,-76.5293816
PAST SALE,December-27-2018,Single Family Residential,4147 Marx Ave,Baltimore,MD,21206,103000,5,2.0,GARDENVILLE,2020,6447,1925,1074,51,,Sold,,,https://www.redfin.com/MD/Baltimore/4147-Marx-Ave-21206/home/11120409,BRIGHT MLS,1007791988,N,Y,39.3324326,-76.5606763
PAST SALE,August-16-2021,Townhouse,5602 Remmell Ave,Baltimore,MD,21206,270000,4,2.5,Ward 27,2091,1742,1929,111,129,,Sold,,,https://www.redfin.com/MD/Baltimore/5602-Remmell-Ave-21206/home/11124037,BRIGHT MLS,MDBA2002230,N,Y,39.3451904,-76.5499746
PAST SALE,August-30-2021,Townhouse,5115 Pembroke Ave,Baltimore,MD,21206,170000,3,1.5,Ward 27,1200,1500,1953,97,142,,Sold,,,https://www.redfin.com/MD/Baltimore/5115-Pembroke-Ave-21206/home/11128447,BRIGHT MLS,MDBA553504,N,Y,39.3412077,-76.5574253
PAST SALE,December-13-2019,Single Family Residential,5900 Eurith Ave,Baltimore,MD,21206,214500,3,2.5,BALTIMORE CITY-21206,2212,4896,1955,723,97,,Sold,,,https://www.redfin.com/MD/Baltimore/5900-Eurith-Ave-21206/home/11098354,BRIGHT MLS,MDBA479046,N,Y,39.34366,-76.5308269
PAST SALE,October-15-2021,Single Family Residential,4616 Mary Ave,Baltimore,MD,21206,200000,3,1.5,Ward 26,1227,7044,1952,51,163,,Sold,,,https://www.redfin.com/MD/Baltimore/4616-Mary-Ave-21206/home/11098198,BRIGHT MLS,MDBA2008636,N,Y,39.3428475,-76.5354334
PAST SALE,May-4-2020,Single Family Residential,6314 Elinore Ave,Baltimore,MD,21206,180000,3,1.5,Ward 27,1750,6517,1947,580,103,,Sold,,,https://www.redfin.com/MD/Baltimore/6314-Elinore-Ave-21206/home/11131555,BRIGHT MLS,MDBA500772,N,Y,39.3549694,-76.5413946
PAST SALE,August-26-2021,Single Family Residential,4618 Schley Ave,Baltimore,MD,21206,130000,3,2.0,Ward 27,1152,7261,1920,101,113,,Sold,,,https://www.redfin.com/MD/Baltimore/4618-Schley-Ave-21206/home/11121651,BRIGHT MLS,MDBA2007132,N,Y,39.3358984,-76.5617148
PAST SALE,,Townhouse,4615 Luerssen Ave,Baltimore,MD,21206,105000,,2.0,,1600,4387,1959,,66,,,,,https://www.redfin.com/MD/Baltimore/4615-Luerssen-Ave-21206/home/11121733,,,N,Y,39.3362518,-76.5620698
PAST SALE,,Single Family Residential,5010 Remmell Ave,Baltimore,MD,21206,237000,,1.0,,1276,4700,1942,,186,,,,,https://www.redfin.com/MD/Baltimore/5010-Remmell-Ave-21206/home/11128411,,,N,Y,39.3403559,-76.5572898
PAST SALE,,Townhouse,3915 Marx Ave,Baltimore,MD,21206,130000,,2.0,,1600,4189,1958,,81,,,,,https://www.redfin.com/MD/Baltimore/3915-Marx-Ave-21206/home/11121970,,,N,Y,39.3367986,-76.5621789
PAST SALE,,Single Family Residential,4205 Bayonne Ave,Baltimore,MD,21206,134000,,1.0,,1058,9683,1957,,127,,,,,https://www.redfin.com/MD/Baltimore/4205-Bayonne-Ave-21206/home/11099366,,,N,Y,39.3423074,-76.544059
PAST SALE,,Single Family Residential,5111 Plainfield Ave,Baltimore,MD,21206,50000,,1.0,,1864,14985,1928,,27,,,,,https://www.redfin.com/MD/Baltimore/5111-Plainfield-Ave-21206/home/11092331,,,N,Y,39.3327147,-76.549438
PAST SALE,June-24-2021,Townhouse,5628 Belair Rd,Baltimore,MD,21206,150000,4,1.5,Ward 27,1575,2100,1929,164,95,,Sold,,,https://www.redfin.com/MD/Baltimore/5628-Belair-Rd-21206/home/11127224,BRIGHT MLS,MDBA537074,N,Y,39.3418106,-76.546785
PAST SALE,,Single Family Residential,3911 Woodlea Ave,Baltimore,MD,21206,216000,3,2.0,,1150,6996,1925,,188,,,,,https://www.redfin.com/MD/Baltimore/3911-Woodlea-Ave-21206/home/11129835,,,N,Y,39.3374227,-76.5590959
PAST SALE,,Townhouse,3917 Marx Ave,Baltimore,MD,21206,130000,,2.0,,1600,4118,1958,,81,,,,,https://www.redfin.com/MD/Baltimore/3917-Marx-Ave-21206/home/11121971,,,N,Y,39.3367,-76.562146
PAST SALE,May-3-2019,Single Family Residential,4009 Parkmount Ave,Baltimore,MD,21206,219000,4,2.5,BALTIMORE CITY,1920,12240,2009,947,114,,Sold,,,https://www.redfin.com/MD/Baltimore/4009-Parkmont-Ave-21206/home/17035852,BRIGHT MLS,MDBA143890,N,Y,39.348164,-76.5399743
PAST SALE,,Townhouse,4622 Belair Rd,Baltimore,MD,21206,49500,,1.0,,1052,1232,1927,,47,,,,,https://www.redfin.com/MD/Baltimore/4622-Belair-Rd-21206/home/11120622,,,N,Y,39.3317828,-76.5611617
PAST SALE,August-26-2021,Townhouse,4316 Belair Rd,Baltimore,MD,21206,60000,2,1.5,Ward 27,1494,3600,1927,101,40,,Sold,,,https://www.redfin.com/MD/Baltimore/4316-Belair-Rd-21206/home/11123400,BRIGHT MLS,MDBA2006486,N,Y,39.3289541,-76.5648178
PAST SALE,July-31-2020,Townhouse,4702 Eugene Ave,Baltimore,MD,21206,50000,2,1.0,GARDENVILLE/OVERLEA,870,,1951,492,57,,Sold,,,https://www.redfin.com/MD/Baltimore/4702-Eugene-Ave-21206/home/11121685,BRIGHT MLS,MDBA466986,N,Y,39.337796,-76.5622746
PAST SALE,September-20-2019,Single Family Residential,6207 Brook Ave,Baltimore,MD,21206,285000,4,2.5,RASPEBURG,2380,8098,1925,807,120,,Sold,,,https://www.redfin.com/MD/Baltimore/6207-Brook-Ave-21206/home/11131606,BRIGHT MLS,MDBA478316,N,Y,39.3507357,-76.5365173
PAST SALE,April-26-2019,Townhouse,4738 Chatford Ave,Baltimore,MD,21206,93000,2,1.0,PARKSIDE,1046,,1956,954,89,,Sold,,,https://www.redfin.com/MD/Baltimore/4738-Chatford-Ave-21206/home/11102359,BRIGHT MLS,MDBA439634,N,Y,39.324162,-76.555046
PAST SALE,September-6-2019,Townhouse,5535 Whitwood Rd,Baltimore,MD,21206,149900,3,1.5,BALTIMORE CITY,1728,1307,1959,821,87,,Sold,,,https://www.redfin.com/MD/Baltimore/5535-Whitwood-Rd-21206/home/11117978,BRIGHT MLS,MDBA468778,N,Y,39.3353544,-76.5352641
PAST SALE,,Townhouse,5411 Moores Run Dr,Baltimore,MD,21206,150000,,1.0,,1152,1800,1959,,130,,,,,https://www.redfin.com/MD/Baltimore/5411-Moores-Run-Dr-21206/home/11117194,,,N,Y,39.3307045,-76.5343099
PAST SALE,December-20-2019,Townhouse,5335 Todd Ave,Baltimore,MD,21206,139900,3,1.5,FRANKFORD,1536,,1955,716,91,,Sold,,,https://www.redfin.com/MD/Baltimore/5335-Todd-Ave-21206/home/11088403,BRIGHT MLS,MDBA473978,N,Y,39.3293184,-76.5385944
PAST SALE,,Single Family Residential,4207 Diller Ave,Baltimore,MD,21206,210000,,2.5,,2205,7775,1924,,95,,,,,https://www.redfin.com/MD/Baltimore/4207-Diller-Ave-21206/home/11123381,,,N,Y,39.3314209,-76.5676748
PAST SALE,April-18-2019,Townhouse,5405 Bucknell Rd,Baltimore,MD,21206,150000,3,1.0,CEDONIA,1728,,1959,962,87,,Sold,,,https://www.redfin.com/MD/Baltimore/5405-Bucknell-Rd-21206/home/11117289,BRIGHT MLS,MDBA435936,N,Y,39.3310869,-76.53388
PAST SALE,September-13-2019,Townhouse,5615 Force Rd,Baltimore,MD,21206,130980,3,1.5,FRANKFORD,1296,1742,1960,814,101,,Sold,,,https://www.redfin.com/MD/Baltimore/5615-Force-Rd-21206/home/11089490,BRIGHT MLS,MDBA473704,N,Y,39.3214273,-76.535988
PAST SALE,September-20-2020,Townhouse,5716 Denwood Ave,Baltimore,MD,21206,73000,3,1.5,Ward 26,1440,1742,1959,441,51,,Sold,,,https://www.redfin.com/MD/Baltimore/5716-Denwood-Ave-21206/home/11099842,BRIGHT MLS,MDBA525022,N,Y,39.3188558,-76.5476829
PAST SALE,March-6-2020,Single Family Residential,3910 White Ave,Baltimore,MD,21206,100000,4,2.0,GLENHAM-BELFORD,2753,,1953,639,36,,Sold,,,https://www.redfin.com/MD/Baltimore/3910-White-Ave-21206/home/11133881,BRIGHT MLS,MDBA476660,N,Y,39.3465154,-76.5460008
PAST SALE,July-9-2019,Single Family Residential,4007 Taylor,Nottingham,MD,21236,225000,3,1.5,NOTTINGHAM,1407,6700,1941,880,160,,Sold,,,https://www.redfin.com/MD/Nottingham/4007-Taylor-Ave-21236/home/9409250,BRIGHT MLS,MDBC457828,N,Y,39.3628744,-76.5279975
PAST SALE,December-30-2019,Townhouse,4831 Aberdeen Ave,Baltimore,MD,21206,152500,3,2.0,FRANKFORD,1440,1152,1961,706,106,,Sold,,,https://www.redfin.com/MD/Baltimore/4831-Aberdeen-Ave-21206/home/11100182,BRIGHT MLS,MDBA471938,N,Y,39.3198118,-76.5502246
PAST SALE,,Single Family Residential,4003 Belwood Ave,Baltimore,MD,21206,195700,,1.0,,1438,3598,1925,,136,,,,,https://www.redfin.com/MD/Baltimore/4003-Belwood-Ave-21206/home/11129141,,,N,Y,39.3376822,-76.5554498
PAST SALE,July-5-2019,Single Family Residential,3904 Biddison Ln,Baltimore,MD,21206,184000,3,2.0,HAMILTON,1714,4901,1930,884,107,,Sold,,,https://www.redfin.com/MD/Baltimore/3904-Biddison-Ln-21206/home/11127992,BRIGHT MLS,MDBA305032,N,Y,39.3395013,-76.5555175
PAST SALE,July-31-2019,Townhouse,5434 Whitwood Rd,Baltimore,MD,21206,157500,3,1.5,CEDONIA,1440,3920,1959,858,109,,Sold,,,https://www.redfin.com/MD/Baltimore/5434-Whitwood-Rd-21206/home/11117469,BRIGHT MLS,MDBA473984,N,Y,39.3329713,-76.5346318
PAST SALE,December-3-2019,Single Family Residential,401 Walcott Rd,Baltimore,MD,21206,110000,3,1.0,ELMWOOD,995,5200,1928,733,111,,Sold,,,https://www.redfin.com/MD/Baltimore/401-Walcott-Rd-21206/home/9395661,BRIGHT MLS,MDBC476910,N,Y,39.3527022,-76.5237812
PAST SALE,,Single Family Residential,4420 Forest View Ave,Baltimore,MD,21206,70000,,1.5,,1242,6996,1950,,56,,,,,https://www.redfin.com/MD/Baltimore/4420-Forest-View-Ave-21206/home/11096691,,,N,Y,39.3500631,-76.5312691
PAST SALE,March-16-2019,Townhouse,5921 Walther Ave,Baltimore,MD,21206,110000,3,1.0,WALTHERSON,1432,2856,1957,995,77,,Sold,,,https://www.redfin.com/MD/Baltimore/5921-Walther-Ave-21206/home/11133857,BRIGHT MLS,MDBA435726,N,Y,39.3499084,-76.5458315
PAST SALE,September-17-2019,Townhouse,5829 Arizona Ave,Baltimore,MD,21206,128500,3,1.5,BALTIMORE CITY,1152,6098,1960,810,112,,Sold,,,https://www.redfin.com/MD/Baltimore/5829-Arizona-Ave-21206/home/11117824,BRIGHT MLS,1002281238,N,Y,39.3354338,-76.5362802
PAST SALE,September-25-2019,Single Family Residential,6205 Fairdel Ave,Baltimore,MD,21206,225000,4,2.5,GLENHAM-BELHAR,1426,12149,1925,802,158,,Sold,,,https://www.redfin.com/MD/Baltimore/6205-Fairdel-Ave-21206/home/11131800,BRIGHT MLS,MDBA100311,N,Y,39.3510324,-76.5404011
PAST SALE,January-13-2020,Single Family Residential,6401 Fairdel Ave,Baltimore,MD,21206,195000,3,2.0,Ward 27,1975,4800,1953,692,99,,Sold,,,https://www.redfin.com/MD/Baltimore/6401-Fairdel-Ave-21206/home/11142162,BRIGHT MLS,MDBA490798,N,Y,39.354829,-76.5398592
PAST SALE,May-29-2019,Single Family Residential,6011 Winthrope Ave,Baltimore,MD,21206,224900,4,2.0,BALTIMORE CITY,1728,6891,1952,921,130,,Sold,,,https://www.redfin.com/MD/Baltimore/6011-Winthrope-Ave-21206/home/11132029,BRIGHT MLS,MDBA436970,N,Y,39.3520714,-76.5458653
PAST SALE,February-7-2020,Single Family Residential,4336 Seidel Ave,Baltimore,MD,21206,175000,4,3.0,Ward 26,2000,7623,2001,667,88,,Sold,,,https://www.redfin.com/MD/Baltimore/4336-Seidel-Ave-21206/home/11222153,BRIGHT MLS,MDBA495002,N,Y,39.3275855,-76.560507
PAST SALE,November-25-2019,Single Family Residential,5503 Belle Vis,Baltimore,MD,21206,169900,3,1.5,WALTHERSON,1506,6460,1925,741,113,,Sold,,,https://www.redfin.com/MD/Baltimore/5503-Belle-Vista-Ave-21206/home/11127658,BRIGHT MLS,MDBA479930,N,Y,39.3431498,-76.5498843
PAST SALE,July-26-2019,Single Family Residential,7009 Beech Ave,Baltimore,MD,21206,200000,4,2.5,OVERLEA,2018,8570,1918,863,99,,Sold,,,https://www.redfin.com/MD/Baltimore/7009-Beech-Ave-21206/home/9409877,BRIGHT MLS,MDBC459274,N,Y,39.3566895,-76.5228327
PAST SALE,,Townhouse,5617 Force Rd,Baltimore,MD,21206,104000,3,1.5,,1368,4792,1960,,76,,,,,https://www.redfin.com/MD/Baltimore/5617-Force-Rd-21206/home/11089493,,,N,Y,39.3214163,-76.535889
PAST SALE,December-9-2019,Single Family Residential,4507 Parkwood Ave,Baltimore,MD,21206,180000,3,2.5,GARDENVILLE AREA,1287,5097,1958,727,140,,Sold,,,https://www.redfin.com/MD/Baltimore/4507-Parkwood-Ave-21206/home/11091728,BRIGHT MLS,MDBA473110,N,Y,39.3323277,-76.5518825
PAST SALE,,Townhouse,3916 Wilke Ave,Baltimore,MD,21206,80000,,1.5,,870,2750,1954,,92,,,,,https://www.redfin.com/MD/Baltimore/3916-Wilke-Ave-21206/home/11121789,,,N,Y,39.3372983,-76.5607074
PAST SALE,June-13-2019,Townhouse,5801 Cedonia Ave,Baltimore,MD,21206,159000,3,2.5,CEDONIA,1224,,1955,906,130,,Sold,,,https://www.redfin.com/MD/Baltimore/5801-Cedonia-Ave-21206/home/11098431,BRIGHT MLS,MDBA440466,N,Y,39.3421215,-76.5318769
PAST SALE,September-7-2021,Townhouse,4210 Kenwood Ave,Baltimore,MD,21206,239500,4,2.5,Ward 26,1316,43560,1923,89,182,,Sold,,,https://www.redfin.com/MD/Baltimore/4210-Kenwood-Ave-21206/home/11096334,BRIGHT MLS,MDBA2001112,N,Y,39.353926,-76.530325
PAST SALE,November-12-2021,Single Family Residential,4714 Moravia Rd,Baltimore,MD,21206,285000,4,2.5,Ward 26,1530,9614,1924,23,186,,Sold,,,https://www.redfin.com/MD/Baltimore/4714-Moravia-Rd-21206/home/11116159,BRIGHT MLS,MDBA2014736,N,Y,39.3260799,-76.5515664
PAST SALE,October-29-2019,Single Family Residential,4009 Chesmont Ave,Baltimore,MD,21206,127500,3,2.0,WATHERSON,1443,6255,1923,768,88,,Sold,,,https://www.redfin.com/MD/Baltimore/4009-Chesmont-Ave-21206/home/11129202,BRIGHT MLS,MDBA477460,N,Y,39.3370321,-76.5556955
PAST SALE,June-28-2019,Single Family Residential,4629 Asbury Ave,Baltimore,MD,21206,210000,4,3.0,WILSON HEIGHTS,2075,4095,1944,891,101,,Sold,,,https://www.redfin.com/MD/Baltimore/4629-Asbury-Ave-21206/home/11116358,BRIGHT MLS,MDBA327936,N,Y,39.3319635,-76.5590508
PAST SALE,,Single Family Residential,4603 Woodlea Ave,Baltimore,MD,21206,169000,,2.0,,1435,7932,1951,,118,,,,,https://www.redfin.com/MD/Baltimore/4603-Woodlea-Ave-21206/home/11116976,,,N,Y,39.3304662,-76.5527292
PAST SALE,August-16-2019,Single Family Residential,6117 Eastern Pkwy,Baltimore,MD,21206,148500,3,1.5,BALTIMORE CITY,1326,6660,1954,842,112,,Sold,,,https://www.redfin.com/MD/Baltimore/6117-Eastern-Pkwy-21206/home/11131405,BRIGHT MLS,MDBA438390,N,Y,39.3553463,-76.5465759
PAST SALE,January-25-2019,Townhouse,5400 Belle Vista Ave,Baltimore,MD,21206,175100,3,3.5,WALTHERSON,1344,,1948,1045,130,,Sold,,,https://www.redfin.com/MD/Baltimore/5400-Belle-Vista-Ave-21206/home/11127666,BRIGHT MLS,MDBA276940,N,Y,39.3413321,-76.5522889
PAST SALE,March-30-2021,Townhouse,3917 Southern Ave,Baltimore,MD,21206,81000,2,1.5,Ward 27,870,2730,1950,250,93,,Sold,,,https://www.redfin.com/MD/Baltimore/3917-Southern-Ave-21206/home/11121618,BRIGHT MLS,MDBA538644,N,Y,39.3373068,-76.5602692
PAST SALE,,Townhouse,6519 Brook Ave,Baltimore,MD,21206,120000,,1.0,,1280,6885,1949,,94,,,,,https://www.redfin.com/MD/Baltimore/6519-Brook-Ave-21206/home/11142546,,,N,Y,39.3555617,-76.5355282
PAST SALE,September-2-2021,Single Family Residential,110 Walnut Ave,Baltimore,MD,21206,280000,3,3.0,OVERLEA,1608,9941,1910,94,174,,Sold,,,https://www.redfin.com/MD/Baltimore/110-Walnut-Ave-21206/home/12534999,BRIGHT MLS,MDBC2004402,N,Y,39.3597721,-76.5294268
PAST SALE,,Townhouse,4413 Asbury Ave,Baltimore,MD,21206,152000,,2.0,,1043,1440,1931,,146,,,,,https://www.redfin.com/MD/Baltimore/4413-Asbury-Ave-21206/home/11114556,,,N,Y,39.3287958,-76.5624135
PAST SALE,,Townhouse,3812 Birchview Ave,Baltimore,MD,21206,140000,,2.5,,1785,4246,1960,,78,,,,,https://www.redfin.com/MD/Baltimore/3812-Birchview-Ave-21206/home/11140600,,,N,Y,39.355749,-76.538608
PAST SALE,May-17-2021,Single Family Residential,4300 Powell Ave,Baltimore,MD,21206,295000,5,3.5,Ward 26,1751,13721,1900,202,168,,Sold,,,https://www.redfin.com/MD/Baltimore/4300-Powell-Ave-21206/home/11097578,BRIGHT MLS,MDBA546690,N,Y,39.3468037,-76.5362463
PAST SALE,January-25-2019,Single Family Residential,5412 Gerland Ave,Baltimore,MD,21206,224900,4,2.0,FRANKFORD,1620,5040,1930,1045,139,,Sold,,,https://www.redfin.com/MD/Baltimore/5412-Gerland-Ave-21206/home/11096211,BRIGHT MLS,MDBA276972,N,Y,39.3332077,-76.5441945
PAST SALE,,Townhouse,4237 Nicholas Ave,Baltimore,MD,21206,74900,,1.0,,1170,1635,1928,,64,,,,,https://www.redfin.com/MD/Baltimore/4237-Nicholas-Ave-21206/home/11114229,,,N,Y,39.3282116,-76.5632392
PAST SALE,May-13-2021,Single Family Residential,4205 Kolb Ave,Baltimore,MD,21206,195000,4,1.0,Ward 26,1269,7497,1920,206,154,,Sold,,,https://www.redfin.com/MD/Baltimore/4205-Kolb-Ave-21206/home/11096389,BRIGHT MLS,MDBA529502,N,Y,39.3526809,-76.5317301
PAST SALE,,Townhouse,4011 Century Rd,Baltimore,MD,21206,70000,,1.0,,1440,2288,1948,,49,,,,,https://www.redfin.com/MD/Baltimore/4011-Century-Rd-21206/home/11134894,,,N,Y,39.3463492,-76.5416884
PAST SALE,October-21-2021,Townhouse,4245 Sheldon Ave,Baltimore,MD,21206,100000,3,1.0,Ward 26,1700,,1937,45,59,,Sold,,,https://www.redfin.com/MD/Baltimore/4245-Sheldon-Ave-21206/home/11114137,BRIGHT MLS,MDBA2001022,N,Y,39.327735,-76.5638421
PAST SALE,,Single Family Residential,4312 Willshire Ave,Baltimore,MD,21206,105000,,2.0,,1607,7688,1925,,65,,,,,https://www.redfin.com/MD/Baltimore/4312-Willshire-Ave-21206/home/11093121,,,N,Y,39.3378485,-76.5474459
PAST SALE,,Townhouse,5212 Saybrook Rd,Baltimore,MD,21206,150000,,1.0,,1440,3996,1963,,104,,,,,https://www.redfin.com/MD/Baltimore/5212-Saybrook-Rd-21206/home/11087535,,,N,Y,39.3282093,-76.530522
PAST SALE,,Townhouse,4859 Bowland Ave,Baltimore,MD,21206,127000,,1.0,,1350,6117,1958,,94,,,,,https://www.redfin.com/MD/Baltimore/4859-Bowland-Ave-21206/home/11100443,,,N,Y,39.3195335,-76.5492183
PAST SALE,,Townhouse,4813 Frankford Ave,Baltimore,MD,21206,180000,,1.0,,1120,4512,1925,,161,,,,,https://www.redfin.com/MD/Baltimore/4813-Frankford-Ave-21206/home/11091897,,,N,Y,39.3317181,-76.5444767
PAST SALE,August-13-2021,Townhouse,4118 Saint Thomas Ave,Baltimore,MD,21206,69960,2,1.0,Ward 27,898,,1926,114,78,,Sold,,,https://www.redfin.com/MD/Baltimore/4118-St-Thomas-Ave-21206/home/11120546,BRIGHT MLS,MDBA552486,N,Y,39.3325578,-76.5613197
PAST SALE,May-11-2021,Townhouse,4411 Asbury Ave,Baltimore,MD,21206,157900,4,2.0,Ward 26,1564,871,1931,208,101,,Sold,,,https://www.redfin.com/MD/Baltimore/4411-Asbury-Ave-21206/home/11114552,BRIGHT MLS,MDBA539176,N,Y,39.3287684,-76.5624485
PAST SALE,,Single Family Residential,3809 Forrester Ave,Baltimore,MD,21206,265000,,1.5,,1253,5998,1924,,211,,,,,https://www.redfin.com/MD/Baltimore/3809-Forrester-Ave-21206/home/11128073,,,N,Y,39.340704,-76.5558449
PAST SALE,February-12-2021,Single Family Residential,3516 Mary Ave,Baltimore,MD,21214,111600,3,1.5,Ward 27,1416,6477,1950,296,79,,Sold,,,https://www.redfin.com/MD/Baltimore/3516-Mary-Ave-21214/home/11133457,BRIGHT MLS,MDBA529556,N,Y,39.3507918,-76.549207
PAST SALE,January-3-2020,Single Family Residential,5328 Mccormick Ave,Baltimore,MD,21206,370000,4,2.5,MCCORMICK WOODS,3351,22219,2008,702,110,,Sold,,,https://www.redfin.com/MD/Baltimore/5328-McCormick-Ave-21206/home/17110409,BRIGHT MLS,MDBC474452,N,Y,39.335209,-76.5229395
PAST SALE,August-26-2019,Townhouse,5603 Denwood Ave,Baltimore,MD,21206,137000,3,1.5,PARKSIDE,1440,1152,1959,832,95,,Sold,,,https://www.redfin.com/MD/Baltimore/5603-Denwood-Ave-21206/home/11100539,BRIGHT MLS,MDBA474766,N,Y,39.3193505,-76.5486764
PAST SALE,April-30-2019,Single Family Residential,4502 Mary Ave,Baltimore,MD,21206,129000,3,2.5,CEDMONT,1496,7928,1912,950,86,,Sold,,,https://www.redfin.com/MD/Baltimore/4502-Mary-Ave-21206/home/11099130,BRIGHT MLS,MDBA383790,N,Y,39.3432771,-76.5377366
PAST SALE,January-31-2019,Single Family Residential,4504 Lasalle Ave,Baltimore,MD,21206,235870,4,3.5,ANTHONYVILLE,1626,7048,1925,1039,145,,Sold,,,https://www.redfin.com/MD/Baltimore/4504-Lasalle-Ave-21206/home/11092704,BRIGHT MLS,MDBA101618,N,Y,39.3355876,-76.5464975
PAST SALE,November-26-2021,Single Family Residential,4213 Parkmont,Baltimore,MD,21206,299000,3,2.0,Ward 26,2136,7497,1928,9,140,,Sold,,,https://www.redfin.com/MD/Baltimore/4213-Parkmont-Ave-21206/home/11097604,BRIGHT MLS,MDBA2000931,N,Y,39.347377,-76.5366982
PAST SALE,,Townhouse,3811 Mayberry Ave,Baltimore,MD,21206,120100,,2.0,,1600,4924,1960,,75,,,,,https://www.redfin.com/MD/Baltimore/3811-Mayberry-Ave-21206/home/11142195,,,N,Y,39.3543092,-76.5385579
PAST SALE,February-4-2019,Townhouse,3702 Bayonne Ave,Baltimore,MD,21206,67000,3,1.5,BALTIMORE CITY,1360,5271,1951,1035,49,,Sold,,,https://www.redfin.com/MD/Baltimore/3702-Bayonne-Ave-21206/home/11124118,BRIGHT MLS,MDBA159424,N,Y,39.3478088,-76.5493086
PAST SALE,April-30-2021,Townhouse,5524 Frankford Ave,Baltimore,MD,21206,119900,3,1.5,Ward 26,1200,,1955,219,100,,Sold,,,https://www.redfin.com/MD/Baltimore/5524-Frankford-Ave-21206/home/11088716,BRIGHT MLS,MDBA525904,N,Y,39.3225951,-76.5403098
PAST SALE,May-13-2019,Single Family Residential,4101 Harris Ave,Baltimore,MD,21206,66000,5,2.5,BALTIMORE CITY,3403,5358,1924,937,19,,Sold,,,https://www.redfin.com/MD/Baltimore/4101-Harris-Ave-21206/home/11122882,BRIGHT MLS,MDBA464290,N,Y,39.3292209,-76.5669072
PAST SALE,September-29-2021,Townhouse,4838 Claybury Ave,Baltimore,MD,21206,191000,3,1.0,Ward 26,1440,230,1962,67,133,,Sold,,,https://www.redfin.com/MD/Baltimore/4838-Claybury-Ave-21206/home/11100495,BRIGHT MLS,MDBA541798,N,Y,39.318919,-76.5493387
PAST SALE,,Single Family Residential,3613 White Ave,Baltimore,MD,21206,246500,,2.5,,2218,11400,1924,,111,,,,,https://www.redfin.com/MD/Baltimore/3613-White-Ave-21206/home/11124426,,,N,Y,39.3492342,-76.5498392
PAST SALE,October-9-2019,Townhouse,4218 Lasalle Ave,Baltimore,MD,21206,131900,3,2.0,FRANKFORD,1760,3798,1920,788,75,,Sold,,,https://www.redfin.com/MD/Baltimore/4218-Lasalle-Ave-21206/home/11092974,BRIGHT MLS,MDBA101496,N,Y,39.337842,-76.5491695
PAST SALE,February-23-2021,Single Family Residential,8 E Overlea Ave E,Baltimore,MD,21206,183000,5,2.0,OVERLEA,2429,6000,1922,285,75,,Sold,,,https://www.redfin.com/MD/Baltimore/8-E-Overlea-Ave-21206/home/9389663,BRIGHT MLS,MDBC514288,N,Y,39.3565003,-76.5268853
PAST SALE,July-31-2019,Single Family Residential,6121 Ridgeview Ave,Baltimore,MD,21206,325000,5,3.5,GLENHAM-BELFORD,4836,32426,1925,858,67,,Sold,,,https://www.redfin.com/MD/Baltimore/6121-Ridgeview-Ave-21206/home/11135112,BRIGHT MLS,MDBA439862,N,Y,39.3498665,-76.539114
PAST SALE,,Townhouse,4223 Nicholas Ave,Baltimore,MD,21206,44400,,1.0,,1420,1650,1928,,31,,,,,https://www.redfin.com/MD/Baltimore/4223-Nicholas-Ave-21206/home/11114246,,,N,Y,39.3284694,-76.5634645
PAST SALE,August-9-2021,Townhouse,4904 Greencrest Rd,Baltimore,MD,21206,200000,4,2.0,Ward 26,1280,,1957,118,156,,Sold,,,https://www.redfin.com/MD/Baltimore/4904-Greencrest-Rd-21206/home/11089340,BRIGHT MLS,MDBA2007078,N,Y,39.3237606,-76.5374554
PAST SALE,July-9-2021,Townhouse,4821 Bowland Ave,Baltimore,MD,21206,120000,3,1.0,Ward 26,1152,,1960,149,104,,Sold,,,https://www.redfin.com/MD/Baltimore/4821-Bowland-Ave-21206/home/11100396,BRIGHT MLS,MDBA550626,N,Y,39.3188783,-76.5502172
PAST SALE,June-18-2021,Townhouse,5614 Frankford Ave,Baltimore,MD,21206,96500,3,1.5,Ward 26,1024,,1956,170,94,,Sold,,,https://www.redfin.com/MD/Baltimore/5614-Frankford-Ave-21206/home/11088741,BRIGHT MLS,MDBA551232,N,Y,39.321846,-76.5402568
PAST SALE,March-19-2021,Townhouse,5837 Arizona Ave,Baltimore,MD,21206,145500,3,1.0,Ward 26,1440,1793,1960,261,101,,Sold,,,https://www.redfin.com/MD/Baltimore/5837-Arizona-Ave-21206/home/11117832,BRIGHT MLS,MDBA537388,N,Y,39.335455,-76.535998
PAST SALE,January-22-2021,Townhouse,5489 Bucknell Rd,Baltimore,MD,21206,180000,3,2.0,Ward 26,1152,,1959,317,156,,Sold,,,https://www.redfin.com/MD/Baltimore/5489-Bucknell-Rd-21206/home/11118095,BRIGHT MLS,MDBA532788,N,Y,39.3342267,-76.5337963
PAST SALE,August-31-2021,Townhouse,5507 Whitwood Rd,Baltimore,MD,21206,182000,3,1.0,Ward 26,1552,,1959,96,117,,Sold,,,https://www.redfin.com/MD/Baltimore/5507-Whitwood-Rd-21206/home/11117946,BRIGHT MLS,MDBA2002744,N,Y,39.334549,-76.534948
PAST SALE,April-15-2019,Single Family Residential,17 H-H E Elm Ave,Baltimore,MD,21206,200000,5,2.5,OVERLEA,1564,5520,1951,965,128,,Sold,,,https://www.redfin.com/MD/Overlea/17-H-H-E-Elm-Ave-21206/home/148472082,BRIGHT MLS,MDBC200294,N,Y,39.35821533,-76.52421768
PAST SALE,October-15-2021,Single Family Residential,5712 Newholme Ave,Baltimore,MD,21206,231650,4,2.0,Ward 26,1786,7850,1947,51,130,,Sold,,,https://www.redfin.com/MD/Baltimore/5712-Newholme-Ave-21206/home/11094040,BRIGHT MLS,MDBA546976,N,Y,39.3377523,-76.5381431
PAST SALE,November-22-2021,Single Family Residential,4502 Woodlea Ave,Baltimore,MD,21206,203000,4,1.0,Ward 26,1188,5776,1940,13,171,,Sold,,,https://www.redfin.com/MD/Baltimore/4502-Woodlea-Ave-21206/home/11116877,BRIGHT MLS,MDBA2005466,N,Y,39.3316206,-76.5534065
PAST SALE,,Townhouse,4129 Marx Ave,Baltimore,MD,21206,170000,,1.0,,1204,3035,1924,,141,,,,,https://www.redfin.com/MD/Baltimore/4129-Marx-Ave-21206/home/11120430,,,N,Y,39.3333508,-76.5610375
PAST SALE,April-24-2020,Townhouse,5528 Whitby Rd,Baltimore,MD,21206,97000,3,1.5,Ward 26,1440,36,1959,590,67,,Sold,,,https://www.redfin.com/MD/Baltimore/5528-Whitby-Rd-21206/home/11118671,BRIGHT MLS,MDBA498574,N,Y,39.3345903,-76.5311198
PAST SALE,December-11-2020,Single Family Residential,11 E Elm Ave E,Baltimore,MD,21206,285900,3,2.5,OVERLEA,2130,6850,1923,359,134,,Sold,,,https://www.redfin.com/MD/Baltimore/11-E-Elm-Ave-21206/home/9407021,BRIGHT MLS,MDBC510196,N,Y,39.3586456,-76.5247506
PAST SALE,June-29-2020,Vacant Land,4206 Belmar Ave,Baltimore,MD,21206,29700,,,Ward 26,,7497,,524,,,Sold,,,https://www.redfin.com/MD/Baltimore/4206-Belmar-Ave-21206/home/11096427,BRIGHT MLS,MDBA504606,N,Y,39.3520458,-76.53192
PAST SALE,March-28-2019,Single Family Residential,4502 Anntana Ave,Baltimore,MD,21206,135000,3,1.0,BALTIMORE CITY,1055,6791,1956,983,128,,Sold,,,https://www.redfin.com/MD/Baltimore/4502-Anntana-Ave-21206/home/11095039,BRIGHT MLS,MDBA143892,N,Y,39.3371299,-76.5450525
PAST SALE,,Townhouse,6403 Ridgeview Ave,Baltimore,MD,21206,217000,,2.5,,1428,3938,1960,,152,,,,,https://www.redfin.com/MD/Baltimore/6403-Ridgeview-Ave-21206/home/11140563,,,N,Y,39.3550156,-76.5379737
PAST SALE,August-25-2021,Townhouse,4328 Brehms Ln,Baltimore,MD,21206,195000,3,1.5,Ward 26,1296,,1955,102,150,,Sold,,,https://www.redfin.com/MD/Baltimore/4328-Brehms-Ln-21206/home/11101452,BRIGHT MLS,MDBA2002564,N,Y,39.3256354,-76.5600893
PAST SALE,September-17-2021,Single Family Residential,6107 Eastern Pkwy,Baltimore,MD,21206,215000,3,1.5,Ward 27,1326,6943,1955,79,162,,Sold,,,https://www.redfin.com/MD/Baltimore/6107-Eastern-Pkwy-21206/home/11131394,BRIGHT MLS,MDBA2002650,N,Y,39.3546236,-76.5465879
PAST SALE,,Townhouse,3716 Gibbons Ave,Baltimore,MD,21206,200000,,2.5,,1759,4719,1939,,114,,,,,https://www.redfin.com/MD/Baltimore/3716-Gibbons-Ave-21206/home/11125964,,,N,Y,39.343604,-76.5552014
PAST SALE,,Townhouse,4407 Kavon Ave,Baltimore,MD,21206,80000,,2.0,,1273,1605,1930,,63,,,,,https://www.redfin.com/MD/Baltimore/4407-Kavon-Ave-21206/home/11115419,,,N,Y,39.3282126,-76.5619519
PAST SALE,June-10-2019,Single Family Residential,4117 Marx Ave,Baltimore,MD,21206,199900,3,2.5,GARDENVILE,1755,6508,1927,909,114,,Sold,,,https://www.redfin.com/MD/Baltimore/4117-Marx-Ave-21206/home/11120437,BRIGHT MLS,MDBA466136,N,Y,39.3339585,-76.5611278
PAST SALE,,Townhouse,4756 Elison Ave,Baltimore,MD,21206,150000,,1.0,,1120,1600,1958,,134,,,,,https://www.redfin.com/MD/Baltimore/4756-Elison-Ave-21206/home/11100859,,,N,Y,39.3227237,-76.5545241
PAST SALE,June-19-2019,Single Family Residential,4433 Raspe Ave,Baltimore,MD,21206,223900,4,2.5,CEDMONT,1700,9448,1925,900,132,,Sold,,,https://www.redfin.com/MD/Baltimore/4433-Raspe-Ave-21206/home/11096941,BRIGHT MLS,1001188788,N,Y,39.3486349,-76.5301494
PAST SALE,September-28-2021,Single Family Residential,5730 Newholme Ave,Baltimore,MD,21206,224900,3,2.0,Ward 26,1546,7240,1947,68,145,,Sold,,,https://www.redfin.com/MD/Baltimore/5730-Newholme-Ave-21206/home/11094070,BRIGHT MLS,MDBA549446,N,Y,39.3387648,-76.5368317
PAST SALE,December-16-2019,Townhouse,5013 Schaub,Baltimore,MD,21206,110000,3,2.0,BEL AIR,1024,900,1955,720,107,,Sold,,,https://www.redfin.com/MD/Baltimore/5013-Schaub-Ave-21206/home/11088838,BRIGHT MLS,MDBA493874,N,Y,39.3234809,-76.5389697
PAST SALE,March-6-2020,Single Family Residential,4404 Valley View Ave,Baltimore,MD,21206,235000,3,2.5,ANTHONYVILLE,2220,10820,1926,639,106,,Sold,,,https://www.redfin.com/MD/Baltimore/4404-Valley-View-Ave-21206/home/11091658,BRIGHT MLS,MDBA489472,N,Y,39.3330245,-76.5534968
PAST SALE,,Single Family Residential,4203 Parkmont Ave,Baltimore,MD,21206,175000,,2.0,,1616,5998,1922,,108,,,,,https://www.redfin.com/MD/Baltimore/4203-Parkmont-Ave-21206/home/11097591,,,N,Y,39.3475582,-76.5375738
PAST SALE,February-1-2019,Single Family Residential,5013 Eugene Ave,Baltimore,MD,21206,77000,3,1.0,Baltimore,1026,5702,1928,1038,75,,Sold,,,https://www.redfin.com/MD/Baltimore/5013-Eugene-Ave-21206/home/11128954,BRIGHT MLS,MDBA102202,N,Y,39.338464,-76.5564319
PAST SALE,,Townhouse,4107 White Ave,Baltimore,MD,21206,140000,,1.0,,1520,2652,1949,,92,,,,,https://www.redfin.com/MD/Baltimore/4107-White-Ave-21206/home/11123792,,,N,Y,39.344367,-76.5449057
PAST SALE,December-6-2019,Single Family Residential,5714 Seymour Ave,Baltimore,MD,21206,87500,3,2.0,CEDONIA,2472,17645,1946,730,35,,Sold,,,https://www.redfin.com/MD/Baltimore/5714-Seymour-Ave-21206/home/11099463,BRIGHT MLS,MDBA482084,N,Y,39.3404188,-76.5401753
PAST SALE,January-31-2019,Single Family Residential,3733 Rueckert Ave,Baltimore,MD,21206,214900,3,2.0,Baltimore,1524,8769,1940,1039,141,,Sold,,,https://www.redfin.com/MD/Baltimore/3733-Rueckert-Ave-21206/home/11128419,BRIGHT MLS,MDBA102102,N,Y,39.3407859,-76.5568834
PAST SALE,May-13-2020,Single Family Residential,4507 Woodlea Ave,Baltimore,MD,21206,69000,3,2.0,Ward 26,1155,4526,1942,571,60,,Sold,,,https://www.redfin.com/MD/Baltimore/4507-Woodlea-Ave-21206/home/11117155,BRIGHT MLS,MDBA502550,N,Y,39.3312436,-76.5535871
PAST SALE,September-30-2021,Townhouse,4336 Shamrock Ave,Baltimore,MD,21206,246000,4,2.0,Ward 26,1920,,1937,66,128,,Sold,,,https://www.redfin.com/MD/Baltimore/4336-Shamrock-Ave-21206/home/11114969,BRIGHT MLS,MDBA2010484,N,Y,39.3263558,-76.5625879
PAST SALE,October-26-2021,Single Family Residential,4406 Marx Ave,Baltimore,MD,21206,290000,4,2.5,Ward 26,2464,4927,1927,40,118,,Sold,,,https://www.redfin.com/MD/Baltimore/4406-Marx-Ave-21206/home/11115848,BRIGHT MLS,MDBA2008932,N,Y,39.330555,-76.5568834
PAST SALE,August-7-2019,Townhouse,4322 Woodlea Ave,Baltimore,MD,21206,150800,4,2.0,BALTIMORE,1113,3484,1930,851,135,,Sold,,,https://www.redfin.com/MD/Baltimore/4322-Woodlea-Ave-21206/home/11116831,BRIGHT MLS,MDBA469438,N,Y,39.3325246,-76.5544112
PAST SALE,,Single Family Residential,6404 Moyer Ave,Baltimore,MD,21206,255000,,2.0,,1985,6464,1952,,128,,,,,https://www.redfin.com/MD/Baltimore/6404-Moyer-Ave-21206/home/11141505,,,N,Y,39.3578577,-76.5460008
PAST SALE,August-23-2021,Townhouse,5949 Benton Heights Ave,Baltimore,MD,21206,128700,3,2.0,Ward 27,1402,,1948,104,92,,Sold,,,https://www.redfin.com/MD/Baltimore/5949-Benton-Heights-Ave-21206/home/11134948,BRIGHT MLS,MDBA2002452,N,Y,39.3475065,-76.5424896
PAST SALE,November-30-2021,Single Family Residential,5021 Frankford Ave,Baltimore,MD,21206,200000,5,2.5,Ward 26,1849,6573,1952,5,108,,Sold,,,https://www.redfin.com/MD/Baltimore/5021-Frankford-Ave-21206/home/11099645,BRIGHT MLS,MDBA2013146,N,Y,39.3277754,-76.5416656
PAST SALE,May-16-2019,Single Family Residential,5607 Benton Hts,Raspeburg,MD,21206,100000,3,1.0,GARDENVILLE,1137,7405,1922,934,88,,Sold,,,https://www.redfin.com/MD/Baltimore/5607-Benton-Heights-Ave-21206/home/11127270,BRIGHT MLS,1006209132,N,Y,39.3421474,-76.5474459
PAST SALE,October-20-2020,Townhouse,5326 Todd Ave,Baltimore,MD,21206,140000,2,1.5,Ward 26,1536,1024,1955,411,91,,Sold,,,https://www.redfin.com/MD/Baltimore/5326-Todd-Ave-21206/home/11088349,BRIGHT MLS,MDBA520492,N,Y,39.3289272,-76.5390124
PAST SALE,,Single Family Residential,3801 Glenmore Ave,Baltimore,MD,21206,200000,,2.0,,1744,11818,1925,,115,,,,,https://www.redfin.com/MD/Baltimore/3801-Glenmore-Ave-21206/home/11131777,,,N,Y,39.3533088,-76.5401301
PAST SALE,August-12-2021,Townhouse,5917 Lillyan Ave,Baltimore,MD,21206,106000,3,3.0,Ward 27,1024,4356,1954,115,104,,Sold,,,https://www.redfin.com/MD/Baltimore/5917-Lillyan-Ave-21206/home/11133916,BRIGHT MLS,MDBA2002570,N,Y,39.3477873,-76.5448831
PAST SALE,April-24-2021,Single Family Residential,5913 Marluth Ave,Baltimore,MD,21206,260000,3,2.5,Ward 26,1568,8721,1900,225,166,,Sold,,,https://www.redfin.com/MD/Baltimore/5913-Marluth-Ave-21206/home/11097920,BRIGHT MLS,MDBA540746,N,Y,39.3447738,-76.5369238
PAST SALE,March-30-2021,Townhouse,5951 Benton Heights Ave,Baltimore,MD,21206,93500,3,1.5,Ward 27,1152,1980,1948,250,81,,Sold,,,https://www.redfin.com/MD/Baltimore/5951-Benton-Heights-Ave-21206/home/11134950,BRIGHT MLS,MDBA538638,N,Y,39.347557,-76.5424957
PAST SALE,November-19-2021,Townhouse,5959 Benton Heights Ave,Baltimore,MD,21206,214000,4,2.0,Ward 27,1432,1728,1948,16,149,,Sold,,,https://www.redfin.com/MD/Baltimore/5959-Benton-Heights-Ave-21206/home/11134960,BRIGHT MLS,MDBA547478,N,Y,39.347763,-76.542366
PAST SALE,,Single Family Residential,5507 Belle Vista Ave,Baltimore,MD,21206,165000,,1.0,,780,5445,1981,,212,,,,,https://www.redfin.com/MD/Baltimore/5507-Belle-Vista-Ave-21206/home/11127654,,,N,Y,39.3433708,-76.5496473
PAST SALE,,Single Family Residential,6006 Plumer Ave,Baltimore,MD,21206,330000,,1.0,,1521,8028,1952,,217,,,,,https://www.redfin.com/MD/Baltimore/6006-Plumer-Ave-21206/home/11097378,,,N,Y,39.3474913,-76.5322721
PAST SALE,,Single Family Residential,4114 Montana Ave,Baltimore,MD,21206,310000,,1.0,,1304,13856,1924,,238,,,,,https://www.redfin.com/MD/Baltimore/4114-Montana-Ave-21206/home/11127319,,,N,Y,39.3407353,-76.5489812
PAST SALE,August-11-2021,Single Family Residential,4023 Frankford Ave,Baltimore,MD,21206,140000,4,2.0,Ward 27,1938,22507,1923,116,72,,Sold,,,https://www.redfin.com/MD/Baltimore/4023-Frankford-Ave-21206/home/11127755,BRIGHT MLS,MDBA543158,N,Y,39.3394074,-76.5525937
PAST SALE,June-28-2019,Single Family Residential,3804 Biddison Ln,Baltimore,MD,21206,190000,4,2.0,Baltimore,1962,5606,1937,891,97,,Sold,,,https://www.redfin.com/MD/Baltimore/3804-Biddison-Ln-21206/home/11128090,BRIGHT MLS,1008343526,N,Y,39.340473,-76.5562513
PAST SALE,,Townhouse,4016 Belwood Ave,Baltimore,MD,21206,94000,,1.0,,1048,1620,1924,,90,,,,,https://www.redfin.com/MD/Baltimore/4016-Belwood-Ave-21206/home/11129054,,,N,Y,39.3375683,-76.5548176
