SALE TYPE,SOLD DATE,PROPERTY TYPE,ADDRESS,CITY,STATE OR PROVINCE,ZIP OR POSTAL CODE,PRICE,BEDS,BATHS,LOCATION,SQUARE FEET,LOT SIZE,YEAR BUILT,DAYS ON MARKET,$/SQUARE FEET,HOA/MONTH,STATUS,NEXT OPEN HOUSE START TIME,NEXT OPEN HOUSE END TIME,URL (SEE https://www.redfin.com/buy-a-home/comparative-market-analysis FOR INFO ON PRICING),SOURCE,MLS#,FAVORITE,INTERESTED,LATITUDE,LONGITUDE
PAST SALE,November-1-2019,Condo/Co-op,7420 Westlake Ter #1206,Bethesda,MD,20817,219500,1,1.0,WESTLAKE PARK BLDG B COD,871,,1976,765,252,697,Sold,,,https://www.redfin.com/MD/Bethesda/7420-Westlake-Ter-20817/unit-1206/home/10906237,BRIGHT MLS,MDMC675790,N,Y,39.0259865,-77.1507183
PAST SALE,August-10-2020,Condo/Co-op,7501 Democracy Blvd Unit B-431,Bethesda,MD,20817,355000,3,2.0,LAKESIDE TERRACE,1488,,1960,482,239,766,Sold,,,https://www.redfin.com/MD/Bethesda/7501-Democracy-Blvd-20817/unit-B431/home/143313874,BRIGHT MLS,MDMC713026,N,Y,39.0238734,-77.1540437
PAST SALE,November-16-2020,Single Family Residential,9811 Marquette Dr,Bethesda,MD,20817,785000,5,3.0,ASHBURTON,2870,9324,1958,384,274,,Sold,,,https://www.redfin.com/MD/Bethesda/9811-Marquette-Dr-20817/home/10670395,BRIGHT MLS,MDMC727710,N,Y,39.0173624,-77.1228311
PAST SALE,,Single Family Residential,6728 Newbold Dr,Bethesda,MD,20817,1180000,,4.0,,3578,19164,1965,,330,,,,,https://www.redfin.com/MD/Bethesda/6728-Newbold-Dr-20817/home/10676200,,,N,Y,39.0118433,-77.1384008
PAST SALE,April-2-2021,Single Family Residential,7901 Charleston Ct,Bethesda,MD,20817,1099777,4,2.5,ASHLEIGH,2920,20103,1964,247,377,,Sold,,,https://www.redfin.com/MD/Bethesda/7901-Charleston-Ct-20817/home/10888287,BRIGHT MLS,MDMC744760,N,Y,39.0172197,-77.1610311
PAST SALE,April-15-2021,Single Family Residential,6804 Winterberry Ln,Bethesda,MD,20817,961000,4,3.0,BURNING TREE VALLEY,2295,22693,1960,234,419,,Sold,,,https://www.redfin.com/MD/Bethesda/6804-Winterberry-Ln-20817/home/10673806,BRIGHT MLS,MDMC745762,N,Y,38.9913973,-77.14009
PAST SALE,March-24-2021,Single Family Residential,6210 Perthshire Ct,Bethesda,MD,20817,1061500,4,2.5,COURTS OF WYNGATE,2632,6614,1971,256,403,125,Sold,,,https://www.redfin.com/MD/Bethesda/6210-Perthshire-Ct-20817/home/10659582,BRIGHT MLS,MDMC742852,N,Y,39.0039348,-77.1274607
PAST SALE,August-23-2021,Single Family Residential,7812 Green Twig Rd,Bethesda,MD,20817,1215000,5,3.0,CHARRED OAK ESTATES,3600,20000,1963,104,338,,Sold,,,https://www.redfin.com/MD/Bethesda/7812-Green-Twig-Rd-20817/home/10890082,BRIGHT MLS,MDMC2007082,N,Y,39.0011539,-77.1614355
PAST SALE,April-30-2019,Single Family Residential,8614 Rayburn Rd,Bethesda,MD,20817,800000,4,3.0,BRADMOOR,2428,7367,1962,950,329,,Sold,,,https://www.redfin.com/MD/Bethesda/8614-Rayburn-Rd-20817/home/10662093,BRIGHT MLS,MDMC621516,N,Y,38.9975351,-77.121123
PAST SALE,March-11-2021,Single Family Residential,7920 Charleston Ct,Bethesda,MD,20817,1270000,5,4.5,ASHLEIGH,4932,20326,1974,269,258,,Sold,,,https://www.redfin.com/MD/Bethesda/7920-Charleston-Ct-20817/home/10888316,BRIGHT MLS,MDMC741776,N,Y,39.0180312,-77.1621994
PAST SALE,September-22-2021,Single Family Residential,5514 Mckinley St,Bethesda,MD,20817,880000,3,2.0,HUNTINGTON TERRACE,1370,8893,1940,74,642,,Sold,,,https://www.redfin.com/MD/Bethesda/5514-McKinley-St-20817/home/10649643,BRIGHT MLS,MDMC2001690,N,Y,38.9960005,-77.1131035
PAST SALE,September-29-2020,Single Family Residential,9508 Lindale Dr,Bethesda,MD,20817,875000,3,3.0,WYNGATE,2753,6950,1950,432,318,,Sold,,,https://www.redfin.com/MD/Bethesda/9508-Lindale-Dr-20817/home/10659215,BRIGHT MLS,MDMC722466,N,Y,39.0118819,-77.1204038
PAST SALE,July-2-2021,Condo/Co-op,7401 Westlake Ter #901,Bethesda,MD,20817,350000,2,2.0,CHELSEA TOWERS CODM,1304,,1979,156,268,686,Sold,,,https://www.redfin.com/MD/Bethesda/7401-Westlake-Ter-20817/unit-901/home/10913937,BRIGHT MLS,MDMC763050,N,Y,39.0270208,-77.1515497
PAST SALE,January-11-2021,Single Family Residential,6704 Tusculum Rd,Bethesda,MD,20817,789500,5,3.0,BETHESDA OUT RES. (1),3024,10126,1961,328,261,,Sold,,,https://www.redfin.com/MD/Bethesda/6704-Tusculum-Rd-20817/home/10636945,BRIGHT MLS,MDMC736396,N,Y,39.0148621,-77.1352362
PAST SALE,April-18-2019,Single Family Residential,6309 Haviland Dr,Bethesda,MD,20817,834900,4,3.0,WOODBURN,2760,7166,1960,962,303,,Sold,,,https://www.redfin.com/MD/Bethesda/6309-Haviland-Dr-20817/home/10675218,BRIGHT MLS,MDMC619132,N,Y,38.9731952,-77.1237525
PAST SALE,June-15-2021,Single Family Residential,7500 Sebago Rd,Bethesda,MD,20817,925000,3,2.5,COHASSET,2014,9420,1960,173,459,,Sold,,,https://www.redfin.com/MD/Bethesda/7500-Sebago-Rd-20817/home/10673924,BRIGHT MLS,MDMC756638,N,Y,38.9862509,-77.1385171
PAST SALE,November-10-2021,Single Family Residential,5817 Plainview Rd,Bethesda,MD,20817,1175000,5,3.5,KENWOOD PARK,3925,10000,1960,25,299,,Sold,,,https://www.redfin.com/MD/Bethesda/5817-Plainview-Rd-20817/home/10668706,BRIGHT MLS,MDMC2009176,N,Y,38.9837401,-77.1182013
PAST SALE,October-25-2019,Single Family Residential,7115 Crail Dr,Bethesda,MD,20817,1189000,4,4.0,BANNOCKBURN,2824,39932,1959,772,421,,Sold,,,https://www.redfin.com/MD/Bethesda/7115-Crail-Dr-20817/home/10667142,BRIGHT MLS,MDMC679106,N,Y,38.9811899,-77.1423821
PAST SALE,November-6-2020,Single Family Residential,7518 Elmore Ln,Bethesda,MD,20817,987500,4,3.5,OAKWOOD KNOLLS,2926,12645,1981,394,337,,Sold,,,https://www.redfin.com/MD/Bethesda/7518-Elmore-Ln-20817/home/10689132,BRIGHT MLS,MDMC725690,N,Y,38.9850972,-77.1324946
PAST SALE,May-21-2021,Single Family Residential,9926 Julliard Dr,Bethesda,MD,20817,925000,4,2.5,ASHBURTON,2870,7841,1959,198,322,,Sold,,,https://www.redfin.com/MD/Bethesda/9926-Julliard-Dr-20817/home/10670400,BRIGHT MLS,MDMC751716,N,Y,39.019286,-77.1239098
PAST SALE,April-16-2020,Single Family Residential,9915 Marquette Dr,Bethesda,MD,20817,820500,5,3.0,ASHBURTON,3050,9428,1959,598,269,,Sold,,,https://www.redfin.com/MD/Bethesda/9915-Marquette-Dr-20817/home/10670341,BRIGHT MLS,MDMC699210,N,Y,39.0189155,-77.1241795
PAST SALE,October-22-2021,Condo/Co-op,7401 Westlake Ter #514,Bethesda,MD,20817,220000,1,1.0,CHELSEA TOWERS CODM,882,,1979,44,249,464,Sold,,,https://www.redfin.com/MD/Bethesda/7401-Westlake-Ter-20817/unit-514/home/10914547,BRIGHT MLS,MDMC2016020,N,Y,39.0270208,-77.1515497
PAST SALE,February-21-2020,Condo/Co-op,7420 Westlake Ter Unit GO3,Bethesda,MD,20817,359000,3,2.0,WESTLAKE PARK BLDG B COD,1618,,1976,653,222,938,Sold,,,https://www.redfin.com/MD/Bethesda/7420-Westlake-Ter-20817/unit-GO3/home/10905748,BRIGHT MLS,MDMC691372,N,Y,39.0259865,-77.1507183
PAST SALE,,Single Family Residential,9807 Belhaven Rd,Bethesda,MD,20817,865000,,3.5,,2583,7804,1961,,335,,,,,https://www.redfin.com/MD/Bethesda/9807-Belhaven-Rd-20817/home/10671215,,,N,Y,39.015965,-77.122876
PAST SALE,October-15-2021,Condo/Co-op,7401 Westlake #1203,Bethesda,MD,20817,218000,1,1.0,CHELSEA TOWERS CODM,859,,1979,51,254,450,Sold,,,https://www.redfin.com/MD/Bethesda/7401-Westlake-Ter-20817/unit-1203/home/10914021,BRIGHT MLS,MDMC2019270,N,Y,39.0270208,-77.1515497
MLS Listing,,Single Family Residential,6402 Winston Dr,Bethesda,MD,20817,950000,2,2.5,COUNTRY CLUB VILLAGE,1443,19645,1937,2,658,,Active,,,https://www.redfin.com/MD/Bethesda/6402-Winston-Dr-20817/home/10676384,BRIGHT MLS,MDMC2025086,N,Y,38.9737856,-77.1299327
MLS Listing,,Condo/Co-op,7401 Westlake Ter #810,Bethesda,MD,20817,199000,1,1.0,CHELSEA TOWERS CODM,857,,1979,2,232,451,Active,,,https://www.redfin.com/MD/Bethesda/7401-Westlake-Ter-20817/unit-810/home/10914351,BRIGHT MLS,MDMC2023738,N,Y,39.0270208,-77.1515497
MLS Listing,,Single Family Residential,7607 Winterberry Pl,Bethesda,MD,20817,1599000,6,4.5,COHASSET,4508,10820,1994,2,355,,Active,December-5-2021 01:00 PM,December-5-2021 03:00 PM,https://www.redfin.com/MD/Bethesda/7607-Winterberry-Pl-20817/home/10701033,BRIGHT MLS,MDMC2025024,N,Y,38.9862362,-77.1412585
MLS Listing,,Condo/Co-op,7420 Lakeview Dr Unit W103,Bethesda,MD,20817,419900,4,2.5,WEST SPRING,1340,,1962,3,313,903,Active,December-5-2021 11:00 AM,December-5-2021 02:00 PM,https://www.redfin.com/MD/Bethesda/7420-Lakeview-Dr-20817/unit-W103/home/10909909,BRIGHT MLS,MDMC2024446,N,Y,39.0258662,-77.1496398
MLS Listing,,Single Family Residential,8600 Pelham Rd,Bethesda,MD,20817,864995,3,2.0,BRADMOOR,2494,9147,1954,4,347,,Active,,,https://www.redfin.com/MD/Bethesda/8600-Pelham-Rd-20817/home/10662190,BRIGHT MLS,MDMC2020018,N,Y,38.9965035,-77.1222917
MLS Listing,,Condo/Co-op,7420 Westlake Ter #1011,Bethesda,MD,20817,259900,2,2.0,WESTLAKE PARK BLDG B COD,1077,,1976,5,241,882,Active,December-5-2021 01:00 PM,December-5-2021 04:00 PM,https://www.redfin.com/MD/Bethesda/7420-Westlake-Ter-20817/unit-1011/home/10906160,BRIGHT MLS,MDMC2024076,N,Y,39.0259865,-77.1507183
MLS Listing,,Condo/Co-op,7425 Democracy Blvd Unit 7425-9,Bethesda,MD,20817,320000,2,2.0,WEST LAKE PARK,1241,,1975,5,258,630,Active,,,https://www.redfin.com/MD/Bethesda/7425-Democracy-Blvd-20817/unit-7425-9/home/10904434,BRIGHT MLS,MDMC2024134,N,Y,39.0239033,-77.1521563
MLS Listing,,Single Family Residential,6256 Clearwood Rd,Bethesda,MD,20817,1495000,5,4.5,KENWOOD PARK,4554,15290,1968,6,328,,Active,December-5-2021 01:00 PM,December-5-2021 03:00 PM,https://www.redfin.com/MD/Bethesda/6256-Clearwood-Rd-20817/home/10668633,BRIGHT MLS,MDMC2022552,N,Y,38.9795609,-77.1268988
MLS Listing,,Single Family Residential,5806 Sonoma Rd,Bethesda,MD,20817,1835000,5,4.5,AYRLAWN,4892,5381,2021,7,375,,Active,,,https://www.redfin.com/MD/Bethesda/5806-Sonoma-Rd-20817/home/10660997,BRIGHT MLS,MDMC2023590,N,Y,39.001842,-77.116594
MLS Listing,,Townhouse,8205 River Rd #18,Bethesda,MD,20817,1719900,3,3.0,QUARRY SPRINGS,2986,2500,2023,12,576,490,Active,December-5-2021 01:00 PM,December-5-2021 04:00 PM,https://www.redfin.com/MD/Bethesda/8205-River-Rd-20817/unit-18/home/177314184,BRIGHT MLS,MDMC2024128,N,Y,38.9960131,-77.1673709
MLS Listing,,Townhouse,8195 River Rd #34,Bethesda,MD,20817,1649900,3,3.0,POTOMAC OUTSIDE,2980,1286,2022,15,554,490,Active,,,https://www.redfin.com/MD/Bethesda/8195-River-Rd-20817/unit-34/home/177284642,BRIGHT MLS,MDMC2023874,N,Y,38.995917,-77.1671994
MLS Listing,,Single Family Residential,7019 Natelli Woods Ln,Bethesda,MD,20817,4995000,6,8.0,POTOMAC OUTSIDE,9900,43560,2007,19,505,421,Active,,,https://www.redfin.com/MD/Bethesda/7019-Natelli-Woods-Ln-20817/home/10884250,BRIGHT MLS,MDMC2013046,N,Y,38.9817782,-77.1993312
MLS Listing,,Condo/Co-op,7401 Westlake Ter #1616,Bethesda,MD,20817,330000,2,2.0,CHELSEA TOWERS CODM,1123,,1979,22,294,591,Active,,,https://www.redfin.com/MD/Bethesda/7401-Westlake-Ter-20817/unit-1616/home/10914667,BRIGHT MLS,MDMC2021746,N,Y,39.0270208,-77.1515497
MLS Listing,,Single Family Residential,8628 Garfield St,Bethesda,MD,20817,1275000,6,4.5,HUNTINGTON TERRACE,4400,8397,1940,23,290,,Active,December-5-2021 01:00 PM,December-5-2021 03:00 PM,https://www.redfin.com/MD/Bethesda/8628-Garfield-St-20817/home/10649989,BRIGHT MLS,MDMC2022704,N,Y,38.9980039,-77.1156391
MLS Listing,,Condo/Co-op,7530 Spring Lake Dr Unit A-7530,Bethesda,MD,20817,205000,1,1.0,SPRINGLAKE,662,,1960,28,310,341,Active,,,https://www.redfin.com/MD/Bethesda/7530-Spring-Lake-Dr-20817/unit-A-7530/home/10903697,BRIGHT MLS,MDMC2021438,N,Y,39.0276122,-77.1538872
MLS Listing,,Single Family Residential,5810 Bradley Blvd,Bethesda,MD,20814,1995000,6,5.5,ENGLISH VILLAGE,6128,14224,2021,31,326,,Active,December-5-2021 01:00 PM,December-5-2021 03:00 PM,https://www.redfin.com/MD/Bethesda/5810-Bradley-Blvd-20814/home/10646179,BRIGHT MLS,MDMC2022038,N,Y,38.9891242,-77.1165877
MLS Listing,,Condo/Co-op,7553 Spring Lake Dr Unit B1,Bethesda,MD,20817,246000,2,1.0,SPRINGLAKE,922,,1960,31,267,505,Active,,,https://www.redfin.com/MD/Bethesda/7553-Spring-Lake-Dr-20817/unit-B-1/home/143369484,BRIGHT MLS,MDMC2021342,N,Y,39.0279186,-77.151762
MLS Listing,,Condo/Co-op,7552 Spring Lake Dr Unit A,Bethesda,MD,20817,295000,2,2.0,SPRINGLAKE,1232,,1960,32,239,578,Active,,,https://www.redfin.com/MD/Bethesda/7552-Spring-Lake-Dr-20817/unit-A/home/167054797,BRIGHT MLS,MDMC2021806,N,Y,39.0281648,-77.1534766
MLS Listing,,Condo/Co-op,7420 Westlake Ter #209,Bethesda,MD,20817,360000,3,2.0,WESTLAKE PARK BLDG B COD,1490,,1976,34,242,1154,Active,,,https://www.redfin.com/MD/Bethesda/7420-Westlake-Ter-20817/unit-209/home/10905828,BRIGHT MLS,MDMC2021414,N,Y,39.0259865,-77.1507183
MLS Listing,,Condo/Co-op,7401 Westlake Ter #701,Bethesda,MD,20817,379900,3,2.0,CHELSEA TOWERS CODM,1304,,1979,36,291,686,Active,,,https://www.redfin.com/MD/Bethesda/7401-Westlake-Ter-20817/unit-701/home/10913934,BRIGHT MLS,MDMC2020536,N,Y,39.0270208,-77.1515497
MLS Listing,,Condo/Co-op,7420 Westlake Ter #1609,Bethesda,MD,20817,449000,3,2.0,WESTLAKE PARK BLDG B COD,1490,,1976,37,301,1195,Active,,,https://www.redfin.com/MD/Bethesda/7420-Westlake-Ter-20817/unit-1609/home/10906417,BRIGHT MLS,MDMC2019538,N,Y,39.0259865,-77.1507183
MLS Listing,,Single Family Residential,9801 Inglemere Dr,Bethesda,MD,20817,2200000,6,5.0,FERNWOOD,6610,10148,2021,38,333,,Active,,,https://www.redfin.com/MD/Bethesda/9801-Inglemere-Dr-20817/home/10672094,BRIGHT MLS,MDMC2001311,N,Y,39.0174083,-77.1334711
MLS Listing,,Single Family Residential,9514 Old Georgetown Rd,Bethesda,MD,20814,850000,4,3.0,WYNGATE,2585,6697,1954,38,329,,Active,,,https://www.redfin.com/MD/Bethesda/9514-Old-Georgetown-Rd-20814/home/10660372,BRIGHT MLS,MDMC2000007,N,Y,39.0120958,-77.1169427
MLS Listing,,Vacant Land,8513 Meadowlark Ln,Bethesda,MD,20817,4888000,,,BRADLEY HILLS GROVE,,98881,,47,,,Active,,,https://www.redfin.com/MD/Bethesda/8513-Meadowlark-Ln-20817/home/10661923,BRIGHT MLS,MDMC2020004,N,Y,38.9951072,-77.1375957
MLS Listing,,Condo/Co-op,7505 Democracy Blvd Unit A-428,Bethesda,MD,20817,295000,2,2.0,LAKESIDE TERRACE,1220,,1960,47,242,784,Active,,,https://www.redfin.com/MD/Bethesda/7505-Democracy-Blvd-20817/unit-A428/home/21673635,BRIGHT MLS,MDMC2019916,N,Y,39.0247349,-77.1545829
MLS Listing,,Condo/Co-op,7541 Spring Lake Dr Unit B-2,Bethesda,MD,20817,242000,2,1.0,SPRINGLAKE,922,,1960,51,262,505,Active,,,https://www.redfin.com/MD/Bethesda/7541-Spring-Lake-Dr-20817/unit-B2/home/10903821,BRIGHT MLS,MDMC2001315,N,Y,39.0281908,-77.1546387
MLS Listing,,Single Family Residential,6230 Valley Rd,Bethesda,MD,20817,1795000,6,5.0,HILLMEAD,4100,7036,2021,52,438,,Active,,,https://www.redfin.com/MD/Bethesda/6230-Valley-Rd-20817/home/10663936,BRIGHT MLS,MDMC2000989,N,Y,38.9976524,-77.127191
MLS Listing,,Single Family Residential,6001 Henning St,Bethesda,MD,20817,2125000,5,4.5,AYRLAWN,5227,10452,2022,52,407,,Active,,,https://www.redfin.com/MD/Bethesda/6001-Henning-St-20817/home/10661048,BRIGHT MLS,MDMC2001307,N,Y,39.0044535,-77.1209882
MLS Listing,,Single Family Residential,8912 Charred Oak Dr,Bethesda,MD,20817,2349000,6,5.5,CHARRED OAK ESTATES,6868,21683,2013,59,342,,Active,,,https://www.redfin.com/MD/Bethesda/8912-Charred-Oak-Dr-20817/home/10890092,BRIGHT MLS,MDMC2000281,N,Y,39.0028774,-77.1614355
MLS Listing,,Single Family Residential,9410 Fernwood Rd,Bethesda,MD,20817,1439000,5,3.5,BETHESDA OUT RES. (1),4600,30947,1938,60,313,,Active,,,https://www.redfin.com/MD/Bethesda/9410-Fernwood-Rd-20817/home/10701049,BRIGHT MLS,MDMC2018880,N,Y,39.0107869,-77.1337306
MLS Listing,,Single Family Residential,7200 Orkney Pkwy,Bethesda,MD,20817,2995000,6,8.0,BANNOCKBURN HEIGHTS,10402,27309,2011,64,288,,Active,,,https://www.redfin.com/MD/Bethesda/7200-Orkney-Pkwy-20817/home/10679169,BRIGHT MLS,MDMC2019136,N,Y,38.9819185,-77.1379553
MLS Listing,,Condo/Co-op,7504 Spring Lake Dr,Bethesda,MD,20817,259918,2,2.0,SPRINGLAKE,1329,,1975,65,196,549,Active,,,https://www.redfin.com/MD/Bethesda/7504-Spring-Lake-Dr-20817/unit-7504/home/10903347,BRIGHT MLS,MDMC2018920,N,Y,39.0272173,-77.1527509
MLS Listing,,Single Family Residential,5 Eagle Ridge Ct,Bethesda,MD,20817,3395000,8,10.0,AVENEL,12900,52876,1994,66,263,440,Active,,,https://www.redfin.com/MD/Bethesda/5-Eagle-Ridge-Ct-20817/home/10918020,BRIGHT MLS,MDMC2018552,N,Y,38.9839151,-77.1954681
MLS Listing,,Single Family Residential,6612 Michaels Dr,Bethesda,MD,20817,2599999,7,6.5,BETHESDA OUT RES. (1),7413,20350,2007,67,351,,Active,,,https://www.redfin.com/MD/Bethesda/6612-Michaels-Dr-20817/home/10637208,BRIGHT MLS,MDMC2017704,N,Y,39.0100762,-77.1359778
MLS Listing,,Single Family Residential,9005 Fernwood Rd,Bethesda,MD,20817,3895000,7,8.5,BRADLEY HILLS GROVE,9896,43468,2003,73,394,,Active,,,https://www.redfin.com/MD/Bethesda/9005-Fernwood-Rd-20817/home/11166664,BRIGHT MLS,MDMC2017654,N,Y,39.0023913,-77.1346295
MLS Listing,,Condo/Co-op,10300 Westlake Dr #210,Bethesda,MD,20817,315000,2,1.0,WEST SPRING,873,,1962,80,361,611,Active,,,https://www.redfin.com/MD/Bethesda/10300-Westlake-Dr-20817/unit-210/home/10909549,BRIGHT MLS,MDMC2016210,N,Y,39.0252952,-77.1495499
MLS Listing,,Single Family Residential,6005 Landon Ln,Bethesda,MD,20817,2785000,6,6.0,PINEVIEW,,11064,2021,82,,,Active,,,https://www.redfin.com/MD/Bethesda/6005-Landon-Ln-20817/home/10672901,BRIGHT MLS,MDMC2016228,N,Y,38.9870635,-77.1213927
MLS Listing,,Condo/Co-op,7420 Westlake Ter #1008,Bethesda,MD,20817,325000,2,2.0,WESTLAKE PARK BLDG B COD,1246,,1976,84,261,1036,Active,,,https://www.redfin.com/MD/Bethesda/7420-Westlake-Ter-20817/unit-1008/home/10906149,BRIGHT MLS,MDMC2014960,N,Y,39.0259865,-77.1507183
MLS Listing,,Vacant Land,7112 Natelli Woods Ln,Bethesda,MD,20817,1299000,,,AVENEL,,87556,,99,,,Active,,,https://www.redfin.com/MD/Bethesda/7112-Natelli-Woods-Ln-20817/home/17526459,BRIGHT MLS,MDMC2013270,N,Y,38.985144,-77.203435
MLS Listing,,Condo/Co-op,7501 Democracy Blvd Unit B-124,Bethesda,MD,20817,349900,3,2.0,LAKESIDE TERRACE,1464,,1960,102,239,868,Active,,,https://www.redfin.com/MD/Bethesda/7501-Democracy-Blvd-20817/unit-B-124/home/176219104,BRIGHT MLS,MDMC2011946,N,Y,39.0238734,-77.1540437
MLS Listing,,Single Family Residential,9508 Beck Ct,Bethesda,MD,20817,1779000,5,4.5,WYNGATE,4579,7580,2022,104,389,,Active,,,https://www.redfin.com/MD/Bethesda/9508-Beck-Ct-20817/home/10660186,BRIGHT MLS,MDMC2009934,N,Y,39.0124192,-77.123775
MLS Listing,,Single Family Residential,5306 Bradley Blvd,Bethesda,MD,20814,1995000,5,5.5,BRADLEY HILLS,6240,20319,1931,115,320,,Active,,,https://www.redfin.com/MD/Bethesda/5306-Bradley-Blvd-20814/home/10639009,BRIGHT MLS,MDMC2010496,N,Y,38.976957,-77.107859
MLS Listing,,Condo/Co-op,7401 Westlake Ter #113,Bethesda,MD,20817,284000,2,2.0,CHELSEA TOWERS CODM,1104,,1979,149,257,581,Active,,,https://www.redfin.com/MD/Bethesda/7401-Westlake-Ter-20817/unit-113/home/10914495,BRIGHT MLS,MDMC2003438,N,Y,39.0270208,-77.1515497
MLS Listing,,Single Family Residential,6732 Selkirk Dr,Bethesda,MD,20817,3200000,4,4.5,BANNOCKBURN HEIGHTS,3354,267023,1977,149,954,,Active,,,https://www.redfin.com/MD/Bethesda/6732-Selkirk-Dr-20817/home/10637347,BRIGHT MLS,MDMC2004826,N,Y,38.9791862,-77.1376926
MLS Listing,,Single Family Residential,9601 Macarthur Blvd,Bethesda,MD,20817,1899900,7,10.0,POTOMAC OUTSIDE,11888,128502,2010,163,160,,Active,,,https://www.redfin.com/MD/Bethesda/9601-Macarthur-Blvd-20817/home/10884795,BRIGHT MLS,MDMC2002452,N,Y,38.9786297,-77.1979568
MLS Listing,,Vacant Land,7711 Cindy Ln,Bethesda,MD,20817,495000,,,POTOMAC OUTSIDE,,17525,,171,,,Active,,,https://www.redfin.com/MD/Bethesda/7711-Cindy-Ln-20817/home/146168004,BRIGHT MLS,MDMC2001092,N,Y,38.9993357,-77.1586976
MLS Listing,,Single Family Residential,9646 Eagle Ridge Dr,Bethesda,MD,20817,2050000,6,5.5,AVENEL,7404,36379,1990,176,277,443,Active,December-5-2021 01:00 PM,December-5-2021 03:00 PM,https://www.redfin.com/MD/Bethesda/9646-Eagle-Ridge-Dr-20817/home/10918118,BRIGHT MLS,MDMC761268,N,Y,38.9832387,-77.2003868
MLS Listing,,Single Family Residential,6500 Bradley Blvd,Bethesda,MD,20817,6550000,4,6.0,LYBROOK,6858,157251,1951,205,955,,Active,,,https://www.redfin.com/MD/Bethesda/6500-Bradley-Blvd-20817/home/10676896,BRIGHT MLS,MDMC758572,N,Y,38.9982323,-77.1318429
MLS Listing,,Condo/Co-op,7420 Westlake Ter #503,Bethesda,MD,20817,407000,2,2.0,WESTLAKE PARK BLDG B COD,1618,,1976,214,252,1150,Active,,,https://www.redfin.com/MD/Bethesda/7420-Westlake-Ter-20817/unit-503/home/10905923,BRIGHT MLS,MDMC753602,N,Y,39.0259865,-77.1507183
MLS Listing,,Single Family Residential,8888 Bradley Blvd,Bethesda,MD,20817,2000000,5,6.0,POTOMAC OUTSIDE,10100,87120,1985,425,198,,Active,,,https://www.redfin.com/MD/Bethesda/8888-Bradley-Blvd-20817/home/10913679,BRIGHT MLS,MDMC728922,N,Y,39.0025143,-77.1797672
MLS Listing,,Condo/Co-op,8111 River Rd #153,Bethesda,MD,20817,2397000,3,3.5,QUARRY SPRINGS,3689,,2015,506,650,3401,Active,,,https://www.redfin.com/MD/Bethesda/8111-River-Rd-20817/unit-153/home/110058329,BRIGHT MLS,MDMC716236,N,Y,38.9950654,-77.1647286
MLS Listing,,Vacant Land,7009 Natelli Woods Ln,Bethesda,MD,20817,1325000,,,AVENEL,,106286,,951,,,Active,,,https://www.redfin.com/MD/Bethesda/7009-Natelli-Woods-Ln-20817/home/10918091,BRIGHT MLS,MDMC655396,N,Y,38.979704,-77.199945
New Construction Home,,Single Family Residential,8614 Melwood Dr,Bethesda,MD,20817,1850000,5,4.5,Classic Homes of Maryland - Custom Home Builder (Bethesda),,,2021,73,,,Active,,,https://www.redfin.com/MD/Bethesda/8614-Melwood-Rd-20817/home/10663853,NewHomeSource.com,2083835,N,Y,38.9977429,-77.1283596
New Construction Home,,Single Family Residential,6402 Tisdale Ter,Bethesda,MD,20817,1699000,4,4.0,Classic Homes of Maryland - Custom Home Builder (Bethesda),,,2021,113,,,Active,,,https://www.redfin.com/MD/Bethesda/6402-Tisdale-Ter-20817/home/10663485,NewHomeSource.com,2066613,N,Y,39.0207855,-77.1294383
New Construction Home,,Single Family Residential,5917 Ryland Dr,Bethesda,MD,20817,1895000,5,4.5,Classic Homes of Maryland - Custom Home Builder (Bethesda),,,2021,128,,,Active,,,https://www.redfin.com/MD/Bethesda/5917-Ryland-Dr-20817/home/10659319,NewHomeSource.com,2060768,N,Y,39.013024,-77.1205836
New Construction Plan,,Single Family Residential,The Darcy,Bethesda,MD,20817,1599900,4,3.5,Classic Homes of Maryland - Custom Home Builder (Bethesda),3575,,,,448,,Active,,,https://www.redfin.com/MD/Westlake/Classic-Homes-of-Maryland-Custom-Home-Builder-Bethesda/The-Darcy/home/172064789,NewHomeSource.com,Plan-171811302,N,Y,38.9894702,-77.1370115
New Construction Plan,,Single Family Residential,The Willow,Bethesda,MD,20817,1589900,4,3.5,Classic Homes of Maryland - Custom Home Builder (Bethesda),3575,,,,445,,Active,,,https://www.redfin.com/MD/Westlake/Classic-Homes-of-Maryland-Custom-Home-Builder-Bethesda/The-Willow/home/170483988,NewHomeSource.com,Plan-171768738,N,Y,38.9894702,-77.1370115
PAST SALE,July-10-2020,Single Family Residential,8618 Ridge Rd,Bethesda,MD,20817,1580000,6,4.5,HILLMEAD,5258,6736,1954,513,300,,Sold,,,https://www.redfin.com/MD/Bethesda/8618-Ridge-Rd-20817/home/10664278,BRIGHT MLS,MDMC704704,N,Y,38.9976665,-77.1244492
PAST SALE,July-30-2021,Single Family Residential,9906 Belhaven Rd,Bethesda,MD,20817,865000,4,2.5,ASHBURTON,2366,7784,1958,128,366,,Sold,,,https://www.redfin.com/MD/Bethesda/9906-Belhaven-Rd-20817/home/10671104,BRIGHT MLS,MDMC2001146,N,Y,39.0184639,-77.1219321
PAST SALE,April-30-2021,Townhouse,8127 River Rd #5,Bethesda,MD,20817,1700000,3,3.0,QUARRY SPRINGS,3371,1306,2021,219,504,490,Sold,,,https://www.redfin.com/MD/Bethesda/8127-River-Rd-20817/unit-5/home/174279375,BRIGHT MLS,MDMC742128,N,Y,38.995264,-77.1660337
PAST SALE,January-3-2020,Single Family Residential,7700 Persimmon Tree Ln,Bethesda,MD,20817,1100000,4,3.5,POTOMAC OUTSIDE,2710,87120,1957,702,406,,Sold,,,https://www.redfin.com/MD/Bethesda/7700-Persimmon-Tree-Ln-20817/home/10907439,BRIGHT MLS,MDMC686634,N,Y,38.9861973,-77.1741736
PAST SALE,December-17-2019,Single Family Residential,9101 Burdette Rd,Bethesda,MD,20817,1525000,7,7.0,BRADLEY HILLS GROVE,10394,55353,2001,719,147,,Sold,,,https://www.redfin.com/MD/Bethesda/9101-Burdette-Rd-20817/home/10661748,BRIGHT MLS,MDMC663944,N,Y,39.0057488,-77.1395732
PAST SALE,September-30-2019,Condo/Co-op,7401 Westlake Ter #1115,Bethesda,MD,20817,318000,2,2.0,CHELSEA TOWERS CODM,1105,,1979,797,288,557,Sold,,,https://www.redfin.com/MD/Bethesda/7401-Westlake-Ter-20817/unit-1115/home/10914611,BRIGHT MLS,MDMC672924,N,Y,39.0270208,-77.1515497
PAST SALE,August-19-2021,Single Family Residential,6600 Marywood Rd,Bethesda,MD,20817,1900000,7,5.5,BETHESDA OUT RES. (1),4836,20125,2005,108,393,,Sold,,,https://www.redfin.com/MD/Bethesda/6600-Marywood-Rd-20817/home/10636533,BRIGHT MLS,MDMC2007384,N,Y,39.0090064,-77.1348317
PAST SALE,June-27-2019,Single Family Residential,6005 Johnson Ave,Bethesda,MD,20817,1055000,4,3.0,AYRLAWN,2675,9900,1948,892,394,,Sold,,,https://www.redfin.com/MD/Bethesda/6005-Johnson-Ave-20817/home/10661327,BRIGHT MLS,MDMC657328,N,Y,39.0051051,-77.1217973
PAST SALE,June-4-2019,Single Family Residential,8309 Woodhaven Blvd,Bethesda,MD,20817,1045000,4,3.0,WOODHAVEN,3091,7920,1941,915,338,,Sold,,,https://www.redfin.com/MD/Bethesda/8309-Woodhaven-Blvd-20817/home/10670058,BRIGHT MLS,MDMC620312,N,Y,38.993044,-77.1311463
PAST SALE,June-15-2020,Single Family Residential,7717 Radnor Rd,Bethesda,MD,20817,1900000,5,5.5,ENGLISH VILLAGE,6320,13427,2019,538,301,,Sold,,,https://www.redfin.com/MD/Bethesda/7717-Radnor-Rd-20817/home/169282503,BRIGHT MLS,MDMC690602,N,Y,38.987428,-77.1177795
PAST SALE,October-17-2019,Single Family Residential,7604 Sebago Rd,Bethesda,MD,20817,885000,4,3.0,COHASSET,2788,11319,1960,780,317,,Sold,,,https://www.redfin.com/MD/Bethesda/7604-Sebago-Rd-20817/home/10674025,BRIGHT MLS,MDMC657392,N,Y,38.9873284,-77.1395507
PAST SALE,,Single Family Residential,7608 Arrowood Rd,Bethesda,MD,20817,1250000,,5.5,,5296,20000,1964,,236,,,,,https://www.redfin.com/MD/Bethesda/7608-Arrowood-Rd-20817/home/10679355,,,N,Y,38.9986438,-77.1547402
PAST SALE,May-27-2021,Single Family Residential,5928 Beech Ave,Bethesda,MD,20817,799900,3,2.0,ALTA VISTA TERRACE,1624,7590,1951,192,493,,Sold,,,https://www.redfin.com/MD/Bethesda/5928-Beech-Ave-20817/home/10677734,BRIGHT MLS,MDMC754442,N,Y,39.0065025,-77.1213927
PAST SALE,,Condo/Co-op,7501 Democracy Blvd Unit B,Bethesda,MD,20817,289000,,,,1220,,1960,,237,,,,,https://www.redfin.com/MD/Bethesda/7501-Democracy-Blvd-20817/unit-B/home/10902682,,,N,Y,39.0238734,-77.1540437
PAST SALE,August-25-2021,Single Family Residential,8017 Carita Ct,Bethesda,MD,20817,1275000,5,4.5,CHARRED OAK ESTATES,3781,15169,1964,102,337,,Sold,,,https://www.redfin.com/MD/Bethesda/8017-Carita-Ct-20817/home/10890073,BRIGHT MLS,MDMC2005838,N,Y,39.0013491,-77.1653447
PAST SALE,July-25-2019,Single Family Residential,9802 Inglemere Dr,Bethesda,MD,20817,780000,5,3.0,FERNWOOD,2900,15000,1962,864,269,,Sold,,,https://www.redfin.com/MD/Bethesda/9802-Inglemere-Dr-20817/home/10672217,BRIGHT MLS,MDMC662848,N,Y,39.0169679,-77.1338205
PAST SALE,October-23-2020,Single Family Residential,5703 Maiden Ln,Bethesda,MD,20817,906000,4,3.0,ENGLISH VILLAGE,1964,14625,1936,408,461,,Sold,,,https://www.redfin.com/MD/Bethesda/5703-Maiden-Ln-20817/home/10646444,BRIGHT MLS,MDMC725424,N,Y,38.9863802,-77.1163583
PAST SALE,,Single Family Residential,6521 Winnepeg Rd,Bethesda,MD,20817,840000,,2.5,,2520,9520,1962,,333,,,,,https://www.redfin.com/MD/Bethesda/6521-Winnepeg-Rd-20817/home/10672025,,,N,Y,39.0213129,-77.1341576
PAST SALE,April-16-2019,Single Family Residential,8205 Hamilton Spring Ct,Bethesda,MD,20817,780000,5,3.0,CARDEROCK SPRINGS,3806,20924,1964,964,205,,Sold,,,https://www.redfin.com/MD/Bethesda/8205-Hamilton-Spring-Ct-20817/home/10888695,BRIGHT MLS,MDMC559682,N,Y,38.9906157,-77.1690291
PAST SALE,April-30-2020,Condo/Co-op,10300 Westlake Dr Unit S-302,Bethesda,MD,20817,259000,3,2.0,WEST SPRING,1208,,1962,584,214,799,Sold,,,https://www.redfin.com/MD/Bethesda/10300-Westlake-Dr-20817/unit-S-302/home/163836179,BRIGHT MLS,MDMC654920,N,Y,39.0252952,-77.1495499
PAST SALE,March-20-2019,Condo/Co-op,7420 Lakeview Dr Unit W203,Bethesda,MD,20817,232000,2,1.5,WEST SPRING,1030,,1962,991,225,741,Sold,,,https://www.redfin.com/MD/Bethesda/7420-Lakeview-Dr-20817/unit-W203/home/10909816,BRIGHT MLS,MDMC620188,N,Y,39.0258662,-77.1496398
PAST SALE,August-31-2020,Single Family Residential,6412 Marjory Ln,Bethesda,MD,20817,1713747,5,4.5,MERRIMACK PARK,4840,7350,2020,461,354,,Sold,,,https://www.redfin.com/MD/Bethesda/6412-Marjory-Ln-20817/home/10669242,BRIGHT MLS,MDMC693590,N,Y,38.9744974,-77.130562
PAST SALE,May-9-2019,Single Family Residential,9406 Brooke Dr,Bethesda,MD,20817,1615000,6,5.0,LONGWOOD,5519,26925,1968,941,293,,Sold,,,https://www.redfin.com/MD/Bethesda/9406-Brooke-Dr-20817/home/10638258,BRIGHT MLS,MDMC620100,N,Y,39.0100256,-77.1468311
PAST SALE,August-9-2021,Single Family Residential,7620 Edenwood Ct,Bethesda,MD,20817,1030000,4,3.0,CARDEROCK SPRINGS,1950,11083,1969,118,528,,Sold,,,https://www.redfin.com/MD/Bethesda/7620-Edenwood-Ct-20817/home/10888983,BRIGHT MLS,MDMC2002406,N,Y,38.9862766,-77.1635474
PAST SALE,September-4-2019,Single Family Residential,5611 Hoover St,Bethesda,MD,20817,1782000,5,4.5,HUNTINGTON TERRACE,5540,10165,2019,823,322,,Sold,,,https://www.redfin.com/MD/Bethesda/5611-Hoover-St-20817/home/10649851,BRIGHT MLS,MDMC624416,N,Y,38.9969216,-77.1152795
PAST SALE,August-26-2021,Townhouse,7435 Crestberry Ln,Bethesda,MD,20817,828000,4,3.5,WILDWOOD HILLS,3547,3539,1985,101,233,163,Sold,,,https://www.redfin.com/MD/Bethesda/7435-Crestberry-Ln-20817/home/10913672,BRIGHT MLS,MDMC2002258,N,Y,39.0225987,-77.1528529
PAST SALE,April-15-2020,Single Family Residential,9113 Lindale Dr,Bethesda,MD,20817,880000,4,3.5,ALTA VISTA TERRACE,2624,6108,1951,599,335,,Sold,,,https://www.redfin.com/MD/Bethesda/9113-Lindale-Dr-20817/home/10678094,BRIGHT MLS,MDMC702096,N,Y,39.0063322,-77.1213028
PAST SALE,December-31-2019,Single Family Residential,9511 Kentstone Dr,Bethesda,MD,20817,1400000,5,4.5,WYNGATE,3824,6633,2012,705,366,,Sold,,,https://www.redfin.com/MD/Bethesda/9511-Kentstone-Dr-20817/home/10659408,BRIGHT MLS,MDMC661908,N,Y,39.0116208,-77.1187857
PAST SALE,April-4-2019,Single Family Residential,6003 Kingsford Rd,Bethesda,MD,20817,675000,4,2.5,ASHBURTON,1906,6773,1957,976,354,,Sold,,,https://www.redfin.com/MD/Bethesda/6003-Kingsford-Rd-20817/home/10671421,BRIGHT MLS,MDMC619194,N,Y,39.0143114,-77.1209882
PAST SALE,April-13-2021,Single Family Residential,8907 Burdette Rd,Bethesda,MD,20817,2600000,6,5.5,BRADLEY HILLS GROVE,6694,31363,1996,236,388,,Sold,,,https://www.redfin.com/MD/Bethesda/8907-Burdette-Rd-20817/home/10661543,BRIGHT MLS,MDMC744918,N,Y,39.0025831,-77.1420899
PAST SALE,,Single Family Residential,9203 Wilmett Ct,Bethesda,MD,20817,650000,,3.0,,2291,12312,1961,,284,,,,,https://www.redfin.com/MD/Bethesda/9203-Wilmett-Ct-20817/home/10674491,,,N,Y,39.009,-77.131259
PAST SALE,August-23-2021,Single Family Residential,6800 Whittier Blvd,Bethesda,MD,20817,1365000,6,4.5,KENWOOD PARK,6962,11342,1972,104,196,,Sold,,,https://www.redfin.com/MD/Bethesda/6800-Whittier-Blvd-20817/home/10668428,BRIGHT MLS,MDMC2001904,N,Y,38.9779767,-77.1249212
PAST SALE,,Condo/Co-op,7553 Spring Lake Dr Unit 7553-B,Bethesda,MD,20817,225000,,,,922,,1960,,244,,,,,https://www.redfin.com/MD/Bethesda/7553-Spring-Lake-Dr-20817/unit-7553-B/home/10903999,,,N,Y,39.0279883,-77.1542588
PAST SALE,February-14-2019,Single Family Residential,5507 Oakmont Ave,Bethesda,MD,20817,1265000,5,4.5,ALTA VISTA,3307,6414,2000,1025,383,,Sold,,,https://www.redfin.com/MD/Bethesda/5507-Oakmont-Ave-20817/home/11166556,BRIGHT MLS,MDMC489094,N,Y,39.0047651,-77.1115935
PAST SALE,March-26-2019,Single Family Residential,7104 Oak Forest Ln,Bethesda,MD,20817,1245000,3,3.5,KAFAUVER TRACT,3459,38935,1957,985,360,,Sold,,,https://www.redfin.com/MD/Bethesda/7104-Oak-Forest-Ln-20817/home/10676526,BRIGHT MLS,MDMC620226,N,Y,39.0045676,-77.1462245
PAST SALE,,Vacant Land,8225 River Rd,Bethesda,MD,20817,998000,,,,,1226,,,,,,,,https://www.redfin.com/MD/Bethesda/8225-River-Rd-20817/home/167703010,,,N,Y,38.9955908,-77.1659232
PAST SALE,June-12-2019,Condo/Co-op,7401 Westlake Ter #1511,Bethesda,MD,20817,319000,2,2.0,CHELSEA TOWERS CODM,1175,,1983,907,271,560,Sold,,,https://www.redfin.com/MD/Bethesda/7401-Westlake-Ter-20817/unit-1511/home/10914421,BRIGHT MLS,1000453554,N,Y,39.0270208,-77.1515497
PAST SALE,March-19-2019,Single Family Residential,7602 Shadywood Rd,Bethesda,MD,20817,995000,4,3.5,BURNING TREE ESTATES,3896,18034,1966,992,255,,Sold,,,https://www.redfin.com/MD/Bethesda/7602-Shadywood-Rd-20817/home/10887801,BRIGHT MLS,MDMC574780,N,Y,39.0075917,-77.1555491
PAST SALE,January-4-2019,Single Family Residential,7306 Broxburn Ct,Bethesda,MD,20817,2500000,6,5.5,FLINT HILL COMMUNITY,7432,21155,2007,1066,336,,Sold,,,https://www.redfin.com/MD/Bethesda/7306-Broxburn-Ct-20817/home/10637436,BRIGHT MLS,1009953888,N,Y,38.9837024,-77.1466234
PAST SALE,November-24-2020,Single Family Residential,9401 Ewing Dr,Bethesda,MD,20817,980000,4,3.5,HENDRY ESTATES,2652,7883,1953,376,370,,Sold,,,https://www.redfin.com/MD/Bethesda/9401-Ewing-Dr-20817/home/10679446,BRIGHT MLS,MDMC730104,N,Y,39.009083,-77.1233255
PAST SALE,July-29-2021,Condo/Co-op,7548 Spring Lake Dr Unit A,Bethesda,MD,20817,195000,1,1.0,SPRINGLAKE,665,,1960,129,293,358,Sold,,,https://www.redfin.com/MD/Bethesda/7548-Spring-Lake-Dr-20817/unit-A/home/167042855,BRIGHT MLS,MDMC763484,N,Y,39.0282404,-77.153781
PAST SALE,April-22-2019,Single Family Residential,5623 Madison St,Bethesda,MD,20817,1450000,5,4.5,HUNTINGTON TERRACE,5474,7884,2004,958,265,,Sold,,,https://www.redfin.com/MD/Bethesda/5623-Madison-St-20817/home/10650117,BRIGHT MLS,MDMC622094,N,Y,38.9987775,-77.1144929
PAST SALE,December-3-2021,Townhouse,7212 Greentree Rd,Bethesda,MD,20817,727750,4,3.5,STRATTON COMMONS,2152,2002,1979,2,338,92,Sold,,,https://www.redfin.com/MD/Bethesda/7212-Greentree-Rd-20817/home/10687348,BRIGHT MLS,MDMC2001017,N,Y,39.0162056,-77.1466401
PAST SALE,,Condo/Co-op,7557 Spring Lake Dr Unit 7557-C,Bethesda,MD,20817,242500,,,,922,,1960,,263,,,,,https://www.redfin.com/MD/Bethesda/7557-Spring-Lake-Dr-20817/unit-7557-C/home/10904058,,,N,Y,39.0282171,-77.1535378
PAST SALE,August-31-2021,Single Family Residential,7908 Burdette Rd,Bethesda,MD,20817,1610000,5,5.5,AL MARAH,5796,15296,1979,96,278,,Sold,,,https://www.redfin.com/MD/Bethesda/7908-Burdette-Rd-20817/home/10687715,BRIGHT MLS,MDMC2002368,N,Y,38.9893565,-77.1535943
PAST SALE,October-3-2019,Single Family Residential,5823 Phoenix Dr,Bethesda,MD,20817,1449900,5,4.5,ALTA VISTA TERRACE,5450,9146,2015,794,266,,Sold,,,https://www.redfin.com/MD/Bethesda/5823-Phoenix-Dr-20817/home/10678106,BRIGHT MLS,MDMC662146,N,Y,39.0071721,-77.1173473
PAST SALE,May-22-2020,Single Family Residential,8603 Rayburn Rd,Bethesda,MD,20817,1700000,6,6.0,BRADMOOR,6363,9453,2007,562,267,,Sold,,,https://www.redfin.com/MD/Bethesda/8603-Rayburn-Rd-20817/home/10662052,BRIGHT MLS,MDMC697680,N,Y,38.9968057,-77.119797
PAST SALE,December-1-2020,Single Family Residential,9409 Brooke Dr,Bethesda,MD,20817,1400000,5,3.5,LONGWOOD,3589,23765,1965,369,390,,Sold,,,https://www.redfin.com/MD/Bethesda/9409-Brooke-Dr-20817/home/10637583,BRIGHT MLS,MDMC727734,N,Y,39.0098,-77.1455279
PAST SALE,May-26-2020,Single Family Residential,7905 Hamilton Spring Rd,Bethesda,MD,20817,1075000,4,3.0,CARDEROCK SPRINGS,3537,16333,1965,558,304,,Sold,,,https://www.redfin.com/MD/Bethesda/7905-Hamilton-Spring-Rd-20817/home/10889224,BRIGHT MLS,MDMC697748,N,Y,38.9864266,-77.1663332
PAST SALE,November-12-2021,Condo/Co-op,7420 Westlake Ter #610,Bethesda,MD,20817,325000,3,2.0,WESTLAKE PARK BLDG B COD,1618,,1976,23,201,1229,Sold,,,https://www.redfin.com/MD/Bethesda/7420-Westlake-Ter-20817/unit-610/home/10905996,BRIGHT MLS,MDMC2009214,N,Y,39.0259865,-77.1507183
PAST SALE,August-8-2019,Single Family Residential,6004 Maiden Ln,Bethesda,MD,20817,1750000,6,5.5,PINEVIEW,5803,10085,2007,850,302,,Sold,,,https://www.redfin.com/MD/Bethesda/6004-Maiden-Ln-20817/home/10672897,BRIGHT MLS,MDMC560146,N,Y,38.9847606,-77.1203364
PAST SALE,July-2-2021,Single Family Residential,5807 Phoenix Dr,Bethesda,MD,20817,1925000,5,4.5,ALTA VISTA TERRACE,5270,7100,2017,156,365,,Sold,,,https://www.redfin.com/MD/Bethesda/5807-Phoenix-Dr-20817/home/10677898,BRIGHT MLS,MDMC759074,N,Y,39.0078982,-77.116673
PAST SALE,August-27-2021,Single Family Residential,9625 Singleton Dr,Bethesda,MD,20817,825000,3,4.0,ASHBURTON,2108,8582,1958,100,391,,Sold,,,https://www.redfin.com/MD/Bethesda/9625-Singleton-Dr-20817/home/10671142,BRIGHT MLS,MDMC2005494,N,Y,39.0147968,-77.1199544
PAST SALE,,Single Family Residential,5909 Melvern Dr,Bethesda,MD,20817,1435000,,5.5,,5946,6900,2008,,241,,,,,https://www.redfin.com/MD/Bethesda/5909-Melvern-Dr-20817/home/10659075,,,N,Y,39.0104517,-77.1199768
PAST SALE,October-14-2021,Single Family Residential,8604 Carlynn Dr,Bethesda,MD,20817,1210000,4,3.5,CONG COUNTRY CLUB EST,3740,14396,1978,52,324,13,Sold,,,https://www.redfin.com/MD/Bethesda/8604-Carlynn-Dr-20817/home/10686514,BRIGHT MLS,MDMC2013064,N,Y,38.976391,-77.1759483
PAST SALE,,Single Family Residential,7342 Heatherhill Ct,Bethesda,MD,20817,1220000,,5.5,,4743,16805,1985,,257,,,,,https://www.redfin.com/MD/Bethesda/7342-Heatherhill-Ct-20817/home/10696553,,,N,Y,38.9818695,-77.1554817
PAST SALE,,Single Family Residential,7502 Oldchester Rd,Bethesda,MD,20817,2260000,,4.5,,5636,22230,1999,,401,,,,,https://www.redfin.com/MD/Bethesda/7502-Oldchester-Rd-20817/home/10646290,,,N,Y,38.9840405,-77.1173023
PAST SALE,August-2-2019,Single Family Residential,7121 Braeburn Pl,Bethesda,MD,20817,1157000,3,3.0,BANNOCKBURN COOP,3612,8451,2008,856,320,,Sold,,,https://www.redfin.com/MD/Bethesda/7121-Braeburn-Pl-20817/home/10678555,BRIGHT MLS,MDMC661626,N,Y,38.9735019,-77.1449886
PAST SALE,July-14-2021,Single Family Residential,9110 Ewing Dr,Bethesda,MD,20817,780000,2,2.5,ALTA VISTA TERRACE,1716,9820,1951,144,455,,Sold,,,https://www.redfin.com/MD/Bethesda/9110-Ewing-Dr-20817/home/10677870,BRIGHT MLS,MDMC760002,N,Y,39.0055916,-77.1236402
PAST SALE,February-13-2020,Single Family Residential,9717 Singleton Dr,Bethesda,MD,20817,755000,4,3.0,ASHBURTON,2425,8542,1957,661,311,,Sold,,,https://www.redfin.com/MD/Bethesda/9717-Singleton-Dr-20817/home/10670542,BRIGHT MLS,MDMC690010,N,Y,39.0147678,-77.1225614
PAST SALE,July-26-2021,Single Family Residential,5820 Phoenix Dr,Bethesda,MD,20817,1650000,4,4.5,ALTA VISTA TERRACE,4216,7575,2005,132,391,,Sold,,,https://www.redfin.com/MD/Bethesda/5820-Phoenix-Dr-20817/home/10677983,BRIGHT MLS,MDMC2008228,N,Y,39.0071769,-77.116673
PAST SALE,May-7-2021,Townhouse,10205 Arizona Cir,Bethesda,MD,20817,650000,4,3.5,BETHESDA COURT,2100,,1977,212,310,313,Sold,,,https://www.redfin.com/MD/Bethesda/10205-Arizona-Cir-20817/home/143733689,BRIGHT MLS,MDMC747492,N,Y,39.0242858,-77.1495533
PAST SALE,March-15-2019,Single Family Residential,7304 Millwood Rd,Bethesda,MD,20817,995000,5,3.0,KENWOOD PARK,2766,11152,1959,996,360,,Sold,,,https://www.redfin.com/MD/Bethesda/7304-Millwood-Rd-20817/home/10668728,BRIGHT MLS,MDMC521970,N,Y,38.9827993,-77.1219771
PAST SALE,,Single Family Residential,5720 Wilson Ln,Bethesda,MD,20817,1900000,,4.5,,6350,13427,2019,,299,,,,,https://www.redfin.com/MD/Bethesda/5720-Wilson-Ln-20817/home/10646442,,,N,Y,38.9876059,-77.1178192
PAST SALE,June-30-2021,Single Family Residential,7905 Deepwell Dr,Bethesda,MD,20817,1625000,4,5.0,POTOMAC OUTSIDE,6700,36769,1951,158,243,,Sold,,,https://www.redfin.com/MD/Bethesda/7905-Deepwell-Dr-20817/home/10884914,BRIGHT MLS,MDMC750250,N,Y,39.0091196,-77.1645809
PAST SALE,October-29-2020,Single Family Residential,6127 Swansea St,Bethesda,MD,20817,830000,4,2.0,HILLMEAD,1698,6470,1955,402,489,,Sold,,,https://www.redfin.com/MD/Bethesda/6127-Swansea-St-20817/home/10664067,BRIGHT MLS,MDMC731596,N,Y,38.9985392,-77.1272359
PAST SALE,August-9-2019,Single Family Residential,8618 Beech Tree Rd,Bethesda,MD,20817,2831000,5,6.0,BURNING TREE VALLEY,2120,22474,2019,849,1335,,Sold,,,https://www.redfin.com/MD/Bethesda/8618-Beech-Tree-Rd-20817/home/10673781,BRIGHT MLS,1003797412,N,Y,38.9974024,-77.1402024
PAST SALE,August-30-2019,Single Family Residential,6520 Wilmett Rd,Bethesda,MD,20817,775000,4,2.5,GREEN TREE MANOR,2500,9552,1965,828,310,,Sold,,,https://www.redfin.com/MD/Bethesda/6520-Wilmett-Rd-20817/home/10674503,BRIGHT MLS,MDMC671844,N,Y,39.0070669,-77.1314609
PAST SALE,,Single Family Residential,6005 Bradley Blvd,Bethesda,MD,20817,1350000,,2.5,,2983,11378,1966,,453,,,,,https://www.redfin.com/MD/Bethesda/6005-Bradley-Blvd-20817/home/10662829,,,N,Y,38.9936774,-77.1213927
PAST SALE,September-9-2019,Single Family Residential,5905 Anniston Rd,Bethesda,MD,20817,635000,1,1.0,ALTA VISTA TERRACE,1894,7150,1947,818,335,,Sold,,,https://www.redfin.com/MD/Bethesda/5905-Anniston-Rd-20817/home/10677875,BRIGHT MLS,MDMC678066,N,Y,39.0083996,-77.1179316
PAST SALE,January-28-2019,Condo/Co-op,7557 Spring Lake Dr Unit C-2,Bethesda,MD,20817,229000,2,1.0,SPRINGLAKE,922,,1974,1042,248,473,Sold,,,https://www.redfin.com/MD/Bethesda/7557-Spring-Lake-Dr-20817/unit-C-2/home/147980465,BRIGHT MLS,MDMC100658,N,Y,39.0279159,-77.1515838
PAST SALE,April-19-2021,Single Family Residential,6707 Radnor Rd,Bethesda,MD,20817,3675000,6,8.0,BRADLEY HILLS,7126,15571,2019,230,516,,Sold,,,https://www.redfin.com/MD/Bethesda/6707-Radnor-Rd-20817/home/166453581,BRIGHT MLS,MDMC702896,N,Y,38.976178,-77.112168
PAST SALE,November-16-2020,Townhouse,7537 Bradley Blvd,Bethesda,MD,20817,700000,4,3.5,POTOMAC OUTSIDE,2655,2855,1980,384,264,200,Sold,,,https://www.redfin.com/MD/Bethesda/7537-Bradley-Blvd-20817/home/10910612,BRIGHT MLS,MDMC727636,N,Y,39.0105773,-77.1535719
PAST SALE,February-8-2019,Single Family Residential,7609 Carteret Rd,Bethesda,MD,20817,751000,4,3.0,BURNING TREE ESTATES,3200,15458,1965,1031,235,,Sold,,,https://www.redfin.com/MD/Bethesda/7609-Carteret-Rd-20817/home/10887509,BRIGHT MLS,1002295124,N,Y,39.0060387,-77.1552794
PAST SALE,July-1-2021,Single Family Residential,9915 Montauk Ave,Bethesda,MD,20817,831000,3,3.0,GEORGETOWN VILLAGE,1940,5500,1951,157,428,,Sold,,,https://www.redfin.com/MD/Bethesda/9915-Montauk-Ave-20817/home/10663489,BRIGHT MLS,MDMC754340,N,Y,39.0191025,-77.1287192
PAST SALE,April-29-2019,Single Family Residential,7514 Nevis Rd,Bethesda,MD,20817,885000,3,3.0,BANNOCKBURN,1795,20001,1958,951,493,,Sold,,,https://www.redfin.com/MD/Bethesda/7514-Nevis-Rd-20817/home/10667144,BRIGHT MLS,MDMC620002,N,Y,38.9857279,-77.1440673
PAST SALE,March-31-2021,Single Family Residential,8513 Carlynn Dr,Bethesda,MD,20817,1100000,6,4.0,CONG COUNTRY CLUB EST,4230,46356,1978,249,260,13,Sold,,,https://www.redfin.com/MD/Bethesda/8513-Carlynn-Dr-20817/home/10686487,BRIGHT MLS,MDMC746234,N,Y,38.9782906,-77.1760831
PAST SALE,October-9-2019,Single Family Residential,9516 Eagle Ridge Dr,Bethesda,MD,20817,1450000,4,4.5,AVENEL,5920,25398,1994,788,245,423,Sold,,,https://www.redfin.com/MD/Bethesda/9516-Eagle-Ridge-Dr-20817/home/10918068,BRIGHT MLS,MDMC666886,N,Y,38.9830604,-77.1958948
PAST SALE,June-12-2020,Single Family Residential,5521 Southwick St,Bethesda,MD,20817,1250000,5,4.5,HUNTINGTON TERRACE,4754,6625,2004,541,263,,Sold,,,https://www.redfin.com/MD/Bethesda/5521-Southwick-St-20817/home/10649958,BRIGHT MLS,MDMC701744,N,Y,38.9995802,-77.1114586
PAST SALE,June-19-2020,Single Family Residential,8412 Whitman Dr,Bethesda,MD,20817,910000,0,,BRADLEY PARK,2883,18783,1959,534,316,,Sold,,,https://www.redfin.com/MD/Bethesda/8412-Whitman-Dr-20817/home/10675862,BRIGHT MLS,MDMC706542,N,Y,38.9952886,-77.1307867
PAST SALE,November-18-2020,Condo/Co-op,7505 Democracy Blvd Unit A-133,Bethesda,MD,20817,345000,3,2.0,LAKESIDE TERRACE,1464,,1960,382,236,766,Sold,,,https://www.redfin.com/MD/Bethesda/7505-Democracy-Blvd-20817/unit-A133/home/81827156,BRIGHT MLS,MDMC728822,N,Y,39.0247349,-77.1545829
PAST SALE,October-29-2021,Single Family Residential,7002 Deep Creek Ct,Bethesda,MD,20817,1805000,5,4.5,BURNING TREE VALLEY,5372,12073,1996,37,336,,Sold,,,https://www.redfin.com/MD/Bethesda/7002-Deep-Creek-Ct-20817/home/10699034,BRIGHT MLS,MDMC2017000,N,Y,38.9896242,-77.1457526
PAST SALE,September-4-2019,Single Family Residential,9110 Bulls Run Pkwy,Bethesda,MD,20817,790000,4,3.5,WYNGATE,2000,8555,1957,823,395,,Sold,,,https://www.redfin.com/MD/Bethesda/9110-Bulls-Run-Pkwy-20817/home/10660624,BRIGHT MLS,MDMC670700,N,Y,39.0069102,-77.1268314
PAST SALE,July-25-2019,Townhouse,7572 Westlake Ter #56,Bethesda,MD,20817,599000,4,3.5,WESTLAKE TERRACE,1676,,1980,864,357,360,Sold,,,https://www.redfin.com/MD/Bethesda/7572-Westlake-Ter-20817/unit-56/home/10910483,BRIGHT MLS,MDMC661244,N,Y,39.025633,-77.151637
PAST SALE,,Other,9409 Seddon Rd,Bethesda,MD,20817,750000,,,,,28461,,,,,,,,https://www.redfin.com/MD/Bethesda/9409-Seddon-Rd-20817/home/10885252,,,N,Y,39.0101717,-77.1560434
PAST SALE,March-22-2019,Single Family Residential,9200 Friars Rd,Bethesda,MD,20817,875000,4,2.5,GREEN TREE MANOR,3072,8698,1970,989,285,,Sold,,,https://www.redfin.com/MD/Bethesda/9200-Friars-Rd-20817/home/10674446,BRIGHT MLS,MDMC561182,N,Y,39.0082094,-77.1327193
PAST SALE,May-7-2019,Single Family Residential,7600 Beech Tree Rd,Bethesda,MD,20817,600000,4,3.0,BURNING TREE VALLEY,2644,11878,1958,943,227,,Sold,,,https://www.redfin.com/MD/Bethesda/7600-Beech-Tree-Rd-20817/home/10673907,BRIGHT MLS,MDMC103088,N,Y,38.9867075,-77.1433258
PAST SALE,October-10-2019,Condo/Co-op,8300 Burdette Rd #467,Bethesda,MD,20817,865000,2,2.0,FOX HILL RESIDENTIAL COD,1493,,2008,787,579,5874,Sold,,,https://www.redfin.com/MD/Bethesda/8300-Burdette-Rd-20817/unit-467/home/23465042,BRIGHT MLS,MDMC682994,N,Y,38.9917254,-77.1537249
PAST SALE,,Single Family Residential,9106 Friars Rd,Bethesda,MD,20817,715000,,2.5,,1989,8714,1964,,359,,,,,https://www.redfin.com/MD/Bethesda/9106-Friars-Rd-20817/home/10674594,,,N,Y,39.0056544,-77.1320901
PAST SALE,December-20-2019,Townhouse,7209 Swansong Way,Bethesda,MD,20817,660000,3,3.0,WILDWOOD HILLS,1795,2480,1985,716,368,124,Sold,,,https://www.redfin.com/MD/Bethesda/7209-Swansong-Way-20817/home/10913851,BRIGHT MLS,MDMC676396,N,Y,39.0216151,-77.1477187
PAST SALE,April-30-2021,Condo/Co-op,7513 Spring Lake Dr Unit D-1,Bethesda,MD,20817,270000,2,2.0,SPRINGLAKE,966,,1960,219,280,520,Sold,,,https://www.redfin.com/MD/Bethesda/7513-Spring-Lake-Dr-20817/unit-D-1/home/167063162,BRIGHT MLS,MDMC748772,N,Y,39.0276211,-77.1526479
PAST SALE,,Single Family Residential,7730 Bells Mill Rd,Bethesda,MD,20817,840000,4,2.0,,2030,28155,1972,,414,,,,,https://www.redfin.com/MD/Bethesda/7730-Bells-Mill-Rd-20817/home/10884829,,,N,Y,39.0218419,-77.1583101
PAST SALE,May-29-2019,Single Family Residential,5912 Melvern Dr,Bethesda,MD,20817,785000,4,2.0,HENDRY ESTATES,1413,6485,1950,921,556,,Sold,,,https://www.redfin.com/MD/Bethesda/5912-Melvern-Dr-20817/home/10679451,BRIGHT MLS,MDMC624726,N,Y,39.0099184,-77.1204038
PAST SALE,November-30-2020,Single Family Residential,9106 Ewing Dr,Bethesda,MD,20817,1550000,5,4.5,ALTA VISTA TERRACE,4661,7200,2020,370,333,,Sold,,,https://www.redfin.com/MD/Bethesda/9106-Ewing-Dr-20817/home/10677667,BRIGHT MLS,MDMC725298,N,Y,39.0052535,-77.1236626
PAST SALE,August-1-2019,Single Family Residential,7205 Arrowood Rd,Bethesda,MD,20817,5970000,7,9.5,BETHESDA OUT RES. (1),12567,44431,2018,857,475,,Sold,,,https://www.redfin.com/MD/Bethesda/7205-Arrowood-Rd-20817/home/10636128,BRIGHT MLS,1001900050,N,Y,39.0035983,-77.1466963
PAST SALE,September-18-2020,Single Family Residential,9112 Town Gate Ln,Bethesda,MD,20817,1119000,4,3.5,AVENEL,3915,5703,1987,443,286,372,Sold,,,https://www.redfin.com/MD/Bethesda/9112-Town-Gate-Ln-20817/home/10918516,BRIGHT MLS,MDMC696234,N,Y,38.9876032,-77.1891557
PAST SALE,December-7-2020,Single Family Residential,9206 Town Gate Ln,Bethesda,MD,20817,1175000,5,3.5,AVENEL,3940,5294,1989,363,298,377,Sold,,,https://www.redfin.com/MD/Bethesda/9206-Town-Gate-Ln-20817/home/10918612,BRIGHT MLS,MDMC729824,N,Y,38.986443,-77.1907962
PAST SALE,July-16-2020,Single Family Residential,6604 Persimmon Tree Rd,Bethesda,MD,20817,949000,5,3.0,CONG COUNTRY CLUB EST,3838,12000,1979,507,247,13,Sold,,,https://www.redfin.com/MD/Bethesda/6604-Persimmon-Tree-Rd-20817/home/10636530,BRIGHT MLS,MDMC706612,N,Y,38.9761718,-77.1696582
PAST SALE,September-17-2019,Single Family Residential,9120 Burdette Rd,Bethesda,MD,20817,1300000,4,2.5,LONGWOOD,3728,42389,1938,810,349,,Sold,,,https://www.redfin.com/MD/Bethesda/9120-Burdette-Rd-20817/home/10636723,BRIGHT MLS,MDMC487516,N,Y,39.0071869,-77.1395292
PAST SALE,June-28-2019,Single Family Residential,6116 Maiden Ln,Bethesda,MD,20817,1015000,5,3.5,LANDON WOODS,2860,9938,1960,891,355,,Sold,,,https://www.redfin.com/MD/Bethesda/6116-Maiden-Ln-20817/home/10667368,BRIGHT MLS,MDMC661008,N,Y,38.9840525,-77.1231457
PAST SALE,August-17-2020,Single Family Residential,6706 Renita Ln,Bethesda,MD,20817,750000,5,2.5,BETHESDA OUT RES. (1),2400,10915,1962,475,313,,Sold,,,https://www.redfin.com/MD/Bethesda/6706-Renita-Ln-20817/home/10636777,BRIGHT MLS,MDMC713414,N,Y,39.0142409,-77.1346969
PAST SALE,July-30-2021,Single Family Residential,9108 Charred Oak Dr,Bethesda,MD,20817,1520000,5,5.0,BURNING TREE MANOR,5300,21402,1965,128,287,,Sold,,,https://www.redfin.com/MD/Bethesda/9108-Charred-Oak-Dr-20817/home/10888428,BRIGHT MLS,MDMC763588,N,Y,39.0058407,-77.1641091
PAST SALE,October-7-2019,Single Family Residential,9912 Montauk Ave,Bethesda,MD,20817,1075000,5,5.0,GEORGETOWN VILLAGE,3836,5390,1951,790,280,,Sold,,,https://www.redfin.com/MD/Bethesda/9912-Montauk-Ave-20817/home/10663420,BRIGHT MLS,MDMC666692,N,Y,39.0192429,-77.1292585
PAST SALE,October-13-2021,Single Family Residential,5909 Tanglewood Dr,Bethesda,MD,20817,1050000,6,3.0,KENWOOD PARK,3535,11674,1956,53,297,,Sold,,,https://www.redfin.com/MD/Bethesda/5909-Tanglewood-Dr-20817/home/10668293,BRIGHT MLS,MDMC2011684,N,Y,38.9770055,-77.1199993
PAST SALE,October-13-2021,Single Family Residential,6810 Wilson Ln,Bethesda,MD,20817,950000,3,2.0,BANNOCKBURN HEIGHTS,1726,22452,1950,53,550,,Sold,,,https://www.redfin.com/MD/Bethesda/6810-Wilson-Ln-20817/home/10679275,BRIGHT MLS,MDMC2015724,N,Y,38.9827279,-77.1382025
PAST SALE,,Condo/Co-op,8300 Burdette Rd #502,Bethesda,MD,20817,705000,,,,1238,,2008,,569,,,,,https://www.redfin.com/MD/Bethesda/8300-Burdette-Rd-20817/unit-502/home/21999254,,,N,Y,38.9917254,-77.1537249
PAST SALE,,Condo/Co-op,7505 Democracy Blvd Unit A,Bethesda,MD,20817,200000,,,,528,,1960,,379,,,,,https://www.redfin.com/MD/Bethesda/7505-Democracy-Blvd-20817/unit-A/home/10902465,,,N,Y,39.0247349,-77.1545829
PAST SALE,April-30-2019,Single Family Residential,5600 Wyngate Dr,Bethesda,MD,20817,810000,4,3.0,WYNGATE,2610,7922,1957,950,310,,Sold,,,https://www.redfin.com/MD/Bethesda/5600-Wyngate-Dr-20817/home/10660402,BRIGHT MLS,MDMC655770,N,Y,39.0116098,-77.1165381
PAST SALE,,Single Family Residential,8205 Beech Tree Rd,Bethesda,MD,20817,920000,6,7.0,,6713,15414,2021,,137,,,,,https://www.redfin.com/MD/Bethesda/8205-Beech-Tree-Rd-20817/home/10673867,,,N,Y,38.991688,-77.1405395
PAST SALE,,Single Family Residential,6109 Greentree Rd,Bethesda,MD,20817,770000,,2.5,,1405,9410,1956,,548,,,,,https://www.redfin.com/MD/Bethesda/6109-Greentree-Rd-20817/home/10637731,,,N,Y,39.0016143,-77.1242694
PAST SALE,January-15-2021,Single Family Residential,6208 Bradley Blvd,Bethesda,MD,20817,910000,4,3.5,BETHESDA OUT RES. (1),2390,12700,1955,324,381,,Sold,,,https://www.redfin.com/MD/Bethesda/6208-Bradley-Blvd-20817/home/10637723,BRIGHT MLS,MDMC728892,N,Y,38.9955529,-77.126337
PAST SALE,May-14-2020,Single Family Residential,9104 Kittery Ln,Bethesda,MD,20817,999900,4,4.5,ARROWOOD,3655,23633,1962,570,274,,Sold,,,https://www.redfin.com/MD/Bethesda/9104-Kittery-Ln-20817/home/10637821,BRIGHT MLS,MDMC677482,N,Y,39.0061513,-77.1525158
PAST SALE,December-14-2018,Single Family Residential,5806 Mckinley St,Bethesda,MD,20817,835000,3,2.5,BRADMOOR,2300,9035,1942,1087,363,,Sold,,,https://www.redfin.com/MD/Bethesda/5806-McKinley-St-20817/home/10661991,BRIGHT MLS,1009917776,N,Y,38.9960713,-77.1187857
PAST SALE,,Single Family Residential,7309 River Rd,Bethesda,MD,20817,975000,,3.5,,2810,41381,1898,,347,,,,,https://www.redfin.com/MD/Bethesda/7309-River-Rd-20817/home/10637933,,,N,Y,38.9901381,-77.1505386
PAST SALE,July-3-2019,Single Family Residential,7011 Armat Dr,Bethesda,MD,20817,1295000,3,4.0,LONGWOOD,2303,38400,1954,886,562,,Sold,,,https://www.redfin.com/MD/Bethesda/7011-Armat-Dr-20817/home/10637935,BRIGHT MLS,MDMC661274,N,Y,39.0080813,-77.1426966
PAST SALE,,Single Family Residential,7101 Pyle Rd,Bethesda,MD,20817,2200000,,5.0,,6439,21628,1954,,342,,,,,https://www.redfin.com/MD/Bethesda/7101-Pyle-Rd-20817/home/10637867,,,N,Y,38.9810551,-77.1302249
PAST SALE,September-30-2019,Single Family Residential,8940 Bradmoor Dr,Bethesda,MD,20817,1375000,5,4.5,DEVONSHIRE,4180,6027,2013,797,329,,Sold,,,https://www.redfin.com/MD/Bethesda/8940-Bradmoor-Dr-20817/home/10637996,BRIGHT MLS,MDMC100459,N,Y,39.0031726,-77.1253032
PAST SALE,April-9-2019,Single Family Residential,9213 Bulls Run Pkwy,Bethesda,MD,20817,1545000,5,4.5,WYNGATE,4610,7804,2019,971,335,,Sold,,,https://www.redfin.com/MD/Bethesda/9213-Bulls-Run-Pkwy-20817/home/10659726,BRIGHT MLS,MDMC486778,N,Y,39.0082975,-77.1259774
PAST SALE,February-25-2019,Single Family Residential,5808 Johnson Ave,Bethesda,MD,20817,675000,4,2.0,AYRLAWN,2925,6609,1952,1014,231,,Sold,,,https://www.redfin.com/MD/Bethesda/5808-Johnson-Ave-20817/home/10661428,BRIGHT MLS,MDMC486794,N,Y,39.005489,-77.1173473
PAST SALE,August-8-2019,Single Family Residential,6800 Rannoch Rd,Bethesda,MD,20817,1300000,5,4.5,FAIRWAY HILLS,5000,9366,1996,850,260,29,Sold,,,https://www.redfin.com/MD/Bethesda/6800-Rannoch-Rd-20817/home/10701016,BRIGHT MLS,MDMC664710,N,Y,38.9725262,-77.1364272
PAST SALE,July-24-2020,Single Family Residential,5510 Bradley Blvd,Bethesda,MD,20814,987500,3,3.0,BRADLEY HILLS,3350,7813,1953,499,295,,Sold,,,https://www.redfin.com/MD/Bethesda/5510-Bradley-Blvd-20814/home/10639109,BRIGHT MLS,MDMC711848,N,Y,38.980626,-77.1121129
PAST SALE,May-15-2020,Single Family Residential,5521 Brite Dr,Bethesda,MD,20817,1255000,4,3.5,BRADLEY HILLS,2776,7736,1948,569,452,,Sold,,,https://www.redfin.com/MD/Bethesda/5521-Brite-Dr-20817/home/10639039,BRIGHT MLS,MDMC702830,N,Y,38.9795191,-77.1137961
PAST SALE,November-30-2020,Single Family Residential,5705 Radnor Ct,Bethesda,MD,20817,1035000,5,4.0,BRADLEY HILLS,2548,10828,1956,370,406,,Sold,,,https://www.redfin.com/MD/Bethesda/5705-Radnor-Ct-20817/home/10639323,BRIGHT MLS,MDMC726076,N,Y,38.9810077,-77.1145603
PAST SALE,,Single Family Residential,5530 Pembroke Rd,Bethesda,MD,20817,4250000,,3.5,,3588,135907,1956,,1185,,,,,https://www.redfin.com/MD/Bethesda/5530-Pembroke-Rd-20817/home/10639368,,,N,Y,38.9769274,-77.1117733
PAST SALE,September-25-2020,Single Family Residential,7300 Durbin Ter,Bethesda,MD,20817,1360000,4,2.5,BRADLEY HILLS,2900,14844,1961,436,469,,Sold,,,https://www.redfin.com/MD/Bethesda/7300-Durbin-Ter-20817/home/10639476,BRIGHT MLS,MDMC721188,N,Y,38.9813986,-77.1144704
PAST SALE,,Single Family Residential,5402 Goldsboro Rd,Bethesda,MD,20817,3175000,,6.0,,6105,45966,1939,,520,,,,,https://www.redfin.com/MD/Bethesda/5402-Goldsboro-Rd-20817/home/10639540,,,N,Y,38.9751348,-77.1095481
PAST SALE,October-7-2020,Single Family Residential,5630 Bradley Blvd,Bethesda,MD,20814,1012500,4,4.0,BRADLEY HILLS,4550,13443,1959,424,223,,Sold,,,https://www.redfin.com/MD/Bethesda/5630-Bradley-Blvd-20814/home/10639578,BRIGHT MLS,MDMC721038,N,Y,38.9828267,-77.1143355
PAST SALE,October-9-2020,Single Family Residential,8904 Hempstead Ave,Bethesda,MD,20817,1649900,6,5.5,AYRLAWN,5306,6132,2020,422,311,,Sold,,,https://www.redfin.com/MD/Bethesda/8904-Hempstead-Ave-20817/home/10661214,BRIGHT MLS,MDMC690968,N,Y,39.0017438,-77.1159313
PAST SALE,May-6-2019,Single Family Residential,7502 Elmore Ln,Bethesda,MD,20817,1790000,6,4.5,OAKWOOD KNOLLS,5655,9129,2014,944,317,,Sold,,,https://www.redfin.com/MD/Bethesda/7502-Elmore-Ln-20817/home/10669292,BRIGHT MLS,MDMC622006,N,Y,38.984794,-77.131877
PAST SALE,July-24-2019,Single Family Residential,9206 Topeka St,Bethesda,MD,20817,812500,4,2.0,WYNGATE,2600,6525,1956,865,313,,Sold,,,https://www.redfin.com/MD/Bethesda/9206-Topeka-St-20817/home/10660001,BRIGHT MLS,MDMC665284,N,Y,39.0064,-77.1290788
PAST SALE,May-7-2020,Single Family Residential,8318 Comanche Ct,Bethesda,MD,20817,1325000,5,4.5,CARDEROCK SPRINGS,5548,20250,1995,577,239,25,Sold,,,https://www.redfin.com/MD/Bethesda/8318-Comanche-Ct-20817/home/10924150,BRIGHT MLS,MDMC700456,N,Y,38.9848251,-77.1690516
PAST SALE,November-15-2019,Condo/Co-op,8111 River Rd #126,Bethesda,MD,20817,1850000,3,3.0,QUARRY SPRINGS,3405,,2016,751,543,1703,Sold,,,https://www.redfin.com/MD/Bethesda/8111-River-Rd-20817/unit-126/home/110058207,BRIGHT MLS,MDMC673036,N,Y,38.9950654,-77.1647286
PAST SALE,April-10-2019,Single Family Residential,5523 Southwick St,Bethesda,MD,20817,1300000,6,5.5,HUNTINGTON TERRACE,4912,6625,2002,970,265,,Sold,,,https://www.redfin.com/MD/Bethesda/5523-Southwick-St-20817/home/10649905,BRIGHT MLS,MDMC574344,N,Y,38.9996003,-77.1116384
PAST SALE,November-5-2021,Single Family Residential,9101 Town Gate Ln,Bethesda,MD,20817,1380000,5,4.5,AVENEL,6421,22098,1989,30,215,442,Sold,,,https://www.redfin.com/MD/Bethesda/9101-Town-Gate-Ln-20817/home/10917072,BRIGHT MLS,MDMC763004,N,Y,38.9879602,-77.187674
PAST SALE,July-15-2021,Townhouse,8021 Quarry Ridge Way,Bethesda,MD,20817,830000,3,3.5,STONEYHURST CENTER,3150,1975,1987,143,263,140,Sold,,,https://www.redfin.com/MD/Bethesda/8021-Quarry-Ridge-Way-20817/home/10916677,BRIGHT MLS,MDMC759244,N,Y,38.995621,-77.162705
PAST SALE,January-13-2020,Single Family Residential,9846 Singleton Dr,Bethesda,MD,20817,705000,4,2.5,ASHBURTON,2196,8897,1958,692,321,,Sold,,,https://www.redfin.com/MD/Bethesda/9846-Singleton-Dr-20817/home/10670678,BRIGHT MLS,MDMC687668,N,Y,39.0126562,-77.1284046
PAST SALE,October-2-2019,Single Family Residential,9004 Ewing Dr,Bethesda,MD,20817,1255000,5,4.5,AYRLAWN,5291,7194,2006,795,237,,Sold,,,https://www.redfin.com/MD/Bethesda/9004-Ewing-Dr-20817/home/10661359,BRIGHT MLS,MDMC665250,N,Y,39.003668,-77.1236402
PAST SALE,December-14-2020,Single Family Residential,6319 Tone Ct,Bethesda,MD,20817,799000,4,3.0,MERRIMACK PARK,2560,11233,1955,356,312,,Sold,,,https://www.redfin.com/MD/Bethesda/6319-Tone-Ct-20817/home/10669062,BRIGHT MLS,MDMC733126,N,Y,38.9771585,-77.1296181
PAST SALE,May-28-2021,Condo/Co-op,7420 Westlake Ter #701,Bethesda,MD,20817,215000,1,1.0,WESTLAKE PARK BLDG B COD,887,,1976,191,242,675,Sold,,,https://www.redfin.com/MD/Bethesda/7420-Westlake-Ter-20817/unit-701/home/44928959,BRIGHT MLS,MDMC746136,N,Y,39.0267691,-77.1506244
PAST SALE,July-14-2021,Single Family Residential,6101 Kirby Rd,Bethesda,MD,20817,2179000,6,5.5,LANDON WOODS,6418,8241,2015,144,340,,Sold,,,https://www.redfin.com/MD/Bethesda/6101-Kirby-Rd-20817/home/10667184,BRIGHT MLS,MDMC2001026,N,Y,38.9885175,-77.1243593
PAST SALE,,Vacant Land,8129 River Rd,Bethesda,MD,20817,1819882,,,,,1272,,,,,,,,https://www.redfin.com/MD/Bethesda/8129-River-Rd-20817/home/167703027,,,N,Y,38.9952832,-77.166068
PAST SALE,February-1-2021,Single Family Residential,5921 Beech Ave,Bethesda,MD,20817,1528000,5,4.5,ALTA VISTA TERRACE,4900,7150,2013,307,312,,Sold,,,https://www.redfin.com/MD/Bethesda/5921-Beech-Ave-20817/home/10677760,BRIGHT MLS,MDMC740068,N,Y,39.0070833,-77.1204937
PAST SALE,January-19-2021,Condo/Co-op,7420 Westlake Ter #1612,Bethesda,MD,20817,250000,1,1.0,WESTLAKE PARK BLDG B COD,816,,1976,320,306,664,Sold,,,https://www.redfin.com/MD/Bethesda/7420-Westlake-Ter-20817/unit-1612/home/143597007,BRIGHT MLS,MDMC732946,N,Y,39.0267691,-77.1506244
PAST SALE,June-28-2019,Single Family Residential,7008 Heatherhill Rd,Bethesda,MD,20817,1299000,5,4.5,BANNOCKBURN ESTATES,5602,20743,1969,891,232,,Sold,,,https://www.redfin.com/MD/Bethesda/7008-Heatherhill-Rd-20817/home/10678866,BRIGHT MLS,MDMC657744,N,Y,38.9794614,-77.1524035
PAST SALE,May-12-2021,Single Family Residential,7200 Beacon Ter,Bethesda,MD,20817,1300000,4,4.0,WILDWOOD HILLS,3946,23949,1997,207,329,,Sold,,,https://www.redfin.com/MD/Bethesda/7200-Beacon-Ter-20817/home/10886639,BRIGHT MLS,MDMC739300,N,Y,39.0195453,-77.1475726
PAST SALE,February-22-2021,Single Family Residential,8301 Woodhaven Blvd,Bethesda,MD,20817,1155000,6,4.0,WOODHAVEN,3322,8666,1951,286,348,,Sold,,,https://www.redfin.com/MD/Bethesda/8301-Woodhaven-Blvd-20817/home/10670295,BRIGHT MLS,MDMC730364,N,Y,38.992478,-77.1318204
PAST SALE,April-13-2020,Condo/Co-op,7521 Spring Lake Dr Unit D-2,Bethesda,MD,20817,210900,1,1.0,SPRINGLAKE,754,,1960,601,280,404,Sold,,,https://www.redfin.com/MD/Bethesda/7521-Spring-Lake-Dr-20817/unit-D2/home/28545426,BRIGHT MLS,MDMC697398,N,Y,39.0276438,-77.153809
PAST SALE,August-28-2020,Single Family Residential,5722 Bradley Blvd,Bethesda,MD,20814,777000,3,3.0,ENGLISH VILLAGE,1952,5338,1950,464,398,,Sold,,,https://www.redfin.com/MD/Bethesda/5722-Bradley-Blvd-20814/home/10646135,BRIGHT MLS,MDMC712864,N,Y,38.9867739,-77.115633
PAST SALE,April-10-2020,Single Family Residential,7708 Radnor Rd,Bethesda,MD,20817,979000,4,4.0,ENGLISH VILLAGE,2604,9806,1955,604,376,,Sold,,,https://www.redfin.com/MD/Bethesda/7708-Radnor-Rd-20817/home/10646248,BRIGHT MLS,MDMC692532,N,Y,38.986897,-77.1181114
PAST SALE,,Condo/Co-op,7505 Democracy Blvd Unit A,Bethesda,MD,20817,349900,,,,1464,,1960,,239,,,,,https://www.redfin.com/MD/Bethesda/7505-Democracy-Blvd-20817/unit-A/home/10902423,,,N,Y,39.0247349,-77.1545829
PAST SALE,,Condo/Co-op,7501 Democracy Blvd Unit B,Bethesda,MD,20817,355000,,,,1488,,1960,,239,,,,,https://www.redfin.com/MD/Bethesda/7501-Democracy-Blvd-20817/unit-B/home/10902947,,,N,Y,39.0238734,-77.1540437
PAST SALE,January-15-2020,Single Family Residential,7723 Oldchester Rd,Bethesda,MD,20817,1850000,6,6.5,ENGLISH VILLAGE,6877,10712,2006,690,269,,Sold,,,https://www.redfin.com/MD/Bethesda/7723-Oldchester-Rd-20817/home/10646357,BRIGHT MLS,MDMC688046,N,Y,38.9879371,-77.1193475
PAST SALE,October-15-2019,Single Family Residential,7710 Seven Locks Rd,Bethesda,MD,20817,880000,4,3.5,CARDEROCK SPRINGS,2699,10131,1984,782,326,,Sold,,,https://www.redfin.com/MD/Bethesda/7710-Seven-Locks-Rd-20817/home/10906476,BRIGHT MLS,MDMC673238,N,Y,38.9847383,-77.1605369
PAST SALE,,Other,5514 Northfield Rd,Bethesda,MD,20817,700000,,,,,6418,,,,,,,,https://www.redfin.com/MD/Bethesda/5514-Northfield-Rd-20817/home/10646616,,,N,Y,38.9933983,-77.1124475
PAST SALE,February-28-2020,Single Family Residential,5503 Northfield Rd,Bethesda,MD,20817,795000,3,1.0,GREENWICH FOREST,1550,6375,1940,646,513,,Sold,,,https://www.redfin.com/MD/Bethesda/5503-Northfield-Rd-20817/home/10646751,BRIGHT MLS,MDMC692972,N,Y,38.9939841,-77.1115935
PAST SALE,February-14-2019,Single Family Residential,7212 Heatherhill Rd,Bethesda,MD,20817,1200000,6,5.0,AL MARAH,5484,24440,1985,1025,219,,Sold,,,https://www.redfin.com/MD/Bethesda/7212-Heatherhill-Rd-20817/home/10696557,BRIGHT MLS,MDMC100742,N,Y,38.9813683,-77.1545829
PAST SALE,March-10-2021,Single Family Residential,9224 Quintana Dr,Bethesda,MD,20817,1100000,4,3.0,BURNING TREE ESTATES,3318,23803,1957,270,332,,Sold,,,https://www.redfin.com/MD/Bethesda/9224-Quintana-Dr-20817/home/10887518,BRIGHT MLS,MDMC741004,N,Y,39.0069755,-77.1554142
PAST SALE,,Condo/Co-op,7557 Spring Lake Dr Unit 7557-C,Bethesda,MD,20817,229000,,,,922,,1960,,248,,,,,https://www.redfin.com/MD/Bethesda/7557-Spring-Lake-Dr-20817/unit-7557-C/home/10904062,,,N,Y,39.0282171,-77.1535378
PAST SALE,April-23-2019,Single Family Residential,9810 Marquette Dr,Bethesda,MD,20817,836500,4,3.5,ASHBURTON,2954,9554,1959,957,283,,Sold,,,https://www.redfin.com/MD/Bethesda/9810-Marquette-Dr-20817/home/10671413,BRIGHT MLS,MDMC625056,N,Y,39.0172624,-77.1233705
PAST SALE,April-30-2021,Single Family Residential,7722 Greentree Rd,Bethesda,MD,20817,1725000,5,4.5,POTOMAC OUTSIDE,4820,25011,1977,219,358,,Sold,,,https://www.redfin.com/MD/Bethesda/7722-Greentree-Rd-20817/home/10884282,BRIGHT MLS,MDMC745938,N,Y,39.0139688,-77.1577509
PAST SALE,,Condo/Co-op,7425 Democracy Blvd Unit A-207,Bethesda,MD,20817,278000,,,,1241,,1975,,224,,,,,https://www.redfin.com/MD/Bethesda/7425-Democracy-Blvd-20817/unit-A-207/home/10904528,,,N,Y,39.0239033,-77.1521563
PAST SALE,,Condo/Co-op,7401 Westlake Ter #1006,Bethesda,MD,20817,201500,,,,841,,1979,,240,,,,,https://www.redfin.com/MD/Bethesda/7401-Westlake-Ter-20817/unit-1006/home/10914183,,,N,Y,39.0270208,-77.1515497
PAST SALE,April-29-2021,Condo/Co-op,7501 Democracy Blvd Unit B-226,Bethesda,MD,20817,210000,1,1.0,LAKESIDE TERRACE,840,,1960,220,250,528,Sold,,,https://www.redfin.com/MD/Bethesda/7501-Democracy-Blvd-20817/unit-B-226/home/174933213,BRIGHT MLS,MDMC751320,N,Y,39.0238734,-77.1540437
PAST SALE,November-19-2021,Condo/Co-op,7501 Democracy Blvd Unit B-332,Bethesda,MD,20817,160000,0,1.0,LAKESIDE TERRACE,528,,1960,16,303,311,Sold,,,https://www.redfin.com/MD/Bethesda/7501-Democracy-Blvd-20817/unit-B332/home/143394946,BRIGHT MLS,MDMC2017742,N,Y,39.0238734,-77.1540437
PAST SALE,November-23-2020,Condo/Co-op,7401 Westlake Ter #412,Bethesda,MD,20817,260000,2,2.0,CHELSEA TOWERS CODM,1120,,1979,377,232,590,Sold,,,https://www.redfin.com/MD/Bethesda/7401-Westlake-Ter-20817/unit-412/home/10914441,BRIGHT MLS,MDMC721688,N,Y,39.0270208,-77.1515497
PAST SALE,November-22-2021,Condo/Co-op,7501 Democracy Blvd Unit B-224,Bethesda,MD,20817,332500,3,2.0,LAKESIDE TERRACE,1464,,1960,13,227,842,Sold,,,https://www.redfin.com/MD/Bethesda/7501-Democracy-Blvd-20817/unit-B-224/home/143292811,BRIGHT MLS,MDMC2013610,N,Y,39.0238734,-77.1540437
PAST SALE,May-28-2021,Single Family Residential,2 Winterberry Ct,Bethesda,MD,20817,1171000,5,2.5,COHASSET,2288,9343,1961,191,512,,Sold,,,https://www.redfin.com/MD/Bethesda/2-Winterberry-Ct-20817/home/10674098,BRIGHT MLS,MDMC751922,N,Y,38.9876342,-77.140854
PAST SALE,,Single Family Residential,7704 Radnor Rd,Bethesda,MD,20817,1300000,,1.5,,1848,10890,1923,,703,,,,,https://www.redfin.com/MD/Bethesda/7704-Radnor-Rd-20817/home/10646494,,,N,Y,38.9865812,-77.1177968
PAST SALE,,Condo/Co-op,7401 Westlake Ter #602,Bethesda,MD,20817,309000,,,,1286,,1979,,240,,,,,https://www.redfin.com/MD/Bethesda/7401-Westlake-Ter-20817/unit-602/home/10913969,,,N,Y,39.0270208,-77.1515497
PAST SALE,October-21-2019,Single Family Residential,6920 Hillmead Rd,Bethesda,MD,20817,1175000,4,3.5,BRADLEY HILLS GROVE,2803,22025,1986,776,419,,Sold,,,https://www.redfin.com/MD/Bethesda/6920-Hillmead-Rd-20817/home/10661867,BRIGHT MLS,MDMC673672,N,Y,39.0013938,-77.1428442
PAST SALE,July-3-2019,Single Family Residential,8610 Garfield St,Bethesda,MD,20817,960000,3,2.5,HUNTINGTON TERRACE,2450,8397,1940,886,392,,Sold,,,https://www.redfin.com/MD/Bethesda/8610-Garfield-St-20817/home/10649540,BRIGHT MLS,MDMC660076,N,Y,38.9966414,-77.1159987
PAST SALE,November-3-2020,Single Family Residential,5601 Madison St,Bethesda,MD,20817,899000,4,2.0,HUNTINGTON TERRACE,1973,6375,1942,397,456,,Sold,,,https://www.redfin.com/MD/Bethesda/5601-Madison-St-20817/home/10649578,BRIGHT MLS,MDMC726974,N,Y,38.9989344,-77.1124925
PAST SALE,March-22-2019,Condo/Co-op,7523 Spring Lake Dr Unit C-2,Bethesda,MD,20817,250000,2,2.0,SPRINGLAKE,966,,1960,989,259,487,Sold,,,https://www.redfin.com/MD/Bethesda/7523-Spring-Lake-Dr-20817/unit-C-2/home/167065347,BRIGHT MLS,MDMC620426,N,Y,39.0279202,-77.1528722
PAST SALE,August-28-2019,Single Family Residential,7517 Pepperell Dr,Bethesda,MD,20817,925000,4,4.5,AL MARAH,4363,26784,1982,830,212,,Sold,,,https://www.redfin.com/MD/Bethesda/7517-Pepperell-Dr-20817/home/10690580,BRIGHT MLS,MDMC668708,N,Y,38.9887226,-77.1556389
PAST SALE,November-3-2021,Single Family Residential,9004 Honeybee Ln,Bethesda,MD,20817,1225000,5,5.0,CHARRED OAK ESTATES,3396,30016,1962,32,361,,Sold,,,https://www.redfin.com/MD/Bethesda/9004-Honeybee-Ln-20817/home/10889881,BRIGHT MLS,MDMC2018074,N,Y,39.00174,-77.1627386
PAST SALE,June-27-2019,Single Family Residential,8920 Burdette Rd,Bethesda,MD,20817,2500000,6,8.5,KAFAUVER TRACT,9920,37761,2017,892,252,,Sold,,,https://www.redfin.com/MD/Bethesda/8920-Burdette-Rd-20817/home/10676484,BRIGHT MLS,MDMC488056,N,Y,39.0038732,-77.1423371
PAST SALE,May-29-2019,Single Family Residential,5829 Midhill St,Bethesda,MD,20817,2154004,5,5.5,KENWOOD PARK,4107,12493,2020,921,524,,Sold,,,https://www.redfin.com/MD/Bethesda/5829-Midhill-St-20817/home/10668479,BRIGHT MLS,MDMC667068,N,Y,38.9813801,-77.1189655
PAST SALE,,Single Family Residential,8633 Fenway Dr,Bethesda,MD,20817,1357000,,4.5,,5476,34823,1998,,248,,,,,https://www.redfin.com/MD/Bethesda/8633-Fenway-Dr-20817/home/10884445,,,N,Y,38.9978612,-77.172667
PAST SALE,,Other,7700 Hemlock St,Bethesda,MD,20817,880000,,,,,9892,,,,,,,,https://www.redfin.com/MD/Bethesda/7700-Hemlock-St-20817/home/10669633,,,N,Y,38.9862541,-77.1295732
PAST SALE,March-28-2019,Single Family Residential,5800 Roosevelt St,Bethesda,MD,20817,780000,3,2.5,BRADMOOR,1595,6273,1941,983,489,,Sold,,,https://www.redfin.com/MD/Bethesda/5800-Roosevelt-St-20817/home/10662244,BRIGHT MLS,MDMC618744,N,Y,38.9941122,-77.118471
PAST SALE,September-2-2021,Single Family Residential,7440 Arrowood Rd,Bethesda,MD,20817,1100000,6,6.5,BURNING TREE ESTATES,5163,21460,1963,94,213,,Sold,,,https://www.redfin.com/MD/Bethesda/7440-Arrowood-Rd-20817/home/10679352,BRIGHT MLS,MDMC2014556,N,Y,39.0018453,-77.1536168
PAST SALE,December-5-2019,Single Family Residential,9908 Ashburton Ln,Bethesda,MD,20817,580000,5,2.5,ASHBURTON,1873,7420,1958,731,310,,Sold,,,https://www.redfin.com/MD/Bethesda/9908-Ashburton-Ln-20817/home/10670657,BRIGHT MLS,MDMC674220,N,Y,39.0182473,-77.1251909
PAST SALE,June-28-2019,Single Family Residential,6701 Wilson Ln,Bethesda,MD,20817,2255000,6,6.5,COHASSET,7393,11897,2019,891,305,,Sold,,,https://www.redfin.com/MD/Bethesda/6701-Wilson-Ln-20817/home/10674027,BRIGHT MLS,MDMC654990,N,Y,38.9862203,-77.135371
PAST SALE,February-7-2020,Condo/Co-op,7508 Spring Lake Dr Unit A,Bethesda,MD,20817,245000,2,1.0,SPRINGLAKE,1316,,1960,667,186,550,Sold,,,https://www.redfin.com/MD/Bethesda/7508-Spring-Lake-Dr-20817/unit-A/home/167111657,BRIGHT MLS,MDMC692844,N,Y,39.0271845,-77.1530841
PAST SALE,,Single Family Residential,6404 E Halbert Rd,Bethesda,MD,20817,1779000,5,5.0,,5077,7813,2020,,350,,,,,https://www.redfin.com/MD/Bethesda/6404-E-Halbert-Rd-20817/home/10678254,,,N,Y,38.9741781,-77.1399103
PAST SALE,August-14-2020,Single Family Residential,6804 Marbury Rd,Bethesda,MD,20817,1169250,4,3.0,KENWOOD PARK,2755,10653,1956,478,424,,Sold,,,https://www.redfin.com/MD/Bethesda/6804-Marbury-Rd-20817/home/10668896,BRIGHT MLS,MDMC714580,N,Y,38.9774916,-77.1196847
PAST SALE,October-25-2019,Single Family Residential,7604 Quintana Ct,Bethesda,MD,20817,875000,4,3.0,BURNING TREE ESTATES,2677,26897,1957,772,327,,Sold,,,https://www.redfin.com/MD/Bethesda/7604-Quintana-Ct-20817/home/10887822,BRIGHT MLS,MDMC670614,N,Y,39.0044706,-77.1570319
PAST SALE,September-9-2020,Single Family Residential,7808 Charleston Dr,Bethesda,MD,20817,1060000,4,3.0,ASHLEIGH,2992,27287,1969,452,354,,Sold,,,https://www.redfin.com/MD/Bethesda/7808-Charleston-Dr-20817/home/10888265,BRIGHT MLS,MDMC717860,N,Y,39.0167288,-77.1598628
PAST SALE,March-20-2020,Townhouse,6432 Goldleaf Dr,Bethesda,MD,20817,970000,4,3.5,MASS AVE FOREST,3487,4863,1984,625,278,242,Sold,,,https://www.redfin.com/MD/Bethesda/6432-Goldleaf-Dr-20817/home/10691794,BRIGHT MLS,MDMC695044,N,Y,38.9712099,-77.1327193
PAST SALE,February-6-2020,Single Family Residential,8020 Park Overlook Dr,Bethesda,MD,20817,830000,4,3.0,CARDEROCK SPRINGS,2026,17885,1965,668,410,,Sold,,,https://www.redfin.com/MD/Bethesda/8020-Park-Overlook-Dr-20817/home/10888930,BRIGHT MLS,MDMC688282,N,Y,38.9914732,-77.1641315
PAST SALE,January-30-2020,Single Family Residential,7904 Maryknoll Ave,Bethesda,MD,20817,1750000,5,4.5,BURNING TREE VALLEY,5681,11301,2012,675,308,,Sold,,,https://www.redfin.com/MD/Bethesda/7904-Maryknoll-Ave-20817/home/10673866,BRIGHT MLS,MDMC691102,N,Y,38.9900569,-77.139753
PAST SALE,,Condo/Co-op,10205 Arizona Cir #39,Bethesda,MD,20817,650000,,,,1435,,1977,,453,,,,,https://www.redfin.com/MD/Bethesda/10205-Arizona-Cir-20817/unit-39/home/10907177,,,N,Y,39.0232066,-77.1505617
PAST SALE,June-24-2019,Single Family Residential,9911 Belhaven Rd,Bethesda,MD,20817,815000,4,3.5,ASHBURTON,2820,8806,1959,895,289,,Sold,,,https://www.redfin.com/MD/Bethesda/9911-Belhaven-Rd-20817/home/10670578,BRIGHT MLS,MDMC625702,N,Y,39.0189546,-77.1216624
PAST SALE,November-15-2021,Single Family Residential,5607 Oakmont Ave,Bethesda,MD,20817,950000,3,2.5,ALTA VISTA,2120,6939,1940,20,448,,Sold,,,https://www.redfin.com/MD/Bethesda/5607-Oakmont-Ave-20817/home/10656189,BRIGHT MLS,MDMC2000443,N,Y,39.0046261,-77.1142906
PAST SALE,October-15-2020,Condo/Co-op,7420 Westlake Ter #401,Bethesda,MD,20817,229000,1,1.0,WESTLAKE PARK BLDG B COD,887,,1976,416,258,664,Sold,,,https://www.redfin.com/MD/Bethesda/7420-Westlake-Ter-20817/unit-401/home/10905871,BRIGHT MLS,MDMC726534,N,Y,39.0259865,-77.1507183
PAST SALE,March-29-2019,Single Family Residential,6620 Elgin Ln,Bethesda,MD,20817,2690000,4,5.5,BANNOCKBURN HEIGHTS,6500,61098,1937,982,414,,Sold,,,https://www.redfin.com/MD/Bethesda/6620-Elgin-Ln-20817/home/10679219,BRIGHT MLS,MDMC559452,N,Y,38.9776907,-77.1347418
PAST SALE,May-24-2019,Single Family Residential,6606 Melody Ln,Bethesda,MD,20817,811111,4,3.0,WOODHAVEN,2625,15578,1961,926,309,,Sold,,,https://www.redfin.com/MD/Bethesda/6606-Melody-Ln-20817/unit-IN/home/10670219,BRIGHT MLS,MDMC656050,N,Y,38.9923532,-77.1339328
PAST SALE,March-22-2019,Single Family Residential,8633 Fenway Rd,Bethesda,MD,20817,1357000,5,4.5,POTOMAC OUTSIDE,6109,34823,1998,989,222,,Sold,,,https://www.redfin.com/MD/Bethesda/8633-Fenway-Rd-20817/home/143019345,BRIGHT MLS,MDMC560034,N,Y,38.9977431,-77.1727359
PAST SALE,March-23-2020,Condo/Co-op,7425 Democracy Blvd #210,Bethesda,MD,20817,265000,2,2.0,WEST LAKE PARK,1241,,1975,622,214,634,Sold,,,https://www.redfin.com/MD/Bethesda/7425-Democracy-Blvd-20817/unit-210/home/28430408,BRIGHT MLS,MDMC679814,N,Y,39.0257489,-77.1522833
PAST SALE,May-4-2021,Single Family Residential,8012 Thornley Ct,Bethesda,MD,20817,980000,4,4.5,CARDEROCK SPRINGS,3584,10018,1981,215,273,,Sold,,,https://www.redfin.com/MD/Bethesda/8012-Thornley-Ct-20817/home/10906443,BRIGHT MLS,MDMC743870,N,Y,38.9849337,-77.1615703
PAST SALE,,Condo/Co-op,7401 Westlake Ter #608,Bethesda,MD,20817,278000,,,,1081,,1979,,257,,,,,https://www.redfin.com/MD/Bethesda/7401-Westlake-Ter-20817/unit-608/home/10914264,,,N,Y,39.0270208,-77.1515497
PAST SALE,April-12-2021,Single Family Residential,7008 Braeburn Ct,Bethesda,MD,20817,2595000,6,7.0,BANNOCKBURN COOP,7565,14392,2019,237,343,,Sold,,,https://www.redfin.com/MD/Bethesda/7008-Braeburn-Ct-20817/home/10678411,BRIGHT MLS,MDMC745256,N,Y,38.9765365,-77.1421798
PAST SALE,September-18-2020,Single Family Residential,6002 Henning St,Bethesda,MD,20817,1449000,5,4.5,AYRLAWN,4992,9430,2005,443,290,,Sold,,,https://www.redfin.com/MD/Bethesda/6002-Henning-St-20817/home/10661159,BRIGHT MLS,MDMC723116,N,Y,39.0039927,-77.121168
PAST SALE,,Condo/Co-op,7501 Democracy Blvd Unit B126,Bethesda,MD,20817,187000,1,1.0,,840,,1960,,223,,,,,https://www.redfin.com/MD/Bethesda/7501-Democracy-Blvd-20817/unit-B126/home/10902754,,,N,Y,39.0238734,-77.1540437
PAST SALE,May-3-2021,Single Family Residential,8511 Ewing Dr,Bethesda,MD,20817,1030000,4,3.0,BRADMOOR,2104,9481,1958,216,490,,Sold,,,https://www.redfin.com/MD/Bethesda/8511-Ewing-Dr-20817/home/10662827,BRIGHT MLS,MDMC752428,N,Y,38.9955741,-77.1224041
PAST SALE,February-9-2021,Single Family Residential,5801 Aberdeen Rd,Bethesda,MD,20817,2795000,6,5.5,BRADLEY WOODS,7040,22376,2020,299,397,,Sold,,,https://www.redfin.com/MD/Bethesda/5801-Aberdeen-Rd-20817/home/10673599,BRIGHT MLS,MDMC694584,N,Y,38.9914241,-77.1182687
PAST SALE,,Vacant Land,8219 River Rd,Bethesda,MD,20817,159920,,,,,1226,,,,,,,,https://www.redfin.com/MD/Bethesda/8219-River-Rd-20817/home/167703008,,,N,Y,38.9956791,-77.1660456
PAST SALE,July-3-2019,Townhouse,6606 Eames Way Unit BURCH MODEL,Bethesda,MD,20817,839999,3,3.5,MONTGOMERY ROW,1686,924,2019,886,498,210,Sold,,,https://www.redfin.com/MD/Bethesda/6606-Eames-Way-20817/unit-BURCH-MODEL/home/164872505,BRIGHT MLS,MDMC656606,N,Y,39.0267805,-77.1363008
PAST SALE,September-9-2020,Single Family Residential,5602 Alta Vista Rd,Bethesda,MD,20817,975000,4,4.0,ALTA VISTA,3000,8559,1962,452,325,,Sold,,,https://www.redfin.com/MD/Bethesda/5602-Alta-Vista-Rd-20817/home/10655849,BRIGHT MLS,MDMC717390,N,Y,39.0060027,-77.1122677
PAST SALE,September-11-2019,Single Family Residential,5522 Oak Pl,Bethesda,MD,20817,1549000,5,4.5,OAKMONT,5581,7978,2019,816,278,,Sold,,,https://www.redfin.com/MD/Bethesda/5522-Oak-Pl-20817/home/167686965,BRIGHT MLS,MDMC650210,N,Y,39.0033337,-77.1123161
PAST SALE,April-6-2021,Single Family Residential,10003 Sinnott Dr,Bethesda,MD,20817,1549000,5,5.5,MARYMOUNT,5400,6028,2021,243,287,,Sold,,,https://www.redfin.com/MD/Bethesda/10003-Sinnott-Dr-20817/home/10675629,BRIGHT MLS,MDMC752088,N,Y,39.020532,-77.1277079
PAST SALE,September-15-2020,Single Family Residential,6708 Vendome Ter,Bethesda,MD,20817,1315000,5,4.5,THE PALISADES,4414,63807,1985,446,298,,Sold,,,https://www.redfin.com/MD/Bethesda/6708-Vendome-Ter-20817/home/10911701,BRIGHT MLS,MDMC717780,N,Y,38.9794747,-77.1932237
PAST SALE,April-22-2021,Single Family Residential,8406 Old Seven Locks Rd,Bethesda,MD,20817,1240000,7,4.5,STONEYHURST CENTER,4876,10737,1995,227,254,,Sold,,,https://www.redfin.com/MD/Bethesda/8406-Old-Seven-Locks-Rd-20817/home/10923932,BRIGHT MLS,MDMC691964,N,Y,38.9946904,-77.1606267
PAST SALE,March-23-2020,Condo/Co-op,7425 Democracy Blvd #214,Bethesda,MD,20817,299900,2,2.0,WEST LAKE PARK,1276,,1975,622,235,634,Sold,,,https://www.redfin.com/MD/Bethesda/7425-Democracy-Blvd-20817/unit-214/home/10904544,BRIGHT MLS,MDMC694442,N,Y,39.0239033,-77.1521563
PAST SALE,November-30-2020,Single Family Residential,5630 Alta Vista Rd,Bethesda,MD,20817,865000,5,3.0,ALTA VISTA,2026,7400,1963,370,427,,Sold,,,https://www.redfin.com/MD/Bethesda/5630-Alta-Vista-Rd-20817/home/10655830,BRIGHT MLS,MDMC732246,N,Y,39.0060342,-77.1154144
PAST SALE,August-15-2019,Single Family Residential,5525 Oakmont Ave,Bethesda,MD,20817,951500,3,2.5,ALTA VISTA,2137,6751,1940,843,445,,Sold,,,https://www.redfin.com/MD/Bethesda/5525-Oakmont-Ave-20817/home/10656194,BRIGHT MLS,MDMC668764,N,Y,39.0046808,-77.1133466
PAST SALE,September-2-2020,Single Family Residential,5605 Glenwood Rd,Bethesda,MD,20817,915000,3,2.5,EDGEWOOD,1624,6937,1940,459,563,,Sold,,,https://www.redfin.com/MD/Bethesda/5605-Glenwood-Rd-20817/home/10674221,BRIGHT MLS,MDMC720364,N,Y,38.9943248,-77.1143692
PAST SALE,,Single Family Residential,6750 Greentree Rd,Bethesda,MD,20817,651300,,8.0,,9296,86094,1939,,70,,,,,https://www.redfin.com/MD/Bethesda/6750-Greentree-Rd-20817/home/10661720,,,N,Y,39.0071737,-77.137798
PAST SALE,May-12-2021,Single Family Residential,8505 Bradmoor Dr,Bethesda,MD,20817,1535000,4,4.5,BRADMOOR,4285,6388,2002,207,358,,Sold,,,https://www.redfin.com/MD/Bethesda/8505-Bradmoor-Dr-20817/home/10661943,BRIGHT MLS,MDMC751512,N,Y,38.9948715,-77.1189879
PAST SALE,July-19-2019,Single Family Residential,9910 Julliard Dr,Bethesda,MD,20817,818000,5,2.5,ASHBURTON,2820,7698,1959,870,290,,Sold,,,https://www.redfin.com/MD/Bethesda/9910-Julliard-Dr-20817/home/10670919,BRIGHT MLS,MDMC649330,N,Y,39.0182889,-77.122876
PAST SALE,November-11-2020,Single Family Residential,8916 Charred Oak Dr,Bethesda,MD,20817,775000,0,0.5,CHARRED OAK ESTATES,4634,20594,1961,389,167,,Sold,,,https://www.redfin.com/MD/Bethesda/8916-Charred-Oak-Dr-20817/home/10889817,BRIGHT MLS,MDMC734010,N,Y,39.0029275,-77.1618849
PAST SALE,June-18-2021,Single Family Residential,6215 Stardust Ln,Bethesda,MD,20817,850000,4,3.0,COUNTRY CLUB FOREST,2070,8506,1958,170,411,,Sold,,,https://www.redfin.com/MD/Bethesda/6215-Stardust-Ln-20817/home/10680725,BRIGHT MLS,MDMC759382,N,Y,38.9736896,-77.1265617
PAST SALE,July-23-2021,Single Family Residential,7727 Oldchester Rd,Bethesda,MD,20817,942600,4,3.0,ENGLISH VILLAGE,2466,8768,1949,135,382,,Sold,,,https://www.redfin.com/MD/Bethesda/7727-Oldchester-Rd-20817/home/10646137,BRIGHT MLS,MDMC764160,N,Y,38.9882654,-77.1195948
PAST SALE,,Single Family Residential,9319 Adelaide Dr,Bethesda,MD,20817,710000,,1.0,,918,9704,1952,,773,,,,,https://www.redfin.com/MD/Bethesda/9319-Adelaide-Dr-20817/home/10659738,,,N,Y,39.0096065,-77.1250907
PAST SALE,,Condo/Co-op,8111 River Rd #136,Bethesda,MD,20817,1699000,,,,3405,,2015,,499,,,,,https://www.redfin.com/MD/Bethesda/8111-River-Rd-20817/unit-136/home/110058346,,,N,Y,38.9950654,-77.1647286
PAST SALE,May-26-2021,Single Family Residential,8602 Hempstead Ave,Bethesda,MD,20817,860000,3,2.5,BRADMOOR,1807,5800,1941,193,476,,Sold,,,https://www.redfin.com/MD/Bethesda/8602-Hempstead-Ave-20817/home/10662202,BRIGHT MLS,MDMC749134,N,Y,38.9964464,-77.1171225
PAST SALE,,Vacant Land,8133 River Rd,Bethesda,MD,20817,1681345,,,,,1272,,,,,,,,https://www.redfin.com/MD/Bethesda/8133-River-Rd-20817/home/167703029,,,N,Y,38.9953217,-77.1661366
PAST SALE,,Single Family Residential,6303 Lone Oak Dr,Bethesda,MD,20817,867000,,1.0,,1696,6313,1955,,511,,,,,https://www.redfin.com/MD/Bethesda/6303-Lone-Oak-Dr-20817/home/10675714,,,N,Y,39.0204391,-77.1270562
PAST SALE,,Single Family Residential,6607 Greentree Rd,Bethesda,MD,20817,1300000,,3.0,,4003,32405,1960,,325,,,,,https://www.redfin.com/MD/Bethesda/6607-Greentree-Rd-20817/home/10636659,,,N,Y,39.0068183,-77.1335579
PAST SALE,July-20-2021,Condo/Co-op,8300 Burdette Rd #655,Bethesda,MD,20817,650000,2,2.0,FOX HILL RESIDENTIAL COD,1221,,2008,138,532,4036,Sold,,,https://www.redfin.com/MD/Bethesda/8300-Burdette-Rd-20817/unit-655/home/23465061,BRIGHT MLS,MDMC736566,N,Y,38.9917254,-77.1537249
PAST SALE,August-23-2021,Condo/Co-op,7420 Westlake Ter #812,Bethesda,MD,20817,199000,1,1.0,WESTLAKE PARK BLDG B COD,816,,1976,104,244,571,Sold,,,https://www.redfin.com/MD/Bethesda/7420-Westlake-Ter-20817/unit-812/home/10906086,BRIGHT MLS,MDMC2001850,N,Y,39.0259865,-77.1507183
PAST SALE,August-20-2021,Single Family Residential,6211 Leeke Forest Ct,Bethesda,MD,20817,1125000,4,3.0,COURTS OF WYNGATE,2660,6000,1972,107,423,125,Sold,,,https://www.redfin.com/MD/Bethesda/6211-Leeke-Forest-Ct-20817/home/10659618,BRIGHT MLS,MDMC2006786,N,Y,39.0050569,-77.1274607
PAST SALE,December-10-2019,Single Family Residential,8718 Grant St,Bethesda,MD,20817,1040000,4,3.5,HUNTINGTON TERRACE,3503,6329,1938,726,297,,Sold,,,https://www.redfin.com/MD/Bethesda/8718-Grant-St-20817/home/10649839,BRIGHT MLS,MDMC623280,N,Y,38.9991048,-77.1125824
PAST SALE,May-29-2019,Single Family Residential,9909 Harrogate Rd,Bethesda,MD,20817,884000,5,3.0,STRATTON WOODS,2821,10383,1962,921,313,,Sold,,,https://www.redfin.com/MD/Bethesda/9909-Harrogate-Rd-20817/home/10676086,BRIGHT MLS,MDMC636468,N,Y,39.017973,-77.1368991
PAST SALE,,Single Family Residential,8901 Holly Leaf Ln,Bethesda,MD,20817,1685000,,4.5,,4945,89298,1987,,341,,,,,https://www.redfin.com/MD/Bethesda/8901-Holly-Leaf-Ln-20817/home/10913499,,,N,Y,38.9939419,-77.1854054
PAST SALE,December-7-2018,Other,8201 Bryant Dr,Bethesda,MD,20817,864000,0,1.0,WOODHAVEN,100,8,1960,1094,8640,,Sold,,,https://www.redfin.com/MD/Bethesda/8201-Bryant-Dr-20817/home/10670217,BRIGHT MLS,1009994346,N,Y,38.9903634,-77.1315508
PAST SALE,,Condo/Co-op,7513 Spring Lake Dr Unit 7513-D,Bethesda,MD,20817,255000,,,,966,,1960,,264,,,,,https://www.redfin.com/MD/Bethesda/7513-Spring-Lake-Dr-20817/unit-7513-D/home/10903482,,,N,Y,39.0271714,-77.1535184
PAST SALE,November-1-2021,Single Family Residential,7515 Oldchester Rd,Bethesda,MD,20817,2300000,6,5.5,ENGLISH VILLAGE,5000,10500,2000,34,460,,Sold,,,https://www.redfin.com/MD/Bethesda/7515-Oldchester-Rd-20817/home/10646465,BRIGHT MLS,MDMC2018380,N,Y,38.9852432,-77.1176619
PAST SALE,November-10-2021,Single Family Residential,6208 Perthshire Ct,Bethesda,MD,20817,903000,4,2.5,COURTS OF WYNGATE,2309,7332,1971,25,391,125,Sold,,,https://www.redfin.com/MD/Bethesda/6208-Perthshire-Ct-20817/home/10660517,BRIGHT MLS,MDMC2019556,N,Y,39.0038646,-77.127191
PAST SALE,,Vacant Land,8727 Burning Tree Rd,Bethesda,MD,20817,1865074,,,,,25000,,,,,,,,https://www.redfin.com/MD/Bethesda/8727-Burning-Tree-Rd-20817/home/10697646,,,N,Y,39.00003,-77.137227
PAST SALE,September-4-2020,Single Family Residential,9927 Carter Rd,Bethesda,MD,20817,1645000,5,5.0,ASHLEIGH,5085,20733,1964,457,324,,Sold,,,https://www.redfin.com/MD/Bethesda/9927-Carter-Rd-20817/home/10888298,BRIGHT MLS,MDMC699030,N,Y,39.0193283,-77.1558636
PAST SALE,May-4-2020,Townhouse,10104 Crestberry Pl,Bethesda,MD,20817,600000,3,3.5,WILDWOOD HILLS,1834,2085,1984,580,327,150,Sold,,,https://www.redfin.com/MD/Bethesda/10104-Crestberry-Pl-20817/home/10913635,BRIGHT MLS,MDMC687250,N,Y,39.022218,-77.1523136
PAST SALE,October-14-2021,Single Family Residential,8609 Hartsdale Ave,Bethesda,MD,20817,1891484,5,4.5,BRADMOOR,1288,6313,2021,52,1469,,Sold,,,https://www.redfin.com/MD/Bethesda/8609-Hartsdale-Ave-20817/home/10662458,BRIGHT MLS,MDMC2000262,N,Y,38.9978893,-77.1171225
PAST SALE,,Single Family Residential,7814 Fulbright Ct,Bethesda,MD,20817,885000,,2.5,,1778,9889,1960,,498,,,,,https://www.redfin.com/MD/Bethesda/7814-Fulbright-Ct-20817/home/10676995,,,N,Y,38.9905149,-77.1368542
PAST SALE,June-14-2019,Single Family Residential,5913 Walton Rd,Bethesda,MD,20817,1280000,5,4.5,HENDRY ESTATES,4400,6600,2005,905,291,,Sold,,,https://www.redfin.com/MD/Bethesda/5913-Walton-Rd-20817/home/10679431,BRIGHT MLS,MDMC624908,N,Y,39.0096103,-77.1203364
PAST SALE,,Single Family Residential,9211 Shelton St,Bethesda,MD,20817,1300000,,4.5,,4825,9226,2003,,269,,,,,https://www.redfin.com/MD/Bethesda/9211-Shelton-St-20817/home/10659057,,,N,Y,39.0068353,-77.1275955
PAST SALE,August-20-2020,Single Family Residential,7307 Burdette Ct,Bethesda,MD,20817,2075000,5,4.5,BURNING TREE VIEW,6378,21595,1996,472,325,,Sold,,,https://www.redfin.com/MD/Bethesda/7307-Burdette-Ct-20817/home/10701120,BRIGHT MLS,MDMC712824,N,Y,38.9942568,-77.1479321
PAST SALE,April-20-2021,Single Family Residential,9308 Bulls Run Pkwy,Bethesda,MD,20817,925000,4,3.5,WYNGATE,2518,7692,1954,229,367,,Sold,,,https://www.redfin.com/MD/Bethesda/9308-Bulls-Run-Pkwy-20817/home/10659431,BRIGHT MLS,MDMC746842,N,Y,39.0095024,-77.1265393
PAST SALE,,Single Family Residential,6202 Wilmett Rd,Bethesda,MD,20817,785000,,2.0,,1877,7348,1952,,418,,,,,https://www.redfin.com/MD/Bethesda/6202-Wilmett-Rd-20817/home/10659378,,,N,Y,39.0082928,-77.1270112
PAST SALE,June-24-2019,Single Family Residential,9214 Shelton St,Bethesda,MD,20817,862500,5,3.0,WYNGATE,2180,6888,1955,895,396,,Sold,,,https://www.redfin.com/MD/Bethesda/9214-Shelton-St-20817/home/10659406,BRIGHT MLS,MDMC651048,N,Y,39.0071261,-77.1284046
PAST SALE,May-22-2019,Single Family Residential,9523 Ewing Dr,Bethesda,MD,20817,690000,3,2.0,WYNGATE,1748,7114,1950,928,395,,Sold,,,https://www.redfin.com/MD/Bethesda/9523-Ewing-Dr-20817/home/10659419,BRIGHT MLS,MDMC623642,N,Y,39.0117674,-77.1222468
PAST SALE,November-14-2019,Single Family Residential,6311 Friendship Ct,Bethesda,MD,20817,900000,5,2.5,COURTS OF WYNGATE,3026,13725,1972,752,297,125,Sold,,,https://www.redfin.com/MD/Bethesda/6311-Friendship-Ct-20817/home/10659559,BRIGHT MLS,MDMC679004,N,Y,39.004719,-77.12974
PAST SALE,,Single Family Residential,9510 Nowell Dr,Bethesda,MD,20817,827500,,1.0,,1636,7207,1950,,506,,,,,https://www.redfin.com/MD/Bethesda/9510-Nowell-Dr-20817/home/10659485,,,N,Y,39.0109464,-77.1235053
PAST SALE,,Single Family Residential,6204 Adelaide Dr,Bethesda,MD,20817,795000,,2.0,,1570,5821,1953,,506,,,,,https://www.redfin.com/MD/Bethesda/6204-Adelaide-Dr-20817/home/10659512,,,N,Y,39.0095426,-77.1268988
PAST SALE,December-28-2018,Single Family Residential,6205 Perthshire Ct,Bethesda,MD,20817,766250,4,2.5,COURTS OF WYNGATE,2276,7617,1971,1073,337,68,Sold,,,https://www.redfin.com/MD/Bethesda/6205-Perthshire-Ct-20817/home/10659590,BRIGHT MLS,MDMC559922,N,Y,39.0044429,-77.1264494
PAST SALE,,Single Family Residential,6304 Herkos Ct,Bethesda,MD,20817,1080000,,2.5,,2309,6420,1971,,468,,,,,https://www.redfin.com/MD/Bethesda/6304-Herkos-Ct-20817/home/10659525,,,N,Y,39.0032915,-77.1290563
PAST SALE,November-15-2019,Single Family Residential,6215 Leeke Forest Ct,Bethesda,MD,20817,875000,4,3.0,COURTS OF WYNGATE,2516,6000,1972,751,348,125,Sold,,,https://www.redfin.com/MD/Bethesda/6215-Leeke-Forest-Ct-20817/home/10659627,BRIGHT MLS,MDMC679122,N,Y,39.005027,-77.1279101
PAST SALE,July-9-2019,Single Family Residential,6203 Leeke Forest Ct,Bethesda,MD,20817,860000,4,3.0,COURTS OF WYNGATE,2500,6405,1972,880,344,125,Sold,,,https://www.redfin.com/MD/Bethesda/6203-Leeke-Forest-Ct-20817/home/10659613,BRIGHT MLS,MDMC659092,N,Y,39.0050942,-77.1265393
PAST SALE,May-22-2019,Single Family Residential,9321 Adelaide Dr,Bethesda,MD,20817,1440000,5,4.5,WYNGATE,4922,8787,2019,928,293,,Sold,,,https://www.redfin.com/MD/Bethesda/9321-Adelaide-Dr-20817/home/10659918,BRIGHT MLS,1005935683,N,Y,39.009706,-77.125279
PAST SALE,,Single Family Residential,9200 Wadsworth Dr,Bethesda,MD,20817,669000,,2.0,,1326,7485,1954,,505,,,,,https://www.redfin.com/MD/Bethesda/9200-Wadsworth-Dr-20817/home/10659836,,,N,Y,39.0073677,-77.1279663
PAST SALE,February-14-2020,Single Family Residential,5803 Melvern Dr,Bethesda,MD,20817,1605600,5,4.5,WYNGATE,4603,6462,2019,660,349,,Sold,,,https://www.redfin.com/MD/Bethesda/5803-Melvern-Dr-20817/home/10660094,BRIGHT MLS,MDMC657008,N,Y,39.0108288,-77.1174372
PAST SALE,,Single Family Residential,9209 Topeka St,Bethesda,MD,20817,1568600,,4.5,,4978,7533,2020,,315,,,,,https://www.redfin.com/MD/Bethesda/9209-Topeka-St-20817/home/10660326,,,N,Y,39.0066653,-77.1285843
PAST SALE,,Other,6007 Ryland Dr,Bethesda,MD,20817,1606000,,,,,6090,,,,,,,,https://www.redfin.com/MD/Bethesda/6007-Ryland-Dr-20817/home/10660245,,,N,Y,39.0130045,-77.1218422
PAST SALE,September-5-2019,Single Family Residential,8702 Bellwood Rd,Bethesda,MD,20817,1399000,5,5.5,BETHESDA OUT RES. (1),5073,26701,1977,822,276,375,Sold,,,https://www.redfin.com/MD/Bethesda/8702-Bellwood-Rd-20817/home/10686569,BRIGHT MLS,MDMC652954,N,Y,38.998425,-77.1436179
PAST SALE,July-3-2019,Single Family Residential,6813 Bradley Blvd,Bethesda,MD,20817,1766000,6,7.0,BRADLEY HILLS GROVE,8080,57058,1998,886,219,,Sold,,,https://www.redfin.com/MD/Bethesda/6813-Bradley-Blvd-20817/home/10661603,BRIGHT MLS,MDMC625602,N,Y,39.0050448,-77.1384721
PAST SALE,August-16-2019,Townhouse,6731 Eames,Bethesda,MD,20817,799465,3,2.0,ROCKVILLE OUTSIDE,,827,2019,842,,,Sold,,,https://www.redfin.com/MD/Bethesda/6731-Eames-Way-20817/home/110057891,BRIGHT MLS,MDMC677754,N,Y,39.0269947,-77.1380276
PAST SALE,December-12-2019,Condo/Co-op,7400 Lakeview Dr Unit N206,Bethesda,MD,20817,160000,1,1.0,WEST SPRING,787,,1962,724,203,560,Sold,,,https://www.redfin.com/MD/Bethesda/7400-Lakeview-Dr-20817/unit-N206/home/10909421,BRIGHT MLS,MDMC672658,N,Y,39.026437,-77.1490107
PAST SALE,May-21-2021,Single Family Residential,8105 Beech Tree Rd,Bethesda,MD,20817,1257000,4,3.0,BURNING TREE VALLEY,2776,11870,1959,198,453,,Sold,,,https://www.redfin.com/MD/Bethesda/8105-Beech-Tree-Rd-20817/home/10673686,BRIGHT MLS,MDMC756506,N,Y,38.9908763,-77.1408091
