SALE TYPE,SOLD DATE,PROPERTY TYPE,ADDRESS,CITY,STATE OR PROVINCE,ZIP OR POSTAL CODE,PRICE,BEDS,BATHS,LOCATION,SQUARE FEET,LOT SIZE,YEAR BUILT,DAYS ON MARKET,$/SQUARE FEET,HOA/MONTH,STATUS,NEXT OPEN HOUSE START TIME,NEXT OPEN HOUSE END TIME,URL (SEE https://www.redfin.com/buy-a-home/comparative-market-analysis FOR INFO ON PRICING),SOURCE,MLS#,FAVORITE,INTERESTED,LATITUDE,LONGITUDE
MLS Listing,,Single Family Residential,71 Mclendon Rd,Morven,NC,28119,119900,4,1.0,Morven,1615,22651,1959,4,74,,Active,,,https://www.redfin.com/NC/Morven/71-Mclendon-Rd-28119/home/44199755,CANOPYMLS,3810058,N,Y,34.8130339,-79.9765548
MLS Listing,,Vacant Land,TBD NC Hwy 145 Hwy,Morven,NC,28170,29500,0,,Morven,,111077,,33,,,Active,,,https://www.redfin.com/NC/Morven/tbd-NC-Hwy-145-HWY-28119/home/112899761,CANOPYMLS,3800118,N,Y,34.879487,-79.962311
MLS Listing,,Single Family Residential,441 Johnson Melton Rd,Morven,NC,28119,166500,3,2.5,Morven,1178,312760,2020,110,141,,Active,,,https://www.redfin.com/NC/Morven/441-Johnson-Melton-Rd-28119/home/176139482,CANOPYMLS,3773707,N,Y,34.814014,-80.0231073
MLS Listing,,Single Family Residential,861 Sandy Ridge Church Rd,Morven,NC,28119,115000,3,2.0,Morven,1977,84942,1979,114,58,,Active,,,https://www.redfin.com/NC/Morven/861-Sandy-Ridge-Church-Rd-28119/home/44193689,CANOPYMLS,3773927,N,Y,34.8506315,-80.0282547
MLS Listing,,Vacant Land,TBD Cason Oldfield Rd,Morven,NC,28119,84500,,,Morven,,1240588,,172,,,Active,,,https://www.redfin.com/NC/Morven/TBD-Cason-Oldfield-Rd-28119/home/175454472,CANOPYMLS,3752019,N,Y,34.824515,-80.05973
MLS Listing,,Vacant Land,TBD Short Town Rd,Morven,NC,28119,6500,,,Morven,,24393,,691,,,Active,,,https://www.redfin.com/NC/Morven/TBD-Short-Town-Rd-28119/home/170284494,CANOPYMLS,3553187,N,Y,34.873221,-79.971363
