SALE TYPE,SOLD DATE,PROPERTY TYPE,ADDRESS,CITY,STATE OR PROVINCE,ZIP OR POSTAL CODE,PRICE,BEDS,BATHS,LOCATION,SQUARE FEET,LOT SIZE,YEAR BUILT,DAYS ON MARKET,$/SQUARE FEET,HOA/MONTH,STATUS,NEXT OPEN HOUSE START TIME,NEXT OPEN HOUSE END TIME,URL (SEE https://www.redfin.com/buy-a-home/comparative-market-analysis FOR INFO ON PRICING),SOURCE,MLS#,FAVORITE,INTERESTED,LATITUDE,LONGITUDE
PAST SALE,December-6-2019,Townhouse,7033 Holly Springs Ln #69,Elkridge,MD,21075,325000,3,2.5,Elkridge,2340,,2006,730,139,165,Sold,,,https://www.redfin.com/MD/Elkridge/7033-Holly-Springs-Ln-21075/unit-69/home/12278180,BRIGHT MLS,MDHW271654,N,Y,39.17756,-76.7844711
PAST SALE,August-13-2020,Single Family Residential,6801 Montgomery Rd,Elkridge,MD,21075,625000,4,3.5,ROCKBURN,2244,20005,2015,479,279,,Sold,,,https://www.redfin.com/MD/Elkridge/6801-Montgomery-Rd-21075/home/62343604,BRIGHT MLS,MDHW281500,N,Y,39.212087,-76.7457135
PAST SALE,December-11-2020,Single Family Residential,7112 Elk Mar Dr,Elkridge,MD,21075,615000,4,3.5,OVERLOOK AT TIMBERS,3073,16964,2000,359,200,17,Sold,,,https://www.redfin.com/MD/Elkridge/7112-Elk-Mar-Dr-21075/home/9900236,BRIGHT MLS,MDHW285780,N,Y,39.2074323,-76.7541445
PAST SALE,September-27-2019,Townhouse,7139 Fox Harbor Way #81,Elkridge,MD,21075,335000,3,3.0,VILLAGE TOWNS,2100,,2005,800,160,10,Sold,,,https://www.redfin.com/MD/Elkridge/7139-Fox-Harbor-Way-21075/unit-81/home/10396963,BRIGHT MLS,MDHW269036,N,Y,39.1777931,-76.7850532
PAST SALE,,Townhouse,7726 English Oak Cir #20,Elkridge,MD,21075,335000,,3.0,,2056,8849,2005,,163,,,,,https://www.redfin.com/MD/Elkridge/7726-English-Oak-Cir-21075/unit-20/home/10395651,,,N,Y,39.1794608,-76.7777104
PAST SALE,May-5-2020,Single Family Residential,6014 Hunt Club Rd,Elkridge,MD,21075,380000,3,2.5,ELKRIDGE,1922,14723,1952,579,198,,Sold,,,https://www.redfin.com/MD/Elkridge/6014-Hunt-Club-Rd-21075/home/9858232,BRIGHT MLS,MDHW276110,N,Y,39.2053671,-76.7403931
PAST SALE,May-29-2019,Townhouse,6344 Beechfield Ave,Elkridge,MD,21075,262650,3,1.5,HARWOOD PARK,1640,7875,1985,921,160,,Sold,,,https://www.redfin.com/MD/Elkridge/6344-Beechfield-Ave-21075/home/9856967,BRIGHT MLS,MDHW251696,N,Y,39.1955549,-76.7405156
PAST SALE,December-20-2019,Single Family Residential,6402 Old Highgate Dr,Elkridge,MD,21075,380000,5,3.0,NOTTINGHAM VILLAGE,2232,4314,1993,716,170,26,Sold,,,https://www.redfin.com/MD/Elkridge/6402-Old-Highgate-Dr-21075/home/9889613,BRIGHT MLS,MDHW272230,N,Y,39.1954113,-76.7759182
PAST SALE,December-1-2020,Single Family Residential,7045 Cedar Ave,Elkridge,MD,21075,375000,3,2.0,LENNOX PARK,1538,18000,1950,369,244,,Sold,,,https://www.redfin.com/MD/Elkridge/7045-Cedar-Ave-21075/home/9857713,BRIGHT MLS,MDHW286918,N,Y,39.1769532,-76.7508533
PAST SALE,July-12-2019,Townhouse,6350 Bayberry Ct #7,Elkridge,MD,21075,225000,3,2.5,ELKRIDGE TOWN CENTER,1181,,1995,877,191,265,Sold,,,https://www.redfin.com/MD/Elkridge/6350-Bayberry-Ct-21075/unit-7/home/9894959,BRIGHT MLS,MDHW264726,N,Y,39.207326,-76.735908
PAST SALE,August-31-2021,Single Family Residential,6318 Montgomery Rd,Elkridge,MD,21075,649900,3,2.5,ELKRIDGE,2346,26382,2001,96,277,,Sold,,,https://www.redfin.com/MD/Elkridge/6318-Montgomery-Rd-21075/home/10208106,BRIGHT MLS,MDHW2000670,N,Y,39.2104047,-76.76262
PAST SALE,December-11-2020,Townhouse,7974 Alchemy Way,Elkridge,MD,21075,459000,3,3.5,BLUE STREAM,2251,1547,2017,359,204,103,Sold,,,https://www.redfin.com/MD/Elkridge/7974-Alchemy-Way-21075/home/110027068,BRIGHT MLS,MDHW287404,N,Y,39.1826477,-76.7726098
PAST SALE,March-10-2021,Single Family Residential,6349 Merle Way,Elkridge,MD,21075,479999,3,3.5,WILLIAMS KNOLL,2276,7674,2001,270,211,33,Sold,,,https://www.redfin.com/MD/Elkridge/6349-Merle-Way-21075/home/9900132,BRIGHT MLS,MDHW289742,N,Y,39.2004681,-76.7280381
PAST SALE,June-1-2021,Townhouse,6843 Sanctuary Ct,Elkridge,MD,21075,380000,3,2.5,THE SANCTUARY,1760,,1999,187,216,48,Sold,,,https://www.redfin.com/MD/Elkridge/6843-Sanctuary-Ct-21075/home/9899285,BRIGHT MLS,MDHW292854,N,Y,39.187126,-76.78752
PAST SALE,April-30-2021,Single Family Residential,7112 Layton Ct,Elkridge,MD,21075,865000,5,4.5,GROVEMONT,3740,16433,2002,219,231,21,Sold,,,https://www.redfin.com/MD/Elkridge/7112-Layton-Ct-21075/home/10204170,BRIGHT MLS,MDHW292274,N,Y,39.2246625,-76.7651445
PAST SALE,October-31-2019,Townhouse,7022 Oak Grove Way #86,Elkridge,MD,21075,315000,3,2.5,VILLAGE TOWNS,1900,8557,2005,766,166,165,Sold,,,https://www.redfin.com/MD/Elkridge/7022-Oak-Grove-Way-21075/unit-86/home/10224168,BRIGHT MLS,MDHW270506,N,Y,39.1782652,-76.7840268
PAST SALE,February-28-2020,Townhouse,7374 Matchbox Aly,Elkridge,MD,21075,345000,3,2.5,"HOWARD SQUARE, PH. 2",1960,1445,2012,646,176,17,Sold,,,https://www.redfin.com/MD/Elkridge/7374-Matchbox-Aly-21075/home/44593958,BRIGHT MLS,MDHW274006,N,Y,39.1737517,-76.7845314
PAST SALE,November-30-2021,Condo/Co-op,6205 Sandpiper Ct #205,Elkridge,MD,21075,227500,2,2.0,ELKRIDGE TOWN CENTER,1058,,1993,5,215,285,Sold,,,https://www.redfin.com/MD/Elkridge/6205-Sandpiper-Ct-21075/unit-205/home/9889875,BRIGHT MLS,MDHW2006202,N,Y,39.2071199,-76.7349445
PAST SALE,October-8-2020,Single Family Residential,6737 Goshen Hunt Rd,Elkridge,MD,21075,470000,4,2.5,GOSHEN ESTATES,2044,11058,1999,423,230,,Sold,,,https://www.redfin.com/MD/Elkridge/6737-Goshen-Hunt-Rd-21075/home/9897981,BRIGHT MLS,MDHW284720,N,Y,39.2038174,-76.7407989
PAST SALE,July-6-2020,Single Family Residential,8029 Hillrise Ct,Elkridge,MD,21075,310000,3,2.0,MAYFIELD MANOR,1499,6672,1985,517,207,,Sold,,,https://www.redfin.com/MD/Elkridge/8029-Hillrise-Ct-21075/home/9867979,BRIGHT MLS,MDHW275930,N,Y,39.1945114,-76.7882234
PAST SALE,July-30-2021,Townhouse,6213 Sutton Ct,Elkridge,MD,21075,445000,3,3.5,Elkridge,2015,2548,1991,128,221,,Sold,,,https://www.redfin.com/MD/Elkridge/6213-Sutton-Ct-21075/home/9874780,BRIGHT MLS,MDHW2000432,N,Y,39.199834,-76.777785
PAST SALE,April-2-2021,Townhouse,6924 Ducketts Ln Unit 40-6,Elkridge,MD,21075,280000,2,1.5,MARBLE HILL,1404,,1985,247,199,121,Sold,,,https://www.redfin.com/MD/Elkridge/6924-Ducketts-Ln-21075/unit-40-6/home/12525193,BRIGHT MLS,MDHW290602,N,Y,39.1997551,-76.7471728
PAST SALE,,Single Family Residential,8014 Hillrise Ct,Elkridge,MD,21075,490000,,1.5,,3768,7822,1985,,130,,,,,https://www.redfin.com/MD/Elkridge/8014-Hillrise-Ct-21075/home/9868060,,,N,Y,39.1947592,-76.7889896
PAST SALE,October-31-2019,Single Family Residential,6498 Sawgrass Ct,Elkridge,MD,21075,645000,4,3.0,MARSH WOODS,4094,15680,1997,766,158,,Sold,,,https://www.redfin.com/MD/Elkridge/6498-Sawgrass-Ct-21075/home/9896799,BRIGHT MLS,MDHW269986,N,Y,39.2101177,-76.7582245
PAST SALE,May-10-2019,Single Family Residential,6012 N Meyer Dr,Elkridge,MD,21075,610000,5,3.5,CLAREMONT OVERLOOK,4552,7643,2012,940,134,42,Sold,,,https://www.redfin.com/MD/Elkridge/6012-N-Meyer-Dr-21075/home/40025479,BRIGHT MLS,MDHW250318,N,Y,39.2173216,-76.7136525
PAST SALE,April-26-2019,Townhouse,7711 Longbottom Rd,Elkridge,MD,21075,380000,4,3.5,BLUE STREAM,2000,1291,2013,954,190,103,Sold,,,https://www.redfin.com/MD/Elkridge/7711-Longbottom-Rd-21075/home/44625563,BRIGHT MLS,MDHW250494,N,Y,39.1787984,-76.7747548
PAST SALE,June-17-2021,Single Family Residential,6404 Woodland Forest Dr,Elkridge,MD,21075,430000,3,3.5,NOTTINGHAM VILLAGE,2268,4416,1993,171,190,26,Sold,,,https://www.redfin.com/MD/Elkridge/6404-Woodland-Forest-Dr-21075/home/9889783,BRIGHT MLS,MDHW294278,N,Y,39.1958576,-76.7752871
PAST SALE,April-2-2021,Single Family Residential,5900 Clear Ridge Rd,Elkridge,MD,21075,708000,4,3.5,Elkridge,2600,16070,1996,247,272,30,Sold,,,https://www.redfin.com/MD/Elkridge/5900-Clear-Ridge-Rd-21075/home/9893615,BRIGHT MLS,MDHW290114,N,Y,39.2115491,-76.7763689
PAST SALE,June-25-2020,Townhouse,6214 Stratford Ct,Elkridge,MD,21075,361000,4,3.0,WILLOWOOD,1520,1700,1992,528,238,46,Sold,,,https://www.redfin.com/MD/Elkridge/6214-Stratford-Ct-21075/home/9885901,BRIGHT MLS,MDHW279270,N,Y,39.199768,-76.778812
PAST SALE,August-2-2021,Single Family Residential,6571 Huntshire Dr,Elkridge,MD,21075,425000,4,3.5,NOTTINGHAM VILLAGE,1890,4028,1991,125,225,26,Sold,,,https://www.redfin.com/MD/Elkridge/6571-Huntshire-Dr-21075/home/9886450,BRIGHT MLS,MDHW296206,N,Y,39.1944792,-76.7716359
PAST SALE,January-17-2020,Single Family Residential,7810 Grassy Garth,Elkridge,MD,21075,407000,4,2.5,THOMPSONS PURCHASE,2456,6044,1984,688,166,,Sold,,,https://www.redfin.com/MD/Elkridge/7810-Grassy-Garth-21075/home/9865374,BRIGHT MLS,MDHW273480,N,Y,39.1949035,-76.7819132
PAST SALE,May-15-2020,Townhouse,6922 Norwood Fry #66,Elkridge,MD,21075,367000,3,2.5,BELMONT STATION,2440,,2010,569,150,125,Sold,,,https://www.redfin.com/MD/ELKRIDGE/6922-NORWOOD-FRY-21075/unit-66/home/40025468,BRIGHT MLS,MDHW274528,N,Y,39.19247,-76.746511
PAST SALE,August-16-2019,Single Family Residential,8041 Somerville Ln,Elkridge,MD,21075,439000,3,2.5,ARBOR WOODS,1680,6460,1999,842,261,15,Sold,,,https://www.redfin.com/MD/Elkridge/8041-Somerville-Ln-21075/home/9899096,BRIGHT MLS,MDHW266982,N,Y,39.1939632,-76.7907474
PAST SALE,October-8-2020,Townhouse,7094 Water Oak Rd #120,Elkridge,MD,21075,323000,3,3.0,Elkridge,1944,,2005,423,166,238,Sold,,,https://www.redfin.com/MD/Elkridge/7094-Water-Oak-Rd-21075/unit-120/home/12278160,BRIGHT MLS,MDHW283538,N,Y,39.1816255,-76.7783265
PAST SALE,February-14-2020,Townhouse,7281 Darby Downs,Elkridge,MD,21075,349950,3,2.5,ELKRIDGE CROSSING,2600,,2007,660,135,170,Sold,,,https://www.redfin.com/MD/Elkridge/7281-Darby-Downs-21075/home/23434210,BRIGHT MLS,MDHW273694,N,Y,39.209696,-76.726234
PAST SALE,August-2-2021,Townhouse,7428 Wild Honey Way,Elkridge,MD,21075,415000,3,4.0,HOWARD SQUARE,1754,1205,2015,125,237,66,Sold,,,https://www.redfin.com/MD/Elkridge/7428-Wild-Honey-Way-21075/home/108436959,BRIGHT MLS,MDHW295466,N,Y,39.1765428,-76.7819584
PAST SALE,September-4-2020,Townhouse,6475 Park Forest Cir,Elkridge,MD,21075,493500,4,2.5,PARK FOREST,2352,3091,2016,457,210,215,Sold,,,https://www.redfin.com/MD/Elkridge/6475-Park-Forest-Cir-21075/home/102793661,BRIGHT MLS,MDHW274766,N,Y,39.2148521,-76.7613002
PAST SALE,October-7-2021,Townhouse,7761 Coriander Pl,Elkridge,MD,21075,467000,4,3.0,BLUE STREAM,2000,1291,2013,59,234,,Sold,,,https://www.redfin.com/MD/Elkridge/7761-Coriander-Pl-21075/home/44625558,BRIGHT MLS,MDHW2003060,N,Y,39.1788142,-76.7743743
PAST SALE,May-22-2020,Townhouse,7080 Water Oak Rd #197,Elkridge,MD,21075,325000,3,3.0,WATERS EDGE,2376,,2005,562,137,238,Sold,,,https://www.redfin.com/MD/Elkridge/7080-Water-Oak-Rd-21075/unit-197/home/10224603,BRIGHT MLS,MDHW277952,N,Y,39.1811997,-76.7782733
PAST SALE,October-23-2020,Single Family Residential,6416 Ivy Ter,Elkridge,MD,21075,375000,3,2.0,Elkridge,1624,11108,1998,408,231,,Sold,,,https://www.redfin.com/MD/Elkridge/6416-Ivy-Ter-21075/home/9900182,BRIGHT MLS,MDHW284348,N,Y,39.190883,-76.7414752
PAST SALE,September-20-2021,Townhouse,6324 Troy Ct,Elkridge,MD,21075,437500,3,2.5,WILLOWOOD,2014,2125,1993,76,217,50,Sold,,,https://www.redfin.com/MD/Elkridge/6324-Troy-Ct-21075/home/9887130,BRIGHT MLS,MDHW2003218,N,Y,39.197506,-76.777612
PAST SALE,August-18-2020,Townhouse,6450 Ducketts Ln Unit 6-5,Elkridge,MD,21075,260000,2,3.0,MARBLE HILL,1024,,1983,474,254,121,Sold,,,https://www.redfin.com/MD/Elkridge/6450-Ducketts-Ln-21075/unit-6-5/home/9867107,BRIGHT MLS,MDHW280964,N,Y,39.2000741,-76.7493546
PAST SALE,July-29-2021,Townhouse,6259 Sandpiper Ct #2,Elkridge,MD,21075,253000,3,2.0,ELKRIDGE TOWN CENTER,1160,,1994,129,218,270,Sold,,,https://www.redfin.com/MD/Elkridge/6259-Sandpiper-Ct-21075/unit-2/home/9893055,BRIGHT MLS,MDHW296092,N,Y,39.207536,-76.7358115
PAST SALE,June-15-2020,Townhouse,7137 Fox Harbor Way #80,Elkridge,MD,21075,343000,3,2.5,VILLAGE TOWNS,2100,,2005,538,163,165,Sold,,,https://www.redfin.com/MD/Elkridge/7137-Fox-Harbor-Way-21075/unit-80/home/10396961,BRIGHT MLS,MDHW278366,N,Y,39.17789925878796,-76.78494947990113
PAST SALE,October-28-2021,Condo/Co-op,7335 Brookview Rd #105,Elkridge,MD,21075,375000,2,2.0,ELKRIDGE,1500,,2006,38,250,416,Sold,,,https://www.redfin.com/MD/Elkridge/7335-Brookview-Rd-21075/unit-105/home/23432916,BRIGHT MLS,MDHW2005218,N,Y,39.2031341,-76.7616958
PAST SALE,September-9-2019,Single Family Residential,5922 Hunt Club Rd,Elkridge,MD,21075,339000,3,1.5,HUNT CLUB ESTATES,1700,14984,1958,818,199,,Sold,,,https://www.redfin.com/MD/Elkridge/5922-Hunt-Club-Rd-21075/home/9858999,BRIGHT MLS,MDHW267724,N,Y,39.2081381,-76.7429632
PAST SALE,July-9-2021,Single Family Residential,6114 Rainbow Dr,Elkridge,MD,21075,590000,5,3.5,MELBOURNE ESTATES,2614,13634,1993,149,226,,Sold,,,https://www.redfin.com/MD/Elkridge/6114-Rainbow-Dr-21075/home/9882132,BRIGHT MLS,MDHW295572,N,Y,39.2022703,-76.7512591
PAST SALE,January-14-2021,Single Family Residential,6939 Linden Ave,Elkridge,MD,21075,425000,3,3.0,Elkridge,2182,11250,1952,325,195,,Sold,,,https://www.redfin.com/MD/Elkridge/6939-Linden-Ave-21075/home/9862989,BRIGHT MLS,MDHW287430,N,Y,39.1783663,-76.7509886
PAST SALE,,Townhouse,6006 Rock Glen Dr,Elkridge,MD,21075,265000,,1.5,,1540,1698,1987,,172,,,,,https://www.redfin.com/MD/Elkridge/6006-Rock-Glen-Dr-21075/home/9871302,,,N,Y,39.2077546,-76.7327278
PAST SALE,July-22-2021,Single Family Residential,6685 Huntshire Dr,Elkridge,MD,21075,460000,3,3.5,NOTTINGHAM VILLAGE,2235,4910,1997,136,206,26,Sold,,,https://www.redfin.com/MD/Elkridge/6685-Huntshire-Dr-21075/home/9895257,BRIGHT MLS,MDHW296062,N,Y,39.1971064,-76.7733037
PAST SALE,September-15-2021,Single Family Residential,6026 Joseph Scott Dr,Elkridge,MD,21075,720000,5,3.5,HUNTERS RIDGE,4170,8400,2008,81,173,29,Sold,,,https://www.redfin.com/MD/Elkridge/6026-Joseph-Scott-Dr-21075/home/10224339,BRIGHT MLS,MDHW2001986,N,Y,39.2094915,-76.7118486
PAST SALE,October-31-2019,Condo/Co-op,7211 Darby Downs,Elkridge,MD,21075,297000,3,2.5,ELKRIDGE CROSSING,1600,,2008,766,186,115,Sold,,,https://www.redfin.com/MD/Elkridge/7211-Darby-Downs-21075/unit-7211/home/23434621,BRIGHT MLS,MDHW270560,N,Y,39.209033,-76.727526
PAST SALE,November-19-2021,Condo/Co-op,6395 Green Field Rd #1404,Elkridge,MD,21075,220000,2,2.0,ROCKBURN COMMONS,1048,,1989,16,210,282,Sold,,,https://www.redfin.com/MD/Elkridge/6395-Greenfield-Rd-21075/unit-1404/home/9880143,BRIGHT MLS,MDHW2005774,N,Y,39.206771,-76.732212
PAST SALE,May-23-2019,Townhouse,6610 Ducketts Ln Unit 19-6,Elkridge,MD,21075,235000,4,1.5,MARBLE HILL,1368,,1981,927,172,119,Sold,,,https://www.redfin.com/MD/Elkridge/6610-Ducketts-Ln-21075/unit-19-6/home/9866458,BRIGHT MLS,MDHW261334,N,Y,39.2003063,-76.7473817
PAST SALE,August-19-2019,Townhouse,7129 Deep Falls Way #36,Elkridge,MD,21075,317000,3,2.5,VILLAGE TOWNS,1660,,2007,839,191,165,Sold,,,https://www.redfin.com/MD/Elkridge/7129-Deep-Falls-Way-21075/unit-36/home/12524591,BRIGHT MLS,MDHW266232,N,Y,39.1777036,-76.7837233
PAST SALE,September-14-2020,Townhouse,7994 Blue Stream Dr,Elkridge,MD,21075,445000,4,4.0,BLUE STREAM,2020,1495,2016,447,220,103,Sold,,,https://www.redfin.com/MD/Elkridge/7994-Blue-Stream-Dr-21075/home/108438103,BRIGHT MLS,MDHW283044,N,Y,39.182719,-76.774288
PAST SALE,October-30-2019,Single Family Residential,4943 Pale Morning Dun Rd,Elkridge,MD,21075,645000,5,3.5,CASCADE OVERLOOK,4290,6768,2006,767,150,33,Sold,,,https://www.redfin.com/MD/Elkridge/4943-Pale-Morning-Dun-Rd-21075/home/10220320,BRIGHT MLS,MDHW270554,N,Y,39.2358375,-76.7637921
PAST SALE,September-14-2021,Single Family Residential,6612 Huntshire Dr,Elkridge,MD,21075,423000,4,3.5,NOTTINGHAM VILLAGE,1758,4922,1997,82,241,26,Sold,,,https://www.redfin.com/MD/Elkridge/6612-Huntshire-Dr-21075/home/9895636,BRIGHT MLS,MDHW2003014,N,Y,39.1957068,-76.7705089
PAST SALE,August-30-2021,Townhouse,5817 Rowanberry Dr Unit 2B,Elkridge,MD,21075,255000,2,1.5,QUAIL RIDGE,930,15855,1985,97,274,120,Sold,,,https://www.redfin.com/MD/Elkridge/5817-Rowanberry-Dr-21075/unit-2B/home/9870983,BRIGHT MLS,MDHW2002074,N,Y,39.209416,-76.735149
PAST SALE,October-30-2020,Townhouse,7819 Marioak Dr,Elkridge,MD,21075,300000,4,3.0,MAYFIELD MANOR,1800,4162,1983,401,167,,Sold,,,https://www.redfin.com/MD/Elkridge/7819-Marioak-Dr-21075/home/9866776,BRIGHT MLS,MDHW285300,N,Y,39.192202,-76.782758
PAST SALE,October-26-2021,Single Family Residential,6066 Claire Dr,Elkridge,MD,21075,435000,4,2.5,ELKRIDGE HEIGHTS,1588,12005,1983,40,274,,Sold,,,https://www.redfin.com/MD/Elkridge/6066-Claire-Dr-21075/home/9866210,BRIGHT MLS,MDHW2003688,N,Y,39.2105849,-76.7209583
PAST SALE,October-25-2019,Condo/Co-op,6150 Shadywood Rd #405,Elkridge,MD,21075,295000,2,2.0,MAPLECREST,1500,,2006,772,197,426,Sold,,,https://www.redfin.com/MD/Elkridge/6150-Shadywood-21075/unit-405/home/23432583,BRIGHT MLS,MDHW268408,N,Y,39.203623,-76.7627119
PAST SALE,November-12-2020,Single Family Residential,6521 Meadowfield Ct,Elkridge,MD,21075,514900,4,3.0,WILLOWOOD,2354,6300,1995,388,219,24,Sold,,,https://www.redfin.com/MD/Elkridge/6521-Meadowfield-Ct-21075/home/9891723,BRIGHT MLS,MDHW284758,N,Y,39.1998264,-76.772312
PAST SALE,June-30-2021,Single Family Residential,5846 Claremont Dr,Elkridge,MD,21075,765000,4,3.5,Elkridge,3975,10490,2012,158,192,50,Sold,,,https://www.redfin.com/MD/Elkridge/5846-Claremont-Dr-21075/home/44593960,BRIGHT MLS,MDHW293678,N,Y,39.2169127,-76.7156368
PAST SALE,,Single Family Residential,7883 Butterfield Dr,Elkridge,MD,21075,360000,,1.5,,1830,7485,1981,,197,,,,,https://www.redfin.com/MD/Elkridge/7883-Butterfield-Dr-21075/home/9866080,,,N,Y,39.1937457,-76.7853838
PAST SALE,May-24-2019,Townhouse,6325 Hampton Pl,Elkridge,MD,21075,352000,3,3.5,Elkridge,2015,1800,1994,926,175,45,Sold,,,https://www.redfin.com/MD/Elkridge/6325-Hampton-Pl-21075/home/9887007,BRIGHT MLS,MDHW261252,N,Y,39.199423,-76.777072
PAST SALE,July-20-2021,Condo/Co-op,6356 Bayberry Ct #4,Elkridge,MD,21075,235000,3,2.5,SPRINGLEAF,1290,,1994,138,182,275,Sold,,,https://www.redfin.com/MD/Elkridge/6356-Bayberry-Ct-21075/unit-4/home/9894949,BRIGHT MLS,MDHW296358,N,Y,39.2073057,-76.7359394
PAST SALE,July-17-2020,Townhouse,6847 Sanctuary Ct,Elkridge,MD,21075,350000,3,3.0,THE SANCTUARY,1780,1537,1999,506,197,8,Sold,,,https://www.redfin.com/MD/Elkridge/6847-Sanctuary-Ct-21075/home/9899296,BRIGHT MLS,MDHW280522,N,Y,39.187152,-76.787383
PAST SALE,July-20-2020,Single Family Residential,4869 Royal Coachman Dr,Elkridge,MD,21075,670000,5,3.5,CASCADE OVERLOOK,4386,7204,2006,503,153,38,Sold,,,https://www.redfin.com/MD/Elkridge/4869-Royal-Coachman-Dr-21075/home/10220300,BRIGHT MLS,MDHW280322,N,Y,39.2373149,-76.765708
PAST SALE,March-6-2020,Townhouse,7736 Valley Oak Dr #88,Elkridge,MD,21075,309900,3,2.5,WATERS EDGE,2100,,2006,639,148,238,Sold,,,https://www.redfin.com/MD/Elkridge/7736-Valley-Oak-Dr-21075/unit-88/home/12278196,BRIGHT MLS,MDHW270818,N,Y,39.1813778,-76.7798552
PAST SALE,September-24-2019,Townhouse,7826 Quidditch Ln,Elkridge,MD,21075,403000,4,3.5,BLUE STREAM,2000,1388,2013,803,202,109,Sold,,,https://www.redfin.com/MD/Elkridge/7826-Quidditch-Ln-21075/home/44625580,BRIGHT MLS,MDHW266244,N,Y,39.1790998,-76.7743405
PAST SALE,July-2-2021,Single Family Residential,5855 Claremont Dr,Elkridge,MD,21075,700000,4,3.5,LAWYERS HILL,3365,9340,2013,156,208,42,Sold,,,https://www.redfin.com/MD/Elkridge/5855-Claremont-Dr-21075/home/44625061,BRIGHT MLS,MDHW295624,N,Y,39.2178512,-76.7158172
PAST SALE,October-27-2021,Townhouse,7278 Pebble Creek Dr #19,Elkridge,MD,21075,509500,3,2.5,FAIRWAY OVERLOOK,2045,,2005,39,249,330,Sold,,,https://www.redfin.com/MD/Elkridge/7278-Pebble-Creek-Dr-21075/unit-19/home/10395600,BRIGHT MLS,MDHW2004334,N,Y,39.202763,-76.759276
PAST SALE,March-10-2021,Townhouse,8615 Blue Smoke Ct #61,Elkridge,MD,21075,470000,4,3.5,GATEWAY OVERLOOK,2544,,2008,270,185,297,Sold,,,https://www.redfin.com/MD/Elkridge/8615-Blue-Smoke-Ct-21075/unit-61/home/19000812,BRIGHT MLS,MDHW290158,N,Y,39.1854055,-76.7884581
PAST SALE,July-16-2021,Townhouse,7119 Penny Ln,Elkridge,MD,21075,360000,2,3.5,Elkridge,1424,1020,2011,142,253,56,Sold,,,https://www.redfin.com/MD/Elkridge/7119-Penny-Ln-21075/home/40025845,BRIGHT MLS,MDHW295688,N,Y,39.1756499,-76.7848767
PAST SALE,,Townhouse,7725 Owen Kellogg Ct,Elkridge,MD,21075,505000,,3.0,,2200,1694,2017,,230,,,,,https://www.redfin.com/MD/Elkridge/7725-Owen-Kellogg-Ct-21075/home/140825113,,,N,Y,39.1810505,-76.7718613
PAST SALE,July-2-2020,Townhouse,7938 Pettigrew St,Elkridge,MD,21075,400000,4,3.5,BLUE STREAM,2000,1192,2014,521,200,103,Sold,,,https://www.redfin.com/MD/Elkridge/7938-Pettigrew-St-21075/home/44625613,BRIGHT MLS,MDHW277834,N,Y,39.1801137,-76.7744757
PAST SALE,November-24-2020,Townhouse,7926 Briarglen Dr Unit C,Elkridge,MD,21075,400000,3,2.5,HEARTHSTONE AT TIMBERS,2391,,2004,376,167,302,Sold,,,https://www.redfin.com/MD/Elkridge/7926-Briarglen-Dr-21075/unit-C/home/10220193,BRIGHT MLS,MDHW285968,N,Y,39.2117137,-76.7831262
PAST SALE,August-3-2020,Condo/Co-op,7210 Darby Downs Unit M,Elkridge,MD,21075,247000,2,2.0,ELKRIDGE CROSSING,1400,,2007,489,176,335,Sold,,,https://www.redfin.com/MD/Elkridge/7210-Darby-Downs-21075/unit-M/home/17406946,BRIGHT MLS,MDHW279870,N,Y,39.2087033,-76.7272941
MLS Listing,,Townhouse,7444 Singers Way,Elkridge,MD,21075,430000,3,3.0,HOWARD SQUARE,1780,1701,2013,1,242,61,Active,,,https://www.redfin.com/MD/Elkridge/7444-Singers-Way-21075/home/44625080,BRIGHT MLS,MDHW2003486,N,Y,39.1743757,-76.7828259
MLS Listing,,Townhouse,7123 Emaly Jane Way,Elkridge,MD,21075,439990,2,2.5,ELKRIDGE CROSSING,1370,960,2021,1,321,110,Active,,,https://www.redfin.com/MD/Elkridge/7123-Emaly-Jane-WAY-21075/home/177494103,BRIGHT MLS,MDHW2007634,N,Y,39.21097982,-76.72574023
MLS Listing,,Townhouse,7127 Emaly Jane Way,Elkridge,MD,21075,469990,3,3.5,ELKRIDGE CROSSING,1845,960,2021,2,255,110,Active,,,https://www.redfin.com/MD/Elkridge/7127-Emaly-Jane-WAY-21075/unit-67E/home/177145144,BRIGHT MLS,MDHW2007630,N,Y,39.21096736,-76.72569195
MLS Listing,,Townhouse,5853 Rowanberry Dr Unit 4F,Elkridge,MD,21075,260000,2,1.5,QUAIL RIDGE,1017,,1985,2,256,120,Active,December-5-2021 01:00 PM,December-5-2021 03:00 PM,https://www.redfin.com/MD/Elkridge/5853-Rowanberry-Dr-21075/unit-4F/home/9870463,BRIGHT MLS,MDHW2007626,N,Y,39.2101555,-76.735087
MLS Listing,,Townhouse,7603 Cherrybark Oak Ln #261,Elkridge,MD,21075,388000,3,2.5,THE OAKS AT WATERS EDGE,2100,4356,2008,2,185,238,Active,,,https://www.redfin.com/MD/Elkridge/7603-Cherrybark-Oak-Ln-21075/unit-261/home/17366227,BRIGHT MLS,MDHW2006730,N,Y,39.1811551,-76.7824001
MLS Listing,,Townhouse,7334 Summit Rock Rd,Elkridge,MD,21075,447000,3,3.0,HOWARD SQUARE,1960,1463,2015,3,228,61,Active,,,https://www.redfin.com/MD/Elkridge/7334-Summit-Rock-Rd-21075/home/61799803,BRIGHT MLS,MDHW2007226,N,Y,39.1754231,-76.782147
MLS Listing,,Townhouse,7810 Marioak Dr,Elkridge,MD,21075,295000,3,1.0,MAYFIELD MANOR,1323,2828,1983,3,223,,Active,December-5-2021 01:00 PM,December-5-2021 03:00 PM,https://www.redfin.com/MD/Elkridge/7810-Marioak-Dr-21075/home/9866705,BRIGHT MLS,MDHW2007462,N,Y,39.1927,-76.7821699
MLS Listing,,Townhouse,7693 Spreading Oak Ln #132,Elkridge,MD,21075,355000,2,2.5,WATERS EDGE,1944,,2006,3,183,238,Active,December-5-2021 01:00 PM,December-5-2021 03:00 PM,https://www.redfin.com/MD/Elkridge/7693-Spreading-Oak-Ln-21075/unit-132/home/12278271,BRIGHT MLS,MDHW2007554,N,Y,39.182014,-76.778293
MLS Listing,,Townhouse,7713 Patuxent Oak Ct,Elkridge,MD,21075,350000,3,3.0,MEADOWLAND,1660,1700,1990,3,211,100,Active,December-5-2021 01:00 PM,December-5-2021 03:00 PM,https://www.redfin.com/MD/Elkridge/7713-Patuxent-Oak-Ct-21075/home/9879840,BRIGHT MLS,MDHW2007418,N,Y,39.194733,-76.7802789
MLS Listing,,Townhouse,6019 Rowanberry Dr Unit 12C,Elkridge,MD,21075,250000,2,1.5,QUAIL RIDGE,1100,2178,1986,7,227,120,Active,,,https://www.redfin.com/MD/Elkridge/6019-Rowanberry-Dr-21075/unit-12C/home/9871753,BRIGHT MLS,MDHW2007344,N,Y,39.209416,-76.735149
MLS Listing,,Single Family Residential,6592 Huntshire Dr,Elkridge,MD,21075,324900,3,2.5,Elkridge,1392,4402,1998,11,233,26,Active,,,https://www.redfin.com/MD/Elkridge/6592-Huntshire-Dr-21075/home/9895669,BRIGHT MLS,MDHW2007304,N,Y,39.1950142,-76.7707343
MLS Listing,,Single Family Residential,6409 Euclid Ave,Elkridge,MD,21075,444900,5,3.0,HARDWOOD PARK,2577,15000,1965,16,173,,Active,,,https://www.redfin.com/MD/Elkridge/6409-Euclid-Ave-21075/home/9860962,BRIGHT MLS,MDHW2007200,N,Y,39.1939483,-76.7365605
MLS Listing,,Single Family Residential,6213 Hunters Hollow Rd,Elkridge,MD,21075,669990,4,3.5,Elkridge,2356,9159,2022,17,284,42,Active,,,https://www.redfin.com/MD/ELKRIDGE/6213-HUNTERS-HOLLOW-RD-21075/home/174786378,BRIGHT MLS,MDHW2007142,N,Y,39.20404953,-76.78113774
MLS Listing,,Single Family Residential,5724 Elkridge Heights Rd,Elkridge,MD,21075,550000,3,2.0,ELKRIDGE HEIGHTS,1836,16500,1930,18,300,,Active,,,https://www.redfin.com/MD/Elkridge/5724-Elkridge-Heights-Rd-21075/home/9861450,BRIGHT MLS,MDHW2007130,N,Y,39.2135494,-76.7113976
MLS Listing,,Townhouse,7129 Emaly Jane Way,Elkridge,MD,21075,469990,3,3.5,ELKRIDGE CROSSING,1845,960,2021,27,255,110,Active,,,https://www.redfin.com/MD/Elkridge/7129-Emaly-Jane-WAY-21075/home/177145152,BRIGHT MLS,MDHW2006788,N,Y,39.21093411,-76.72582607
MLS Listing,,Townhouse,6326 Loudon Ave,Elkridge,MD,21075,389900,3,3.0,HARWOOD PARK,1885,3000,2007,37,207,,Active,,,https://www.redfin.com/MD/Elkridge/6326-Loudon-Ave-21075/home/23433984,BRIGHT MLS,MDHW2006368,N,Y,39.1973159,-76.7391855
MLS Listing,,Townhouse,7102 Water Oak Rd #127,Elkridge,MD,21075,375000,3,2.5,WATERS EDGE,1944,,2006,38,193,238,Active,,,https://www.redfin.com/MD/Elkridge/7102-Water-Oak-Rd-21075/unit-127/home/11744051,BRIGHT MLS,MDHW2006432,N,Y,39.1819346,-76.7784251
MLS Listing,,Vacant Land,6793 Athol Ave,Elkridge,MD,21075,899900,,,HARWOOD PARK,,70131,,47,,,Active,,,https://www.redfin.com/MD/Elkridge/6793-Athol-Ave-21075/home/9857442,BRIGHT MLS,MDHW2006058,N,Y,39.188901,-76.7402128
MLS Listing,,Single Family Residential,8128 Morning Breeze Dr,Elkridge,MD,21075,475000,3,2.5,MAYFIELD MANOR,1604,7012,1986,54,296,,Active,,,https://www.redfin.com/MD/Elkridge/8128-Morning-Breeze-Dr-21075/home/9870880,BRIGHT MLS,MDHW2000139,N,Y,39.1965067,-76.7927305
MLS Listing,,Townhouse,5887 Rowanberry Unit B39,Elkridge,MD,21075,275000,3,1.5,QUAIL RIDGE,1280,,1983,59,215,179,Active,,,https://www.redfin.com/MD/Elkridge/5887-Rowanberry-Dr-21075/unit-B39/home/9867747,BRIGHT MLS,MDHW2005838,N,Y,39.209416,-76.735149
MLS Listing,,Townhouse,7508 Garcia Pl,Elkridge,MD,21075,459000,3,2.5,HOWARD SQUARE,2020,1504,2017,60,227,60,Active,,,https://www.redfin.com/MD/Elkridge/7508-Garcia-Pl-21075/home/113496887,BRIGHT MLS,MDHW2005078,N,Y,39.2084654,-76.7594924
MLS Listing,,Townhouse,6407 Woodburn Ave,Elkridge,MD,21075,389000,3,4.0,HARDWOOD PARK,2357,3049,2006,60,165,,Active,,,https://www.redfin.com/MD/Elkridge/6407-Woodburn-Ave-21075/home/9863462,BRIGHT MLS,MDHW2005470,N,Y,39.1925633,-76.7390855
MLS Listing,,Townhouse,7037 Oak Grove Way #111,Elkridge,MD,21075,424000,3,2.5,VILLAGE TOWNS,2340,,2005,92,181,165,Active,,,https://www.redfin.com/MD/Elkridge/7037-Oak-Grove-Way-21075/unit-111/home/10225767,BRIGHT MLS,MDHW2004640,N,Y,39.177722,-76.785394
MLS Listing,,Condo/Co-op,7305 Maplecrest Rd #401,Elkridge,MD,21075,365000,2,2.0,MAPLECREST,1500,,2005,115,243,420,Active,,,https://www.redfin.com/MD/Elkridge/7305-Maplecrest-Rd-21075/unit-401/home/10395581,BRIGHT MLS,MDHW2001964,N,Y,39.2042374,-76.7629581
MLS Listing,,Condo/Co-op,6215 Sandpiper Ct #106,Elkridge,MD,21075,193990,2,1.0,ELKRIDGE TOWN CENTER,830,,1993,124,234,285,Active,,,https://www.redfin.com/MD/Elkridge/6215-Sandpiper-Ct-21075/unit-106/home/9890979,BRIGHT MLS,MDHW2002942,N,Y,39.2068033,-76.7351504
MLS Listing,,Single Family Residential,6286 Old Washington Rd,Elkridge,MD,21075,290000,3,2.0,Elkridge,1248,20500,1865,151,232,,Active,,,https://www.redfin.com/MD/Elkridge/6286-Old-Washington-Rd-21075/home/171164121,BRIGHT MLS,MDHW2000794,N,Y,39.2061871,-76.7253776
MLS Listing,,Vacant Land,Lawyers Hill Rd,Elkridge,MD,21075,275000,,,Elkridge,,18600,,166,,,Active,,,https://www.redfin.com/MD/ELKRIDGE/LAWYERS-HILL-RD-21075/home/9864588,BRIGHT MLS,MDHW2000510,N,Y,39.213188,-76.734308
MLS Listing,,Single Family Residential,6103 Claire Dr,Elkridge,MD,21075,599500,4,2.5,BONNIE RIDGE,,10190,2022,453,,25,Active,,,https://www.redfin.com/MD/Elkridge/6103-Claire-Dr-21075/home/10220153,BRIGHT MLS,MDHW284960,N,Y,39.2089344,-76.7212055
MLS Listing,,Vacant Land,6100 Washington Blvd,Elkridge,MD,21075,875000,,,Elkridge,,196455,,468,,,Active,,,https://www.redfin.com/MD/Elkridge/6100-Washington-Blvd-21075/home/40438631,BRIGHT MLS,MDHW284334,N,Y,39.2129252,-76.7201466
New Construction Home,,Townhouse,8069 Blue Stream Dr,Elkridge,MD,21075,617040,3,2.5,Delacour at Blue Stream - Townhome Collection,1947,,2021,62,317,,Active,,,https://www.redfin.com/MD/Elkridge/8069-Blue-Stream-Dr-21075/home/174786494,NewHomeSource.com,2088390,N,Y,39.184138,-76.777143
New Construction Home,,Townhouse,8065 Blue Stream Dr,Elkridge,MD,21075,567690,3,2.5,Delacour at Blue Stream - Townhome Collection,1947,,2021,62,292,,Active,,,https://www.redfin.com/MD/Elkridge/8065-Blue-Stream-Dr-21075/home/174786492,NewHomeSource.com,2088392,N,Y,39.184088,-76.777009
New Construction Home,,Townhouse,8061 Blue Stream Dr,Elkridge,MD,21075,551040,3,2.5,Delacour at Blue Stream - Townhome Collection,1971,,2021,62,280,,Active,,,https://www.redfin.com/MD/Elkridge/8061-Blue-Stream-Dr-21075/home/174786490,NewHomeSource.com,2088393,N,Y,39.1795,-76.7752
New Construction Home,,Townhouse,8010 Potter Pl,Elkridge,MD,21075,579040,3,2.5,Delacour at Blue Stream - Townhome Collection,1947,,2021,73,297,,Active,,,https://www.redfin.com/MD/Elkridge/8010-Potter-Pl-21075/home/174786459,NewHomeSource.com,2083579,N,Y,39.1795,-76.7752
New Construction Home,,Townhouse,8018 Potter Pl,Elkridge,MD,21075,615040,3,2.5,Delacour at Blue Stream - Townhome Collection,1947,,2021,73,316,,Active,,,https://www.redfin.com/MD/Elkridge/8018-Potter-Pl-21075/home/174786463,NewHomeSource.com,2083581,N,Y,39.1795,-76.7752
New Construction Plan,,Townhouse,Clarendon 3 Story,Elkridge,MD,21075,447990,2,2.5,Elkridge Crossing,1370,,,,327,,Active,,,https://www.redfin.com/MD/Elkridge/Elkridge-Crossing/Clarendon-3-Story/home/175165688,NewHomeSource.com,Plan-181897000,N,Y,39.210242,-76.726404
New Construction Plan,,Townhouse,Clarendon,Elkridge,MD,21075,477990,3,3.5,Elkridge Crossing,1845,,,,259,,Active,,,https://www.redfin.com/MD/Elkridge/Elkridge-Crossing/Clarendon/home/175116705,NewHomeSource.com,Plan-171895084,N,Y,39.210242,-76.726404
New Construction Plan,,Multi-Family (2-4 Unit),Arcadia Front Load Garage,Elkridge,MD,21075,529990,3,2.5,Delacour at Blue Stream - Townhome Collection,2043,,,,259,,Active,,,https://www.redfin.com/MD/Elkridge/Delacour-at-Blue-Stream-Townhome-Collection/Arcadia-Front-Load-Garage/home/177094882,NewHomeSource.com,Plan-171779853,N,Y,39.182621,-76.7751693
New Construction Plan,,Townhouse,Arcadia Rear Load Garage,Elkridge,MD,21075,541990,3,2.5,Delacour at Blue Stream - Townhome Collection,1947,,,,278,,Active,,,https://www.redfin.com/MD/Elkridge/Delacour-at-Blue-Stream-Townhome-Collection/Arcadia-Rear-Load-Garage/home/177035675,NewHomeSource.com,Plan-171779852,N,Y,39.182621,-76.7751693
PAST SALE,,Townhouse,8889 Purple Iris Ln #20,Elkridge,MD,21075,406200,,3.5,,2544,13680,2009,,160,,,,,https://www.redfin.com/MD/Elkridge/8889-Purple-Iris-Ln-21075/unit-20/home/28481076,,,N,Y,39.1816099,-76.787376
PAST SALE,,Vacant Land,FOREST AVE,ELKRIDGE,MD,21075,262500,,,,,18000,,,,,,,,https://www.redfin.com/MD/ELKRIDGE/FOREST-AVE-21075/home/9865256,,,N,Y,39.194932,-76.740039
PAST SALE,February-28-2020,Townhouse,6852 Sanctuary Ct,Elkridge,MD,21075,322500,3,2.5,THE SANCTUARY,1780,1306,1999,646,181,46,Sold,,,https://www.redfin.com/MD/Elkridge/6852-Sanctuary-Ct-21075/home/12525138,BRIGHT MLS,MDHW274396,N,Y,39.186904,-76.786813
PAST SALE,June-7-2019,Townhouse,7886 Marioak Dr,Elkridge,MD,21075,279900,3,1.5,MAYFIELD MANOR,1560,3473,1985,912,179,,Sold,,,https://www.redfin.com/MD/Elkridge/7886-Marioak-Dr-21075/home/9867856,BRIGHT MLS,MDHW262674,N,Y,39.192225,-76.785599
PAST SALE,June-29-2020,Townhouse,5821 Diggers Ln Unit 1-01,Elkridge,MD,21075,245000,3,1.5,MONTGOMERY WOODS,1476,5000,1976,524,166,137,Sold,,,https://www.redfin.com/MD/Elkridge/5821-Diggers-Ln-21075/unit-1-01/home/9863967,BRIGHT MLS,MDHW279466,N,Y,39.210775,-76.733152
PAST SALE,,Townhouse,5816 Blue Sky,Elkridge,MD,21075,215000,,2.5,,2100,2496,1996,,102,,,,,https://www.redfin.com/MD/Elkridge/5816-Blue-Sky-21075/home/9893315,,,N,Y,39.2131968,-76.7823639
PAST SALE,May-5-2020,Single Family Residential,5771 Elkridge Heights Rd,Elkridge,MD,21075,360000,5,2.0,ELKRIDGE,2300,23609,1971,579,157,,Sold,,,https://www.redfin.com/MD/Elkridge/5771-Elkridge-Heights-Rd-21075/home/9866477,BRIGHT MLS,MDHW275898,N,Y,39.2123554,-76.7100446
PAST SALE,,Townhouse,6642 Ducketts Ln Unit 28-4,Elkridge,MD,21075,194460,,1.5,,1024,62726,1984,,190,,,,,https://www.redfin.com/MD/Elkridge/6642-Ducketts-Ln-21075/unit-28-4/home/9869360,,,N,Y,39.1997551,-76.7471728
PAST SALE,May-1-2020,Single Family Residential,6069 Augustine Ave,Elkridge,MD,21075,424999,3,3.5,MOUNT AUGUSTINE,2633,8951,1989,583,161,,Sold,,,https://www.redfin.com/MD/Elkridge/6069-Augustine-Ave-21075/home/9870025,BRIGHT MLS,MDHW270892,N,Y,39.2068684,-76.7129761
PAST SALE,May-24-2021,Townhouse,7315 Elkridge Crossing Way,Elkridge,MD,21075,491095,3,2.5,ELKRIDGE CROSSING,1845,960,2021,195,266,110,Sold,,,https://www.redfin.com/MD/Elkridge/7315-Elkridge-Crossing-Way-21075/home/175598898,BRIGHT MLS,MDHW2001614,N,Y,39.2107027,-76.7254892
PAST SALE,October-21-2019,Vacant Land,Hunt Club Rd,Elkridge,MD,21075,90000,,,Elkridge,,41382,,776,,,Sold,,,https://www.redfin.com/MD/ELKRIDGE/HUNT-CLUB-RD-21075/home/9860875,BRIGHT MLS,1000316684,N,Y,39.209673,-76.741203
PAST SALE,,Other,7040 Elm Ave,Elkridge,MD,21075,240000,,,,,3750,,,,,,,,https://www.redfin.com/MD/Elkridge/7040-Elm-Ave-21075/home/9861690,,,N,Y,39.1772951,-76.7513943
PAST SALE,July-29-2019,Townhouse,6346 Ducketts Ln Unit 1-3,Elkridge,MD,21075,246000,3,1.5,MARBLE HILL,1480,,1980,860,166,119,Sold,,,https://www.redfin.com/MD/Elkridge/6346-Ducketts-Ln-21075/unit-1-3/home/9864936,BRIGHT MLS,MDHW265980,N,Y,39.2014242,-76.7484576
PAST SALE,February-1-2019,Condo/Co-op,6415 Green Field Rd #1309,Elkridge,MD,21075,184900,2,2.0,ROCKBURN COMMONS,863,,1990,1038,214,275,Sold,,,https://www.redfin.com/MD/Elkridge/6415-Greenfield-Rd-21075/unit-1309/home/9882649,BRIGHT MLS,MDHW182886,N,Y,39.206771,-76.732212
PAST SALE,March-8-2019,Townhouse,7721 English Oak Cir #24,Elkridge,MD,21075,287500,2,2.5,WATERS EDGE,1944,,2005,1003,148,238,Sold,,,https://www.redfin.com/MD/Elkridge/7721-English-Oak-Cir-21075/unit-24/home/10395656,BRIGHT MLS,MDHW209218,N,Y,39.179364,-76.7780015
PAST SALE,September-2-2021,Townhouse,7206 Elkridge Crossing Way,Elkridge,MD,21075,320000,3,2.5,ELKRIDGE CROSSING,1600,1,2007,94,200,128,Sold,,,https://www.redfin.com/MD/Elkridge/7206-Elkridge-Crossing-Way-21075/home/17406929,BRIGHT MLS,MDHW2001954,N,Y,39.209348,-76.727888
PAST SALE,May-29-2020,Single Family Residential,5954 Old Washington Rd,Elkridge,MD,21075,255000,2,2.0,ELKRIDGE,1096,14157,1940,555,233,,Sold,,,https://www.redfin.com/MD/Elkridge/5954-Old-Washington-Rd-21075/home/9861140,BRIGHT MLS,MDHW280070,N,Y,39.212282,-76.7142388
PAST SALE,,Townhouse,6218 Manchester Way,Elkridge,MD,21075,330300,,3.5,,2179,2439,1990,,152,,,,,https://www.redfin.com/MD/Elkridge/6218-Manchester-Way-21075/home/9874585,,,N,Y,39.1983958,-76.7793098
PAST SALE,February-24-2021,Single Family Residential,6625 Pheasant Dr,Elkridge,MD,21075,380000,4,2.5,HUNT CLUB ESTATES,2512,16465,1958,284,151,,Sold,,,https://www.redfin.com/MD/Elkridge/6625-Pheasant-Dr-21075/home/9860440,BRIGHT MLS,MDHW289950,N,Y,39.2065852,-76.7395364
PAST SALE,,Single Family Residential,6846 Dorsey Rd,Elkridge,MD,21075,270000,,1.0,,1401,34711,1915,,193,,,,,https://www.redfin.com/MD/Elkridge/6846-Dorsey-Rd-21075/home/9859700,,,N,Y,39.1828634,-76.7543248
PAST SALE,June-14-2019,Townhouse,6287 Sandpiper Ct #4,Elkridge,MD,21075,222500,3,2.5,SPRINGLEAF,1181,,1995,905,188,265,Sold,,,https://www.redfin.com/MD/Elkridge/6287-Sandpiper-Ct-21075/unit-4/home/9895749,BRIGHT MLS,MDHW261638,N,Y,39.207689,-76.736109
PAST SALE,September-17-2021,Townhouse,7593 Cherrybark Oak Ln #258,Elkridge,MD,21075,375000,4,2.5,THE OAKS AT WATERS EDGE,2056,,2009,79,182,238,Sold,,,https://www.redfin.com/MD/Elkridge/7593-Cherrybark-Oak-Ln-21075/unit-258/home/18446492,BRIGHT MLS,MDHW2002482,N,Y,39.181132,-76.782011
PAST SALE,,Single Family Residential,7343 Montgomery Rd,Elkridge,MD,21075,185000,,1.0,,820,14020,1937,,226,,,,,https://www.redfin.com/MD/Elkridge/7343-Montgomery-Rd-21075/home/9859226,,,N,Y,39.206307,-76.7264148
PAST SALE,May-15-2019,Single Family Residential,7860 Milkshed Pl,Elkridge,MD,21075,426500,4,2.5,ELKRIDGE,2380,7051,1983,935,179,,Sold,,,https://www.redfin.com/MD/Elkridge/7860-Milkshed-Pl-21075/home/9865426,BRIGHT MLS,MDHW260890,N,Y,39.1960343,-76.7837612
PAST SALE,June-13-2019,Single Family Residential,8145 Morning Breeze Dr,Elkridge,MD,21075,480000,4,3.5,THOMPSONS PURCHASE,2332,7737,1986,906,206,,Sold,,,https://www.redfin.com/MD/Elkridge/8145-Morning-Breeze-Dr-21075/home/9870849,BRIGHT MLS,MDHW262258,N,Y,39.1963064,-76.7937671
PAST SALE,,Single Family Residential,6334 Old Washington Rd,Elkridge,MD,21075,175000,,1.0,,980,21000,1952,,179,,,,,https://www.redfin.com/MD/Elkridge/6334-Old-Washington-Rd-21075/home/9857590,,,N,Y,39.2049936,-76.7281734
PAST SALE,,Single Family Residential,6944 Linden Ave,Elkridge,MD,21075,250000,,2.0,,1621,22500,1954,,154,,,,,https://www.redfin.com/MD/Elkridge/6944-Linden-Ave-21075/home/9857515,,,N,Y,39.1788003,-76.7509435
PAST SALE,August-27-2020,Single Family Residential,7140 Starmount,New Market,MD,21774,680898,3,3.5,LAKE LINGANORE WOODRIDGE,,8428,2020,465,,163,Sold,,,https://www.redfin.com/MD/New-Market/7140-Starmount-21774/home/173281954,BRIGHT MLS,MDFR270744,N,Y,39.17576,-76.7509
PAST SALE,March-27-2020,Townhouse,6229 Sutton Ct,Elkridge,MD,21075,370000,3,3.5,WILLOWOOD,1690,2178,1991,618,219,45,Sold,,,https://www.redfin.com/MD/Elkridge/6229-Sutton-Ct-21075/home/9874816,BRIGHT MLS,MDHW275180,N,Y,39.200132,-76.777366
PAST SALE,November-8-2021,Townhouse,7057 Holly Springs Ln #196,Elkridge,MD,21075,350000,3,3.0,VILLAGE TOWNS,2102,,2008,27,167,160,Sold,,,https://www.redfin.com/MD/Elkridge/7057-Holly-Springs-Ln-21075/unit-196/home/23434789,BRIGHT MLS,MDHW2006810,N,Y,39.1783763,-76.7848055
PAST SALE,November-19-2020,Townhouse,7725 Patuxent Oak Ct,Elkridge,MD,21075,345580,3,3.0,MEADOWLAND,1160,2285,1990,381,298,100,Sold,,,https://www.redfin.com/MD/Elkridge/7725-Patuxent-Oak-Ct-21075/home/9879856,BRIGHT MLS,MDHW286810,N,Y,39.195091,-76.780312
PAST SALE,December-6-2019,Townhouse,5868 Whisper Way Unit 15-04,Elkridge,MD,21075,243000,3,2.0,MONTGOMERY WOODS,1576,,1976,730,154,135,Sold,,,https://www.redfin.com/MD/Elkridge/5868-Whisper-Way-21075/unit-15-04/home/9864151,BRIGHT MLS,MDHW270888,N,Y,39.2103174,-76.7346405
PAST SALE,,Single Family Residential,6404 Beechfield Ave,Elkridge,MD,21075,324500,,3.0,,1920,5967,1935,,169,,,,,https://www.redfin.com/MD/Elkridge/6404-Beechfield-Ave-21075/home/9861244,,,N,Y,39.1932506,-76.7377779
PAST SALE,,Single Family Residential,5671 Railroad Ave,Elkridge,MD,21075,251868,,1.0,,2406,13940,1860,,105,,,,,https://www.redfin.com/MD/Elkridge/5671-Railroad-Ave-21075/home/9859030,,,N,Y,39.2146851,-76.7091426
PAST SALE,,Townhouse,6375 Forest Ave,Elkridge,MD,21075,300000,,2.5,,1724,3000,2008,,174,,,,,https://www.redfin.com/MD/Elkridge/6375-Forest-Ave-21075/home/23427601,,,N,Y,39.1944289,-76.7395444
PAST SALE,November-3-2021,Townhouse,7015 Mahant Way,Elkridge,MD,21075,480675,3,3.5,ELKRIDGE CROSSING,1845,960,2021,32,261,110,Sold,,,https://www.redfin.com/MD/Elkridge/7015-Mahant-WAY-21075/home/177052865,BRIGHT MLS,MDHW2006644,N,Y,39.17854526,-76.77797156
PAST SALE,March-20-2020,Townhouse,5883 Critter Ct Unit 7-07,Elkridge,MD,21075,249000,3,2.0,MONTGOMERY WOODS,1576,,1976,625,158,137,Sold,,,https://www.redfin.com/MD/Elkridge/5883-Critter-Ct-21075/unit-7-07/home/9864431,BRIGHT MLS,MDHW275558,N,Y,39.2086517,-76.732926
PAST SALE,April-26-2019,Single Family Residential,6717 Lowes Ln,Elkridge,MD,21075,565000,5,3.5,GOSHEN ESTATES,3772,10662,1999,954,150,,Sold,,,https://www.redfin.com/MD/Elkridge/6717-Lowes-Ln-21075/home/9898084,BRIGHT MLS,MDHW251044,N,Y,39.2027137,-76.7426475
PAST SALE,,Condo/Co-op,7102 Daniel John Dr #7102,Elkridge,MD,21075,320000,,,,1600,,2011,,200,,,,,https://www.redfin.com/MD/Elkridge/7102-Daniel-John-Dr-21075/unit-7102/home/44625154,,,N,Y,39.21035,-76.727153
PAST SALE,,Townhouse,7169 Deep Falls Way #142,Elkridge,MD,21075,360000,4,3.5,,2340,8073,2007,,154,,,,,https://www.redfin.com/MD/Elkridge/7169-Deep-Falls-Way-21075/unit-142/home/17406988,,,N,Y,39.1788066,-76.7839887
PAST SALE,October-8-2021,Townhouse,6430 Rockledge Ct,Elkridge,MD,21075,315000,3,2.5,ROCKBURN COMMONS,1680,1698,1988,58,188,46,Sold,,,https://www.redfin.com/MD/Elkridge/6430-Rockledge-Ct-21075/home/9872603,BRIGHT MLS,MDHW2004498,N,Y,39.2081188,-76.7306986
PAST SALE,March-15-2019,Single Family Residential,6357 Merle Way,Elkridge,MD,21075,472000,4,3.5,WILLIAMS KNOLL,3300,6844,2000,996,143,34,Sold,,,https://www.redfin.com/MD/Elkridge/6357-Merle-Way-21075/home/9900143,BRIGHT MLS,MDHW209884,N,Y,39.2008255,-76.7276774
PAST SALE,July-10-2019,Townhouse,7299 Pebble Creek Dr #14,Elkridge,MD,21075,465000,3,3.5,FAIRWAY OVERLOOK,3445,,2005,879,135,305,Sold,,,https://www.redfin.com/MD/Elkridge/7299-Pebble-Creek-Dr-21075/unit-14/home/10224501,BRIGHT MLS,MDHW114910,N,Y,39.202609,-76.758632
PAST SALE,May-29-2019,Townhouse,6303 Troy Ct,Elkridge,MD,21075,360000,3,3.5,WILLOWOOD,1620,2125,1994,921,222,45,Sold,,,https://www.redfin.com/MD/Elkridge/6303-Troy-Ct-21075/home/9887178,BRIGHT MLS,MDHW262226,N,Y,39.198361,-76.7768
PAST SALE,August-27-2019,Townhouse,5904 Rowanberry Dr,Elkridge,MD,21075,175000,2,1.5,QUAIL RIDGE,900,,1986,831,194,112,Sold,,,https://www.redfin.com/MD/Elkridge/5904-Rowanberry-Dr-21075/unit-20B/home/9871148,BRIGHT MLS,MDHW100235,N,Y,39.208522,-76.7357229
PAST SALE,August-20-2021,Townhouse,6920 Red Clay Frg #6,Elkridge,MD,21075,430000,4,2.5,BELMONT STATION,2040,,2008,107,211,157,Sold,,,https://www.redfin.com/MD/Elkridge/6920-Red-Clay-Frg-21075/unit-6/home/11744194,BRIGHT MLS,MDHW2001370,N,Y,39.192143,-76.748066
PAST SALE,October-27-2021,Townhouse,7023 Mahant Way,Elkridge,MD,21075,461325,3,2.5,ELKRIDGE CROSSING,1845,960,2021,39,250,110,Sold,,,https://www.redfin.com/MD/Elkridge/7023-Mahant-WAY-21075/home/175683102,BRIGHT MLS,MDHW2001888,N,Y,39.17866734,-76.77827657
PAST SALE,April-10-2020,Townhouse,6389-A Forest Ave,Elkridge,MD,21075,363400,4,3.5,HARWOOD PARK,2133,3000,2019,604,170,,Sold,,,https://www.redfin.com/MD/Elkridge/6389-Forest-Ave-21075/home/160499205,BRIGHT MLS,MDHW230024,N,Y,39.1939634,-76.7391346
PAST SALE,,Single Family Residential,7324 Point Patience Way,Elkridge,MD,21075,280000,,2.5,,1944,3686,1999,,144,,,,,https://www.redfin.com/MD/Elkridge/7324-Point-Patience-Way-21075/home/10224376,,,N,Y,39.1794738,-76.78002
PAST SALE,July-5-2019,Townhouse,6247 Sandpiper Ct #8,Elkridge,MD,21075,230000,3,2.5,SPRINGLEAF,1143,,1994,884,201,265,Sold,,,https://www.redfin.com/MD/Elkridge/6247-Sandpiper-Ct-21075/unit-8/home/9893088,BRIGHT MLS,MDHW263358,N,Y,39.2074913,-76.7356041
PAST SALE,May-23-2019,Townhouse,7207 Darby Downs,Elkridge,MD,21075,295000,3,2.5,ELKRIDGE CROSSING,1600,,2008,927,184,170,Sold,,,https://www.redfin.com/MD/Elkridge/7207-Darby-Downs-21075/unit-7207/home/23434800,BRIGHT MLS,MDHW251846,N,Y,39.208997,-76.727596
PAST SALE,November-9-2021,Townhouse,7030 Water Oak Rd #32,Elkridge,MD,21075,360000,3,2.5,WATERS EDGE,1944,,2005,26,185,238,Sold,,,https://www.redfin.com/MD/Elkridge/7030-Water-Oak-Rd-21075/unit-32/home/10244996,BRIGHT MLS,MDHW2003276,N,Y,39.1795014,-76.778116
PAST SALE,January-30-2020,Townhouse,7808 Marioak Dr,Elkridge,MD,21075,250000,2,1.5,MAYFIELD MANOR,1200,4077,1983,675,208,,Sold,,,https://www.redfin.com/MD/Elkridge/7808-Marioak-Dr-21075/home/9866708,BRIGHT MLS,MDHW270562,N,Y,39.192748,-76.7820349
PAST SALE,March-13-2019,Townhouse,6335 Arbor Way,Elkridge,MD,21075,355000,3,3.0,WILLOWOOD,1920,1600,1995,998,185,45,Sold,,,https://www.redfin.com/MD/Elkridge/6335-Arbor-Way-21075/home/9889275,BRIGHT MLS,MDHW209430,N,Y,39.197778,-76.775865
PAST SALE,November-30-2021,Townhouse,7831 Marioak Dr,Elkridge,MD,21075,340000,3,1.5,MAYFIELD MANOR,1323,3641,1983,5,257,,Sold,,,https://www.redfin.com/MD/Elkridge/7831-Marioak-Dr-21075/home/9866792,BRIGHT MLS,MDHW2005908,N,Y,39.1922019,-76.7834002
PAST SALE,June-24-2019,Townhouse,6346 Green Field Rd,Elkridge,MD,21075,245000,2,2.5,ROCKBURN COMMONS I,1405,1742,1989,895,174,42,Sold,,,https://www.redfin.com/MD/Elkridge/6346-Greenfield-Rd-21075/home/9872737,BRIGHT MLS,MDHW100848,N,Y,39.2064774,-76.7303942
PAST SALE,January-29-2020,Townhouse,7268 Elkridge Crossing Way,Elkridge,MD,21075,340000,3,2.5,ELKRIDGE CROSSING,2600,,2007,676,131,208,Sold,,,https://www.redfin.com/MD/Elkridge/7268-Elkridge-Crossing-Way-21075/home/23434236,BRIGHT MLS,MDHW272582,N,Y,39.209933,-76.726739
PAST SALE,November-18-2021,Townhouse,6003 Rowanberry Dr Unit 11E,Elkridge,MD,21075,245100,2,2.0,QUAIL RIDGE,1155,,1986,17,212,120,Sold,,,https://www.redfin.com/MD/Elkridge/6003-Rowanberry-Dr-21075/unit-11E/home/176874687,BRIGHT MLS,MDHW2006118,N,Y,39.209416,-76.735149
PAST SALE,January-12-2021,Townhouse,5928 Rowanberry Dr Unit 19E,Elkridge,MD,21075,245000,2,2.0,QUAIL RIDGE,1110,,1986,327,221,115,Sold,,,https://www.redfin.com/MD/Elkridge/5928-Rowanberry-Dr-21075/unit-19E/home/23433571,BRIGHT MLS,MDHW286840,N,Y,39.208522,-76.7357229
PAST SALE,February-25-2020,Townhouse,6391-B Forest Ave,Elkridge,MD,21075,365400,4,3.5,HARWOOD PARK,2133,3000,2019,649,171,,Sold,,,https://www.redfin.com/MD/Elkridge/6389-Forest-Ave-21075/unit-B/home/9858296,BRIGHT MLS,MDHW276124,N,Y,39.193834,-76.738991
PAST SALE,,Townhouse,7008 Ducketts Ln Unit 44-1,Elkridge,MD,21075,260000,,2.5,,1524,89734,1985,,171,,,,,https://www.redfin.com/MD/Elkridge/7008-Ducketts-Ln-21075/unit-44-1/home/9870554,,,N,Y,39.1997551,-76.7471728
PAST SALE,November-15-2021,Townhouse,5827 Diggers Ln Unit 1-04,Elkridge,MD,21075,250000,3,2.0,MONTGOMERY WOODS,1188,,1976,20,210,137,Sold,,,https://www.redfin.com/MD/Elkridge/5827-Diggers-Ln-21075/unit-1-04/home/9863981,BRIGHT MLS,MDHW2004966,N,Y,39.210769,-76.732966
PAST SALE,August-2-2019,Single Family Residential,6222 Latchlift Ct,Elkridge,MD,21075,600000,4,3.5,GABLES AT LAWYERS HILL,2565,14000,1994,856,234,31,Sold,,,https://www.redfin.com/MD/Elkridge/6222-Latchlift-Ct-21075/home/9887685,BRIGHT MLS,MDHW265122,N,Y,39.2132176,-76.7257835
PAST SALE,April-29-2021,Condo/Co-op,6400 Green Field Rd #904,Elkridge,MD,21075,207000,2,1.0,ROCKBURN COMMONS III,833,,1989,220,248,282,Sold,,,https://www.redfin.com/MD/Elkridge/6400-Greenfield-Rd-21075/unit-904/home/9878963,BRIGHT MLS,MDHW292244,N,Y,39.2077875,-76.7318034
PAST SALE,April-25-2019,Townhouse,6411 Rockledge Ct,Elkridge,MD,21075,275000,3,2.0,ROCKBURN COMMONS,1445,1960,1988,955,190,42,Sold,,,https://www.redfin.com/MD/Elkridge/6411-Rockledge-Ct-21075/home/9872486,BRIGHT MLS,MDHW251644,N,Y,39.2078508,-76.7312285
PAST SALE,August-19-2019,Townhouse,7102 Daniel John Dr,Elkridge,MD,21075,320000,3,2.5,ELKRIDGE CROSSING TOWNHO,1600,,2011,839,200,170,Sold,,,https://www.redfin.com/MD/Elkridge/7102-Daniel-John-Dr-21075/home/40229535,BRIGHT MLS,MDHW267078,N,Y,39.21035,-76.727153
PAST SALE,December-30-2019,Townhouse,6480 Grommet Dr,Elkridge,MD,21075,285000,3,2.0,MAYFIELD MANOR,1440,3889,1984,706,198,,Sold,,,https://www.redfin.com/MD/Elkridge/6480-Grommet-Dr-21075/home/9866845,BRIGHT MLS,MDHW273162,N,Y,39.1928195,-76.7840992
PAST SALE,July-26-2021,Townhouse,5838 Shady Oak Ln,Elkridge,MD,21075,489900,3,2.5,SHADY OAKS,2100,2590,1996,132,233,40,Sold,,,https://www.redfin.com/MD/Elkridge/5838-Shady-Oak-Ln-21075/home/9893545,BRIGHT MLS,MDHW296318,N,Y,39.2121524,-76.7819582
PAST SALE,April-22-2019,Single Family Residential,8017 Saint Jean,Elkridge,MD,21075,50000,3,2.0,DEEP RUN PARK,,,1996,958,,,Sold,,,https://www.redfin.com/MD/Elkridge/8017-St-Jean-Way-21075/home/28902630,BRIGHT MLS,MDHW250754,N,Y,39.190206,-76.790049
PAST SALE,October-29-2021,Townhouse,7063 Holly Springs Ln #193,Elkridge,MD,21075,365000,3,2.5,VILLAGE TOWNS,2100,,2008,37,174,145,Sold,,,https://www.redfin.com/MD/Elkridge/7063-Holly-Springs-Ln-21075/unit-193/home/23430096,BRIGHT MLS,MDHW2002274,N,Y,39.178545,-76.7848767
PAST SALE,May-31-2019,Townhouse,6854 Ducketts Ln Unit 36-7,Elkridge,MD,21075,250000,3,2.5,MARBLE HILL,1524,,1985,919,164,119,Sold,,,https://www.redfin.com/MD/Elkridge/6854-Ducketts-Ln-21075/unit-36-7/home/9870177,BRIGHT MLS,MDHW262466,N,Y,39.1989614,-76.7454384
PAST SALE,,Townhouse,5827 Hunt Hill Dr Unit 10-04,Elkridge,MD,21075,237500,,2.0,,1576,649358,1976,,151,,,,,https://www.redfin.com/MD/Elkridge/5827-Hunt-Hill-Dr-21075/unit-10-04/home/9863998,,,N,Y,39.210757,-76.7339955
PAST SALE,March-29-2019,Townhouse,7295 Elkridge Crossing Way,Elkridge,MD,21075,325000,3,2.5,ELKRIDGE CROSSING CONDO.,2600,,2011,982,125,203,Sold,,,https://www.redfin.com/MD/Elkridge/7295-Elkridge-Crossing-Way-21075/unit-10/home/44625134,BRIGHT MLS,MDHW209498,N,Y,39.2104625,-76.7264599
PAST SALE,November-4-2021,Single Family Residential,6398 Woodburn Ave,Elkridge,MD,21075,530000,4,2.5,HARWOOD PARK,2490,6000,2020,31,213,,Sold,,,https://www.redfin.com/MD/Elkridge/6398-Woodburn-Ave-21075/home/170696601,BRIGHT MLS,MDHW2005038,N,Y,39.1927264,-76.739807
PAST SALE,May-7-2021,Townhouse,7966 Alchemy Way,Elkridge,MD,21075,455000,4,3.0,BLUE STREAM,2271,1377,2017,212,200,110,Sold,,,https://www.redfin.com/MD/Elkridge/7966-Alchemy-Way-21075/home/108519242,BRIGHT MLS,MDHW2003308,N,Y,39.1825499,-76.7723814
PAST SALE,October-29-2021,Townhouse,7036 Holly Springs Ln #51,Elkridge,MD,21075,360000,3,3.5,VILLAGE TOWNS,1540,,2006,37,234,165,Sold,,,https://www.redfin.com/MD/Elkridge/7036-Holly-Springs-Ln-21075/unit-51/home/12278154,BRIGHT MLS,MDHW2004550,N,Y,39.177766,-76.784139
PAST SALE,October-11-2019,Townhouse,7045 Water Oak Rd #44,Elkridge,MD,21075,319900,3,2.5,THE OAKS AT WATERS EDGE,2100,,2005,786,152,238,Sold,,,https://www.redfin.com/MD/Elkridge/7045-Water-Oak-Rd-21075/unit-44/home/10395736,BRIGHT MLS,MDHW270402,N,Y,39.1799328,-76.7783376
PAST SALE,April-4-2019,Townhouse,7729 Valley Oak Dr #59,Elkridge,MD,21075,315000,3,3.0,THE OAKS AT WATERS EDGE,2056,,2006,976,153,238,Sold,,,https://www.redfin.com/MD/Elkridge/7729-Valley-Oak-Dr-21075/unit-59/home/11744129,BRIGHT MLS,MDHW209384,N,Y,39.1811058,-76.7796045
PAST SALE,July-24-2019,Single Family Residential,7904 Butterfield Dr,Elkridge,MD,21075,395000,4,2.5,MAYFIELD WOODS,2440,7125,1985,865,162,,Sold,,,https://www.redfin.com/MD/Elkridge/7904-Butterfield-Dr-21075/home/9868031,BRIGHT MLS,MDHW264774,N,Y,39.1945384,-76.7863754
PAST SALE,August-31-2021,Townhouse,7727 Valley Oak Dr,Elkridge,MD,21075,375000,3,3.0,WATERS EDGE,2056,,2006,96,182,238,Sold,,,https://www.redfin.com/MD/Elkridge/7727-Valley-Oak-Dr-21075/unit-0/home/22048214,BRIGHT MLS,MDHW296120,N,Y,39.1810938,-76.7795289
PAST SALE,,Townhouse,5831 Hunt Hill Dr Unit 10-06,Elkridge,MD,21075,250000,,2.5,,1827,649358,1976,,137,,,,,https://www.redfin.com/MD/Elkridge/5831-Hunt-Hill-Dr-21075/unit-10-06/home/9864005,,,N,Y,39.2107603,-76.7341708
PAST SALE,August-20-2019,Single Family Residential,6367 Woodland Forest Dr,Elkridge,MD,21075,353000,3,2.5,MEADOWRIDGE LANDING,1296,4155,1993,838,272,26,Sold,,,https://www.redfin.com/MD/Elkridge/6367-Woodland-Forest-Dr-21075/home/9889706,BRIGHT MLS,MDHW266590,N,Y,39.1966017,-76.7765492
PAST SALE,September-27-2019,Single Family Residential,6215 Austin Way,Elkridge,MD,21075,752985,5,3.5,PINE ACRES,,14000,2019,800,,,Sold,,,https://www.redfin.com/MD/Elkridge/6215-Austin-Way-21075/home/9862672,BRIGHT MLS,MDHW271148,N,Y,39.2138577,-76.7644091
PAST SALE,August-24-2021,Townhouse,7203 Calvin Ct,Elkridge,MD,21075,490265,3,3.5,ELKRIDGE CROSSING,1845,960,2021,103,266,110,Sold,,,https://www.redfin.com/MD/Elkridge/7203-Calvin-CT-21075/home/175599455,BRIGHT MLS,MDHW2001252,N,Y,39.17861317,-76.77843469
PAST SALE,July-13-2021,Townhouse,7311 Elkridge Crossing Way,Elkridge,MD,21075,498090,3,3.5,ELKRIDGE CROSSING,1845,960,2021,145,270,110,Sold,,,https://www.redfin.com/MD/Elkridge/7311-Elkridge-Crossing-Way-21075/home/175116706,BRIGHT MLS,MDHW2001758,N,Y,39.2106484,-76.7259736
PAST SALE,December-27-2018,Townhouse,7840 Edmunds Way,Elkridge,MD,21075,315000,3,3.0,BRIGHTFIELD,1456,2178,1991,1074,216,40,Sold,,,https://www.redfin.com/MD/Elkridge/7840-Edmunds-Way-21075/home/9883638,BRIGHT MLS,MDHW100346,N,Y,39.204822,-76.780572
PAST SALE,September-20-2019,Townhouse,6872 Ducketts Ln Unit 37-8,Elkridge,MD,21075,255000,2,2.5,MARBLE HILL,1512,,1985,807,169,119,Sold,,,https://www.redfin.com/MD/Elkridge/6872-Ducketts-Ln-21075/unit-37-8/home/9870226,BRIGHT MLS,MDHW100073,N,Y,39.1997551,-76.7471728
PAST SALE,February-12-2019,Single Family Residential,6636 Hunter Rd,Elkridge,MD,21075,361000,5,2.0,HUNT CLUB ESTATES,1834,13102,1988,1027,197,18,Sold,,,https://www.redfin.com/MD/Elkridge/6636-Hunter-Rd-21075/home/9873982,BRIGHT MLS,MDHW119290,N,Y,39.2078951,-76.7432788
PAST SALE,December-17-2019,Single Family Residential,6182 Downs Ridge Ct,Elkridge,MD,21075,400000,3,2.0,Elkridge,2016,15753,1960,719,198,18,Sold,,,https://www.redfin.com/MD/Elkridge/6182-Downs-Ridge-Ct-21075/home/9893187,BRIGHT MLS,MDHW270364,N,Y,39.203881,-76.725107
PAST SALE,May-30-2021,Single Family Residential,Lot 5 Verdant Way,Elkridge,MD,21075,613477,5,3.5,Elkridge,2200,7302,2021,189,279,67,Sold,,,https://www.redfin.com/MD/Elkridge/Lot-5-Verdant-WAY-21075/home/172186230,BRIGHT MLS,MDHW281062,N,Y,39.1937141,-76.7903764
PAST SALE,July-20-2019,Single Family Residential,6279 W Rockburn Hill Rd,Elkridge,MD,21075,427000,5,4.0,ROCKBURN,2124,47480,1925,869,201,,Sold,,,https://www.redfin.com/MD/Elkridge/6279-W-Rockburn-Hill-Rd-21075/home/9863147,BRIGHT MLS,MDHW264034,N,Y,39.2241696,-76.7266402
PAST SALE,January-10-2020,Townhouse,6728 Ducketts Unit 35-2,Elkridge,MD,21075,242000,2,2.0,MARBLE HILL,1424,,1985,695,170,120,Sold,,,https://www.redfin.com/MD/Elkridge/6728-Ducketts-Ln-21075/unit-35-2/home/9869765,BRIGHT MLS,MDHW272552,N,Y,39.1997551,-76.7471728
PAST SALE,September-23-2021,Townhouse,5893 Rowanberry Dr Unit A 42,Elkridge,MD,21075,257500,3,2.5,QUAIL RIDGE,1244,,1983,73,207,179,Sold,,,https://www.redfin.com/MD/Elkridge/5893-Rowanberry-Dr-21075/unit-A42/home/9867758,BRIGHT MLS,MDHW2002902,N,Y,39.209416,-76.735149
PAST SALE,September-27-2021,Single Family Residential,6032 Toomey Ln,Elkridge,MD,21075,628800,4,2.5,WESLEY WOODS,2812,9900,2003,69,224,10,Sold,,,https://www.redfin.com/MD/Elkridge/6032-Toomey-Ln-21075/home/10208074,BRIGHT MLS,MDHW2003918,N,Y,39.2110097,-76.7122094
PAST SALE,December-7-2018,Condo/Co-op,6375 Green Field Rd #1505,Elkridge,MD,21075,172500,2,2.0,ROCKBURN COMMONS,979,,1989,1094,176,275,Sold,,,https://www.redfin.com/MD/Elkridge/6375-Greenfield-Rd-21075/unit-1505/home/9880095,BRIGHT MLS,1008348782,N,Y,39.2069902,-76.7315547
PAST SALE,December-27-2019,Single Family Residential,7716 Touchstone Way,Elkridge,MD,21075,357500,3,2.0,MEADOWRIDGE LANDING,1796,4594,1994,709,199,26,Sold,,,https://www.redfin.com/MD/Elkridge/7716-Touchstone-Way-21075/home/9889587,BRIGHT MLS,MDHW273044,N,Y,39.1944688,-76.7760534
PAST SALE,September-27-2019,Single Family Residential,lot 1 Woodburn Ave,Elkridge,MD,21075,435900,3,2.5,ELKRIDGE,2150,4356,2019,800,203,,Sold,,,https://www.redfin.com/MD/Elkridge/lot-1-Woodburn-Ave-21075/home/148731451,BRIGHT MLS,MDHW209576,N,Y,39.19266772,-76.7397786
PAST SALE,January-17-2020,Single Family Residential,Lot 2 Woodburn,Elkridge,MD,21075,429900,4,2.5,ELKRIDGE,1838,6098,2019,688,234,,Sold,,,https://www.redfin.com/MD/Elkridge/Lot-2-Woodburn-Ave-21075/home/148731514,BRIGHT MLS,MDHW268276,N,Y,39.1927019,-76.73975714
PAST SALE,October-8-2021,Condo/Co-op,7305 Maplecrest Rd #305,Elkridge,MD,21075,345000,2,2.0,GATHERINGS AT LYNDWOOD,1500,,2005,58,230,420,Sold,,,https://www.redfin.com/MD/Elkridge/7305-Maplecrest-Rd-21075/unit-305/home/10396998,BRIGHT MLS,MDHW2002512,N,Y,39.2042374,-76.7629581
PAST SALE,December-19-2019,Single Family Residential,5911 Old Washington Rd,Elkridge,MD,21075,300500,3,2.0,Elkridge,1278,12501,1926,717,235,,Sold,,,https://www.redfin.com/MD/Elkridge/5911-Old-Washington-Rd-21075/home/9862270,BRIGHT MLS,MDHW268934,N,Y,39.2145058,-76.7131113
PAST SALE,,Townhouse,6338 Beechfield Ave Unit B,Elkridge,MD,21075,362500,,3.5,,2475,3000,2019,,146,,,,,https://www.redfin.com/MD/Elkridge/6338-Beechfield-Ave-21075/unit-B/home/9859932,,,N,Y,39.195881,-76.740377
PAST SALE,November-4-2021,Condo/Co-op,5735 Rowanberry Dr #211,Elkridge,MD,21075,222000,2,2.0,ROCKBURN COMMONS,1058,,1987,31,210,240,Sold,,,https://www.redfin.com/MD/Elkridge/5735-Rowanberry-Dr-21075/unit-211/home/143316763,BRIGHT MLS,MDHW2005618,N,Y,39.2104424,-76.7361321
PAST SALE,March-5-2021,Vacant Land,Euclid Ave,Elkridge,MD,21075,120000,,,HARWOOD PARK,,9000,,275,,,Sold,,,https://www.redfin.com/MD/ELKRIDGE/EUCLID-AVE-21075/home/9863783,BRIGHT MLS,MDHW275466,N,Y,39.19579,-76.739016
PAST SALE,,Single Family Residential,5961 Avalon Dr,Elkridge,MD,21075,687000,,3.5,,4026,14063,1997,,171,,,,,https://www.redfin.com/MD/Elkridge/5961-Avalon-Dr-21075/home/9893715,,,N,Y,39.2113732,-76.7732812
PAST SALE,May-29-2020,Townhouse,6412 Ducketts Ln Unit 8-8,Elkridge,MD,21075,260000,2,2.0,MARBLE HILL,1464,,1983,555,178,120,Sold,,,https://www.redfin.com/MD/Elkridge/6412-Ducketts-Ln-21075/unit-8-8/home/9866923,BRIGHT MLS,MDHW278128,N,Y,39.2002012,-76.7486537
PAST SALE,August-28-2020,Townhouse,7950 Millstream Ct,Elkridge,MD,21075,305000,3,2.5,THOMPSONS PURCHASE,1445,2968,1985,464,211,57,Sold,,,https://www.redfin.com/MD/Elkridge/7950-Millstream-Ct-21075/home/9867545,BRIGHT MLS,MDHW282512,N,Y,39.1955996,-76.7868374
PAST SALE,July-18-2019,Single Family Residential,7408 Mulberry Grove Dr,Elkridge,MD,21075,280800,2,2.5,NEW COLONY VILLAGE,1468,2023,2002,871,191,242,Sold,,,https://www.redfin.com/MD/Elkridge/7408-Mulberry-Grove-Dr-21075/home/10395273,BRIGHT MLS,MDHW265170,N,Y,39.1795926,-76.7820935
PAST SALE,July-17-2020,Single Family Residential,6049 Augustine Ave,Elkridge,MD,21075,460000,4,3.5,MT AUGUSTINE,2293,8424,1986,506,201,,Sold,,,https://www.redfin.com/MD/Elkridge/6049-Augustine-Ave-21075/home/9869973,BRIGHT MLS,MDHW280436,N,Y,39.2057529,-76.7133368
PAST SALE,,Townhouse,6050 Rock Glen Dr,Elkridge,MD,21075,291000,,2.0,,1212,1785,1987,,240,,,,,https://www.redfin.com/MD/Elkridge/6050-Rock-Glen-Dr-21075/home/12525215,,,N,Y,39.208737,-76.731806
PAST SALE,April-26-2019,Single Family Residential,7320 Willow Glen Way,Elkridge,MD,21075,285000,3,3.5,NEW COLONY VILLAGE,1534,1878,2001,954,186,242,Sold,,,https://www.redfin.com/MD/Elkridge/7320-Willow-Glen-Way-21075/home/10395214,BRIGHT MLS,MDHW200978,N,Y,39.1789085,-76.7820484
PAST SALE,July-12-2021,Townhouse,6241 Sandpiper Ct #5,Elkridge,MD,21075,255000,3,2.5,ELKRIDGE TOWN CENTER,1160,,1994,146,220,275,Sold,,,https://www.redfin.com/MD/Elkridge/6241-Sandpiper-Ct-21075/unit-5/home/9892629,BRIGHT MLS,MDHW295314,N,Y,39.2071973,-76.7352778
PAST SALE,July-31-2019,Townhouse,5959 Rowanberry Dr Unit 8E,Elkridge,MD,21075,230000,2,1.5,QUAIL RIDGE,1335,,1986,858,172,113,Sold,,,https://www.redfin.com/MD/Elkridge/5959-Rowanberry-Dr-21075/unit-8E/home/167144150,BRIGHT MLS,MDHW266344,N,Y,39.209416,-76.735149
PAST SALE,June-17-2019,Townhouse,6345 Arbor Way,Elkridge,MD,21075,355000,3,2.5,WILLOWOOD,2090,1600,1995,902,170,45,Sold,,,https://www.redfin.com/MD/Elkridge/6345-Arbor-Way-21075/home/9889251,BRIGHT MLS,MDHW262734,N,Y,39.197565,-76.776088
PAST SALE,,Mobile/Manufactured Home,7678 Old Rockbridge Dr,Elkridge,MD,21075,230000,,2.0,,1352,4443,1991,,170,,,,,https://www.redfin.com/MD/Elkridge/7678-Old-Rockbridge-Dr-21075/home/9886683,,,N,Y,39.1943215,-76.7754674
PAST SALE,August-26-2021,Townhouse,7209 Calvin Ct,Elkridge,MD,21075,494325,3,3.5,ELKRIDGE CROSSING,1845,960,2021,101,268,110,Sold,,,https://www.redfin.com/MD/Elkridge/7209-Calvin-CT-21075/home/175599579,BRIGHT MLS,MDHW2001256,N,Y,39.1786118,-76.77837927
PAST SALE,November-20-2020,Single Family Residential,6553 Elderberry Ct,Elkridge,MD,21075,587000,4,3.5,ROWANBERRY WOODS,3128,8405,1999,380,188,17,Sold,,,https://www.redfin.com/MD/Elkridge/6553-Elderberry-Ct-21075/home/9898435,BRIGHT MLS,MDHW276824,N,Y,39.2049888,-76.7374623
PAST SALE,,Single Family Residential,7066 Kit Kat Rd,Elkridge,MD,21075,499000,,,,,12196,,,,,,,,https://www.redfin.com/MD/Elkridge/7066-Kit-Kat-Rd-21075/home/9860057,,,N,Y,39.1768032,-76.7696524
PAST SALE,March-26-2020,Single Family Residential,7116 Stone Throw Way,Elkridge,MD,21075,200000,2,3.0,NEW COLONY VILLAGE,1072,3052,2000,619,187,242,Sold,,,https://www.redfin.com/MD/Elkridge/7116-Stone-Throw-Way-21075/home/10224361,BRIGHT MLS,MDHW270020,N,Y,39.1779171,-76.7796601
PAST SALE,June-25-2021,Townhouse,7358 Matchbox Aly,Elkridge,MD,21075,450000,3,2.5,HOWARD SQUARE,1960,1445,2012,163,230,61,Sold,,,https://www.redfin.com/MD/Elkridge/7358-Matchbox-Aly-21075/home/44593995,BRIGHT MLS,MDHW294878,N,Y,39.1741394,-76.7847641
PAST SALE,January-10-2019,Townhouse,7126 Station House Rd,Elkridge,MD,21075,289000,3,3.5,DEPOT CROSSING,1728,,2011,1060,167,78,Sold,,,https://www.redfin.com/MD/Elkridge/7126-Station-House-Rd-21075/home/23429915,BRIGHT MLS,MDHW100826,N,Y,39.179001,-76.7474254
PAST SALE,,Single Family Residential,6311 ASSEMBLY Unit CT,ELKRIDGE,MD,21075,660000,,2.5,,4338,16762,2007,,152,,,,,https://www.redfin.com/MD/ELKRIDGE/6311-ASSEMBLY-21075/unit-CT/home/19001247,,,N,Y,39.215486,-76.726716
PAST SALE,September-28-2020,Townhouse,7139 Deep Falls Way #40,Elkridge,MD,21075,370000,3,2.5,VILLAGE TOWNS,2100,4356,2007,433,176,165,Sold,,,https://www.redfin.com/MD/Elkridge/7139-Deep-Falls-Way-21075/unit-40/home/17406984,BRIGHT MLS,MDHW283830,N,Y,39.1779668,-76.7837958
PAST SALE,April-24-2020,Townhouse,7271 Elkridge Crossing Way,Elkridge,MD,21075,345000,3,2.5,ELKRIDGE CROSSING,2600,,2007,590,133,228,Sold,,,https://www.redfin.com/MD/Elkridge/7271-Elkridge-Crossing-Way-21075/home/17406876,BRIGHT MLS,MDHW277174,N,Y,39.210154,-76.726876
PAST SALE,February-28-2019,Townhouse,7195 Water Oak Rd #154,Elkridge,MD,21075,275000,2,3.0,WATERS EDGE,1944,,2007,1011,141,238,Sold,,,https://www.redfin.com/MD/Elkridge/7195-Water-Oak-Rd-21075/unit-154/home/12524626,BRIGHT MLS,MDHW229982,N,Y,39.181809,-76.7812218
PAST SALE,March-5-2021,Single Family Residential,5797 Railroad Ave,Elkridge,MD,21075,390000,5,3.0,ELKRIDGE TOWN CENTER,,11024,1968,275,,,Sold,,,https://www.redfin.com/MD/Elkridge/5797-Railroad-Ave-21075/home/9858906,BRIGHT MLS,MDHW286998,N,Y,39.2135269,-76.7060306
PAST SALE,March-27-2020,Townhouse,6397B Beechfield Ave,Elkridge,MD,21075,361900,4,3.5,HARWOOD PARK,1850,3000,2019,618,196,,Sold,,,https://www.redfin.com/MD/Elkridge/6397-Beechfield-Ave-21075/unit-B/home/9857356,BRIGHT MLS,MDHW273398,N,Y,39.1939847,-76.7379132
PAST SALE,June-28-2019,Townhouse,7139 Susans Pass,Elkridge,MD,21075,350000,3,2.5,HOWARD SQUARE PH 2,1960,1769,2014,891,179,152,Sold,,,https://www.redfin.com/MD/Elkridge/7139-Susans-Pass-21075/home/52912077,BRIGHT MLS,MDHW264436,N,Y,39.1747027,-76.7834119
PAST SALE,May-31-2019,Single Family Residential,5909 Rising Star,Elkridge,MD,21075,705000,5,3.5,LYNDWOOD MANOR,3304,11752,1997,919,213,28,Sold,,,https://www.redfin.com/MD/Elkridge/5909-Rising-Star-Ct-21075/home/9893835,BRIGHT MLS,MDHW260680,N,Y,39.2093952,-76.7727403
PAST SALE,January-5-2021,Townhouse,6371-D Euclid Ave,Elkridge,MD,21075,370000,5,3.5,ELKRIDGE,2070,3000,2013,334,179,,Sold,,,https://www.redfin.com/MD/Elkridge/6371D-Euclid-Ave-21075/home/173626025,BRIGHT MLS,MDHW287212,N,Y,39.1955946,-76.738137
PAST SALE,November-3-2021,Single Family Residential,6463 Sedgwick St,Elkridge,MD,21075,360000,3,3.0,NOTTINGHAM VILLAGE,1951,4320,1995,32,185,26,Sold,,,https://www.redfin.com/MD/Elkridge/6463-Sedgwick-St-21075/home/9890338,BRIGHT MLS,MDHW2002348,N,Y,39.1958102,-76.7724473
PAST SALE,,Other,6061 Old Lawyers Hill Rd,Elkridge,MD,21075,150000,,,,,130680,,,,,,,,https://www.redfin.com/MD/Elkridge/6061-Old-Lawyers-Hill-Rd-21075/home/9063702,,,N,Y,39.2186189,-76.718832
PAST SALE,January-29-2020,Townhouse,7970 Blue Stream Dr,Elkridge,MD,21075,427000,4,3.5,BLUE STREAM,2020,1495,2015,676,211,103,Sold,,,https://www.redfin.com/MD/Elkridge/7970-Blue-Stream-Dr-21075/home/101651042,BRIGHT MLS,MDHW272442,N,Y,39.1820811,-76.7744063
PAST SALE,January-8-2021,Single Family Residential,6880 Dorsey Rd,Elkridge,MD,21075,380786,4,3.0,ELKRIDGE,2005,47916,1952,331,190,,Sold,,,https://www.redfin.com/MD/Elkridge/6880-Dorsey-Rd-21075/home/9862141,BRIGHT MLS,MDHW276276,N,Y,39.1816938,-76.7528371
PAST SALE,January-17-2020,Single Family Residential,6924 Scarlet Oaks Dr,Elkridge,MD,21075,411000,4,3.5,SCARLET OAKS,3732,10274,2000,688,110,29,Sold,,,https://www.redfin.com/MD/Elkridge/6924-Scarlet-Oak-Dr-21075/home/10204575,BRIGHT MLS,MDHW272656,N,Y,39.1829411,-76.756038
PAST SALE,,Condo/Co-op,7114 Daniel John Dr #7114,Elkridge,MD,21075,330000,,,,1600,,2011,,206,,,,,https://www.redfin.com/MD/Elkridge/7114-Daniel-John-Dr-21075/unit-7114/home/44593998,,,N,Y,39.210527,-76.727294
PAST SALE,September-11-2020,Townhouse,6374 Green Field Rd,Elkridge,MD,21075,286000,3,1.5,ROCKBURN COMMONS III,1540,1785,1988,450,186,46,Sold,,,https://www.redfin.com/MD/Elkridge/6374-Greenfield-Rd-21075/home/9872682,BRIGHT MLS,MDHW282968,N,Y,39.2072305,-76.7306084
PAST SALE,November-30-2021,Townhouse,6324 Ducketts Ln Unit 4-6,Elkridge,MD,21075,315000,3,2.5,MARBLE HILL,1335,,1980,5,236,121,Sold,,,https://www.redfin.com/MD/Elkridge/6324-Ducketts-Ln-21075/unit-4-6/home/9864859,BRIGHT MLS,MDHW2005942,N,Y,39.1997551,-76.7471728
PAST SALE,July-17-2020,Single Family Residential,6775 Athol Ave,Elkridge,MD,21075,345000,3,1.5,HARWOOD PARK,1112,12000,1972,506,310,,Sold,,,https://www.redfin.com/MD/Elkridge/6775-Athol-Ave-21075/home/9859813,BRIGHT MLS,MDHW279804,N,Y,39.190359,-76.7393561
PAST SALE,November-15-2021,Townhouse,6720 Cozy Ln,Elkridge,MD,21075,367500,3,2.5,HARWOOD PARK,1751,3000,1997,20,210,,Sold,,,https://www.redfin.com/MD/Elkridge/6720-Cozy-Ln-21075/home/9898714,BRIGHT MLS,MDHW2005420,N,Y,39.1907736,-76.7423272
PAST SALE,October-5-2021,Townhouse,5847 Hunt Hill Dr Unit 11-07,Elkridge,MD,21075,317000,3,3.5,MONTGOMERY WOODS,1928,,1976,61,164,137,Sold,,,https://www.redfin.com/MD/Elkridge/5847-Hunt-Hill-Dr-21075/unit-11-07/home/9863943,BRIGHT MLS,MDHW2003768,N,Y,39.2107457,-76.7348109
PAST SALE,October-28-2019,Townhouse,6338 B Beechfield Ave,Elkridge,MD,21075,357350,4,3.5,HARWOOD PARK,2450,3000,2019,769,146,,Sold,,,https://www.redfin.com/MD/Elkridge/6338-Beechfield-Ave-21075/home/163589616,BRIGHT MLS,MDHW262230,N,Y,39.1958671,-76.7404496
PAST SALE,April-15-2021,Single Family Residential,Lot 2 Verdant Way,Elkridge,MD,21075,662008,4,2.5,Elkridge,2200,6680,2020,234,301,67,Sold,,,https://www.redfin.com/MD/Elkridge/Lot-2-Verdant-WAY-21075/home/172270811,BRIGHT MLS,MDHW281436,N,Y,39.19366421,-76.79065534
PAST SALE,March-2-2020,Condo/Co-op,6205 Sandpiper Ct #208,Elkridge,MD,21075,210000,2,2.0,ELKRIDGE TOWN CENTER,1073,,1993,643,196,285,Sold,,,https://www.redfin.com/MD/Elkridge/6205-Sandpiper-Ct-21075/unit-208/home/9889883,BRIGHT MLS,MDHW275050,N,Y,39.2071199,-76.7349445
PAST SALE,,Single Family Residential,6679 Huntshire Dr,Elkridge,MD,21075,370000,4,3.5,,1957,4099,1997,,189,,,,,https://www.redfin.com/MD/Elkridge/6679-Huntshire-Dr-21075/home/9895191,,,N,Y,39.1970249,-76.7729431
PAST SALE,July-25-2019,Townhouse,5875 Critter Ct Unit 7-03,Elkridge,MD,21075,245000,3,2.5,MONTGOMERY WOODS,1188,,1977,864,206,135,Sold,,,https://www.redfin.com/MD/Elkridge/5875-Critter-Ct-21075/unit-7-03/home/9864407,BRIGHT MLS,MDHW265230,N,Y,39.2088283,-76.7329278
PAST SALE,June-16-2021,Single Family Residential,5765 Main St,Elkridge,MD,21075,529700,4,2.5,ELKRIDGE,,10100,1840,172,,,Sold,,,https://www.redfin.com/MD/Elkridge/5765-Main-St-21075/home/12525263,BRIGHT MLS,MDHW289832,N,Y,39.2158631,-76.709323
PAST SALE,March-15-2019,Condo/Co-op,6300 Bayberry Ct #1102,Elkridge,MD,21075,181000,2,2.0,ELKRIDGE TOWN CENTER,919,,1994,996,197,270,Sold,,,https://www.redfin.com/MD/Elkridge/6300-Bayberry-Ct-21075/unit-1102/home/9893116,BRIGHT MLS,1009936046,N,Y,39.206194,-76.735337
PAST SALE,January-9-2020,Single Family Residential,6518 Vert Dr,Elkridge,MD,21075,112000,3,2.0,DEEP RUN PARK,2016,5000,2006,696,56,,Sold,,,https://www.redfin.com/MD/Elkridge/6518-Vert-Dr-21075/unit-6518/home/45446655,BRIGHT MLS,MDHW270330,N,Y,39.191149,-76.792434
PAST SALE,July-8-2019,Townhouse,5820 Blue Sky,Elkridge,MD,21075,407000,3,2.5,LYNDWOOD,2100,,1996,881,194,36,Sold,,,https://www.redfin.com/MD/Elkridge/5820-Blue-Sky-21075/home/9893325,BRIGHT MLS,MDHW263860,N,Y,39.2132175,-76.7825442
PAST SALE,,Condo/Co-op,7305 Maplecrest Rd #105,Elkridge,MD,21075,300000,,2.0,,1500,,2005,,200,,,,,https://www.redfin.com/MD/Elkridge/7305-Maplecrest-Rd-21075/unit-105/home/10244969,,,N,Y,39.2042374,-76.7629581
PAST SALE,May-3-2019,Single Family Residential,7932 Butterfield Dr,Elkridge,MD,21075,400000,4,2.5,MAYFIELD WOODS,1852,11964,1985,947,216,,Sold,,,https://www.redfin.com/MD/Elkridge/7932-Butterfield-Dr-21075/home/9867995,BRIGHT MLS,MDHW250512,N,Y,39.1947649,-76.787998
PAST SALE,March-26-2019,Single Family Residential,6042 Old Washington Rd,Elkridge,MD,21075,195000,3,2.0,ELKRIDGE,1616,59677,1865,985,121,,Sold,,,https://www.redfin.com/MD/Elkridge/6042-Old-Washington-Rd-21075/home/9862803,BRIGHT MLS,MDHW241006,N,Y,39.2111327,-76.7187937
PAST SALE,October-25-2019,Single Family Residential,5918 Hunt Club Rd,Elkridge,MD,21075,360000,4,3.0,ELKRIDGE,2000,15420,1958,772,180,,Sold,,,https://www.redfin.com/MD/Elkridge/5918-Hunt-Club-Rd-21075/home/9857636,BRIGHT MLS,MDHW270096,N,Y,39.2083133,-76.7430984
PAST SALE,November-2-2021,Condo/Co-op,6205 Sandpiper Ct #207,Elkridge,MD,21075,227000,2,2.0,ORCHARD CLUB,979,,1993,33,232,285,Sold,,,https://www.redfin.com/MD/Elkridge/6205-Sandpiper-Ct-21075/unit-207/home/9889881,BRIGHT MLS,MDHW2005478,N,Y,39.2071199,-76.7349445
PAST SALE,January-15-2019,Single Family Residential,6041 Joseph Scott Dr,Elkridge,MD,21075,650000,5,3.5,HUNTERS RIDGE,4170,8430,2008,1055,156,29,Sold,,,https://www.redfin.com/MD/Elkridge/6041-Joseph-Scott-Dr-21075/home/10224305,BRIGHT MLS,1009954652,N,Y,39.208853,-76.7118486
PAST SALE,December-20-2019,Townhouse,6320 Troy Ct,Elkridge,MD,21075,355000,3,3.5,WILLOWOOD,2090,1700,1993,716,170,45,Sold,,,https://www.redfin.com/MD/Elkridge/6320-Troy-Ct-21075/home/9887121,BRIGHT MLS,MDHW272412,N,Y,39.197584,-76.777727
PAST SALE,March-12-2021,Townhouse,7906 Ellis Wyatt Ct,Elkridge,MD,21075,440000,3,2.5,MORRIS PLACE,2266,1540,2017,268,194,105,Sold,,,https://www.redfin.com/MD/Elkridge/7906-Ellis-Wyatt-Ct-21075/home/113208342,BRIGHT MLS,MDHW290296,N,Y,39.1800976,-76.7733826
PAST SALE,,Single Family Residential,6624 Pheasant Dr,Elkridge,MD,21075,300000,,1.5,,1200,16509,1958,,250,,,,,https://www.redfin.com/MD/Elkridge/6624-Pheasant-Dr-21075/home/9860727,,,N,Y,39.2070294,-76.7395815
PAST SALE,March-4-2021,Townhouse,Potter Pl,Elkridge,MD,21075,362940,3,2.0,BLUE STREAM,2000,,2021,276,181,240,Sold,,,https://www.redfin.com/MD/ELKRIDGE/POTTER-PL-21075/home/174786518,BRIGHT MLS,MDHW2000550,N,Y,39.17853,-76.77866
PAST SALE,October-2-2020,Condo/Co-op,6310 Bayberry Ct #1008,Elkridge,MD,21075,211000,2,2.0,ORCHARD CLUB,1073,,1993,429,197,285,Sold,,,https://www.redfin.com/MD/Elkridge/6310-Bayberry-Ct-21075/unit-1008/home/9890940,BRIGHT MLS,MDHW283024,N,Y,39.206478,-76.735501
PAST SALE,June-30-2021,Townhouse,7945 Blue Stream Dr,Elkridge,MD,21075,559440,4,3.5,BLUE STREAM,2200,1900,2021,158,254,130,Sold,,,https://www.redfin.com/MD/Elkridge/7945-Blue-Stream-Dr-21075/home/174235643,BRIGHT MLS,MDHW2001002,N,Y,39.181401,-76.775074
PAST SALE,January-14-2021,Townhouse,7943 Potter Pl,Elkridge,MD,21075,484990,3,3.5,BLUE STREAM,2338,,2020,325,207,142,Sold,,,https://www.redfin.com/MD/Elkridge/7943-Potter-Pl-21075/home/173328515,BRIGHT MLS,MDHW286042,N,Y,39.1795,-76.7752
PAST SALE,May-8-2019,Single Family Residential,5817 Brandons Way,Elkridge,MD,21075,585000,4,2.5,ROCKBURN,2326,15430,2002,942,252,25,Sold,,,https://www.redfin.com/MD/Elkridge/5817-Brandons-Way-21075/home/10204763,BRIGHT MLS,MDHW250900,N,Y,39.2127735,-76.773484
PAST SALE,December-18-2019,Townhouse,7835 Marioak Dr,Elkridge,MD,21075,275000,4,3.5,MAYFIELD MANOR,1760,3640,1984,718,156,,Sold,,,https://www.redfin.com/MD/Elkridge/7835-Marioak-Dr-21075/home/9866803,BRIGHT MLS,MDHW263882,N,Y,39.192188,-76.783602
PAST SALE,,Townhouse,7715 Owen Kellogg Ct,Elkridge,MD,21075,495000,,3.5,,2208,1698,2017,,224,,,,,https://www.redfin.com/MD/Elkridge/7715-Owen-Kellogg-Ct-21075/home/140825103,,,N,Y,39.18085,-76.772139
PAST SALE,June-28-2019,Townhouse,7774 Dagny Way,Elkridge,MD,21075,425000,4,3.5,MORRIS PLACE,2340,1700,2019,891,182,105,Sold,,,https://www.redfin.com/MD/Elkridge/7774-Dagny-Way-21075/home/143449629,BRIGHT MLS,MDHW209278,N,Y,39.1812484,-76.7740137
PAST SALE,August-16-2021,Townhouse,7256 Elkridge Crossing Way,Elkridge,MD,21075,375000,3,2.5,ELKRIDGE CROSSING,2600,10454,2007,111,144,228,Sold,,,https://www.redfin.com/MD/Elkridge/7256-Elkridge-Crossing-Way-21075/home/23434138,BRIGHT MLS,MDHW2001080,N,Y,39.209817,-76.726953
PAST SALE,September-7-2021,Townhouse,7229 Calvin Ct,Elkridge,MD,21075,502715,3,3.5,ELKRIDGE CROSSING,1845,960,2021,89,272,110,Sold,,,https://www.redfin.com/MD/Elkridge/7229-Calvin-CT-21075/home/175599786,BRIGHT MLS,MDHW2001264,N,Y,39.17855495,-76.77815933
PAST SALE,June-14-2019,Condo/Co-op,6335 Green Field Rd #1706,Elkridge,MD,21075,185000,2,2.0,ROCKBURN COMMONS,963,,1989,905,192,282,Sold,,,https://www.redfin.com/MD/Elkridge/6335-Greenfield-Rd-21075/unit-1706/home/9877793,BRIGHT MLS,MDHW263128,N,Y,39.2063196,-76.7315328
PAST SALE,July-27-2020,Townhouse,7355 Matchbox Aly,Elkridge,MD,21075,390000,3,3.0,"HOWARD SQUARE, PH 1",2320,1522,2012,496,168,48,Sold,,,https://www.redfin.com/MD/Elkridge/7355-Matchbox-Aly-21075/home/44593544,BRIGHT MLS,MDHW281480,N,Y,39.1743575,-76.7844035
PAST SALE,,Single Family Residential,6115 Karas Walk,Elkridge,MD,21075,390000,3,2.5,,1860,8439,1988,,210,,,,,https://www.redfin.com/MD/Elkridge/6115-Karas-Walk-21075/home/9872311,,,N,Y,39.2033396,-76.7484187
PAST SALE,,Single Family Residential,6012 Hanover Rd,Hanover,MD,21076,615000,,3.5,,2732,13512,2014,,225,,,,,https://www.redfin.com/MD/Hanover/6012-Hanover-Rd-21076/home/44625070,,,N,Y,39.2060186,-76.7235738
PAST SALE,March-3-2020,Townhouse,6428 Ducketts Ln Unit 9-9,Elkridge,MD,21075,239500,2,1.5,MARBLE HILL,1408,18208,1983,642,170,121,Sold,,,https://www.redfin.com/MD/Elkridge/6428-Ducketts-Ln-21075/unit-9-9/home/9867004,BRIGHT MLS,MDHW274228,N,Y,39.1997551,-76.7471728
PAST SALE,August-27-2021,Townhouse,7211 Calvin Ct,Elkridge,MD,21075,475800,3,3.5,ELKRIDGE CROSSING,1845,960,2021,100,258,110,Sold,,,https://www.redfin.com/MD/Elkridge/7211-Calvin-CT-21075/home/175685100,BRIGHT MLS,MDHW2001900,N,Y,39.17867417,-76.77834531
PAST SALE,,Townhouse,7950 Blue Stream Dr,Elkridge,MD,21075,485000,,3.5,,2812,1396,2016,,172,,,,,https://www.redfin.com/MD/Elkridge/7950-Blue-Stream-Dr-21075/home/102287428,,,N,Y,39.1814313,-76.7744757
PAST SALE,August-28-2020,Townhouse,7758 Coriander Pl,Elkridge,MD,21075,415000,4,3.5,BLUE STREAM,2000,1193,2013,464,208,109,Sold,,,https://www.redfin.com/MD/Elkridge/7758-Coriander-Pl-21075/home/44625544,BRIGHT MLS,MDHW275294,N,Y,39.1787041,-76.7740223
PAST SALE,November-20-2019,Townhouse,8758 Blazing Brook Way,Elkridge,MD,21075,415000,4,3.5,GATEWAY OVERLOOK,2544,1742,2008,746,163,179,Sold,,,https://www.redfin.com/MD/Elkridge/8758-Blazing-Brook-Way-21075/unit-40/home/17180051,BRIGHT MLS,MDHW271132,N,Y,39.183571,-76.787449
PAST SALE,June-4-2019,Townhouse,5830 Shady Oak Ln,Elkridge,MD,21075,420000,3,3.0,LYNDWOOD,2112,1742,1996,915,199,36,Sold,,,https://www.redfin.com/MD/Elkridge/5830-Shady-Oak-Ln-21075/home/9893523,BRIGHT MLS,MDHW262892,N,Y,39.212397,-76.7820033
PAST SALE,September-11-2020,Condo/Co-op,7230 Darby Downs Unit E,Elkridge,MD,21075,245000,2,2.0,ELKRIDGE CROSSING,1400,,2007,450,175,335,Sold,,,https://www.redfin.com/MD/Elkridge/7230-Darby-Downs-21075/unit-E/home/12524539,BRIGHT MLS,MDHW282824,N,Y,39.2089704,-76.7268432
PAST SALE,February-4-2020,Single Family Residential,5830 Claremont Dr,Elkridge,MD,21075,545000,4,2.5,CLAREMONT OVERLOOK,3210,9641,2013,670,170,42,Sold,,,https://www.redfin.com/MD/Elkridge/5830-Claremont-Dr-21075/home/44625047,BRIGHT MLS,MDHW271168,N,Y,39.2166006,-76.7167392
PAST SALE,September-25-2020,Townhouse,7320 Summit Rock Rd,Elkridge,MD,21075,393000,3,2.5,HOWARD SQUARE PH 2,1780,1379,2014,436,221,52,Sold,,,https://www.redfin.com/MD/Elkridge/7320-Summit-Rock-Rd-21075/home/59255061,BRIGHT MLS,MDHW282678,N,Y,39.1752517,-76.7828034
PAST SALE,May-2-2019,Single Family Residential,6018 Duckeys Run Rd,Elkridge,MD,21075,390500,3,2.5,DUCKETTS,1775,9758,1995,948,220,18,Sold,,,https://www.redfin.com/MD/Elkridge/6018-Duckeys-Run-Rd-21075/home/9892047,BRIGHT MLS,MDHW250834,N,Y,39.2051962,-76.749636
PAST SALE,,Townhouse,7020 Holly Springs Ln #58,Elkridge,MD,21075,205403,,2.5,,1240,6036,2006,,166,,,,,https://www.redfin.com/MD/Elkridge/7020-Holly-Springs-Ln-21075/unit-58/home/12019844,,,N,Y,39.177378,-76.7839302
PAST SALE,November-5-2020,Townhouse,7962-A Potter Pl,Elkridge,MD,21075,431990,3,3.0,BLUE STREAM,2589,,2020,395,167,261,Sold,,,https://www.redfin.com/MD/Elkridge/7962-A-Potter-PL-21075/home/173634757,BRIGHT MLS,MDHW287440,N,Y,39.181769,-76.77506508
PAST SALE,November-20-2020,Townhouse,8609 Blue Smoke Ct #62,Elkridge,MD,21075,453000,4,3.5,GATEWAY OVERLOOK,2592,,2010,380,175,297,Sold,,,https://www.redfin.com/MD/Elkridge/8609-Blue-Smoke-Ct-21075/unit-62/home/28501452,BRIGHT MLS,MDHW284528,N,Y,39.1856836,-76.788613
PAST SALE,December-20-2019,Townhouse,8891 Purple Iris Ln #19,Elkridge,MD,21075,400000,3,3.0,GATEWAY OVERLOOK,2592,,2009,716,154,294,Sold,,,https://www.redfin.com/MD/Elkridge/8891-Purple-Iris-Ln-21075/unit-19/home/21659359,BRIGHT MLS,MDHW268262,N,Y,39.1815451,-76.7873707
PAST SALE,February-21-2020,Townhouse,7731 Valley Oak Dr #60,Elkridge,MD,21075,327500,3,3.0,WATERS EDGE,2128,,2006,653,154,238,Sold,,,https://www.redfin.com/MD/Elkridge/7731-Valley-Oak-Dr-21075/unit-60/home/12019777,BRIGHT MLS,MDHW272400,N,Y,39.1811205,-76.7796838
PAST SALE,March-29-2019,Townhouse,8882 Purple Iris Ln #7,Elkridge,MD,21075,405000,3,3.5,GATEWAY OVERLOOK,2592,7765,2009,982,156,294,Sold,,,https://www.redfin.com/MD/Elkridge/8882-Purple-Iris-Ln-21075/unit-7/home/19000807,BRIGHT MLS,1005958377,N,Y,39.1818846,-76.7876149
PAST SALE,,Townhouse,8759 Blazing Brook Way #41,Elkridge,MD,21075,405000,,2.5,,2592,91660,2008,,156,,,,,https://www.redfin.com/MD/Elkridge/8759-Blazing-Brook-Way-21075/unit-41/home/23434677,,,N,Y,39.183766,-76.787489
PAST SALE,,Single Family Residential,7017 Cherry Ave,Elkridge,MD,21075,348000,,2.5,,1556,7501,2008,,224,,,,,https://www.redfin.com/MD/Elkridge/7017-Cherry-Ave-21075/home/19001218,,,N,Y,39.1760905,-76.7499516
PAST SALE,September-20-2019,Townhouse,6212 Briar Ct,Elkridge,MD,21075,342000,3,3.0,WILLOWOOD,1800,2500,1992,807,190,45,Sold,,,https://www.redfin.com/MD/Elkridge/6212-Briar-Ct-21075/home/9885758,BRIGHT MLS,MDHW264722,N,Y,39.1996068,-76.7803039
PAST SALE,May-31-2019,Townhouse,7596 Cherrybark Oak Ln #184,Elkridge,MD,21075,315000,3,2.5,WATERS EDGE,2100,,2008,919,150,238,Sold,,,https://www.redfin.com/MD/Elkridge/7596-Cherrybark-Oak-Ln-21075/unit-184/home/23434805,BRIGHT MLS,MDHW251896,N,Y,39.1809606,-76.7791993
PAST SALE,September-22-2021,Single Family Residential,6059 Ducketts Ln,Elkridge,MD,21075,624000,4,2.5,Elkridge,3368,12515,2004,74,185,,Sold,,,https://www.redfin.com/MD/Elkridge/6059-Ducketts-Ln-21075/home/10213451,BRIGHT MLS,MDHW2003542,N,Y,39.2052486,-76.7469759
PAST SALE,January-11-2019,Townhouse,6422 Bayberry Ct #8,Elkridge,MD,21075,188814,3,2.5,ELKRIDGE TOWN CENTER,1165,,1996,1059,162,234,Sold,,,https://www.redfin.com/MD/Elkridge/6422-Bayberry-Ct-21075/unit-8/home/9896724,BRIGHT MLS,1002068702,N,Y,39.2075699,-76.736206
PAST SALE,,Townhouse,6482 Park Forest Cir,Elkridge,MD,21075,505550,,2.5,,3186,3204,2016,,159,,,,,https://www.redfin.com/MD/Elkridge/6482-Park-Forest-Cir-21075/home/104248700,,,N,Y,39.2144404,-76.761175
PAST SALE,February-22-2019,Single Family Residential,6345 Lawyers Hill Rd,Elkridge,MD,21075,433900,4,3.0,ELKRIDGE,2874,21039,1958,1017,151,,Sold,,,https://www.redfin.com/MD/Elkridge/6345-Lawyers-Hill-Rd-21075/home/9856746,BRIGHT MLS,MDHW104796,N,Y,39.2157527,-76.7290753
PAST SALE,February-21-2020,Townhouse,5967 Rowanberry Dr Unit 9B,Elkridge,MD,21075,225000,2,1.5,QUAIL RIDGE,900,,1986,653,250,117,Sold,,,https://www.redfin.com/MD/Elkridge/5967-Rowanberry-Dr-21075/unit-9B/home/9871620,BRIGHT MLS,MDHW274208,N,Y,39.2092426,-76.7347725
PAST SALE,November-1-2019,Townhouse,6338 A Beechfield Ave,Elkridge,MD,21075,362500,4,3.5,HARWOOD PARK,2450,3000,2019,765,148,,Sold,,,https://www.redfin.com/MD/Elkridge/6338A-Beechfield-Ave-21075/home/172445904,BRIGHT MLS,MDHW262206,N,Y,39.1959083,-76.7404031
PAST SALE,September-23-2020,Single Family Residential,6223 Sweet Gum Ln,Hanover,MD,21076,660000,6,4.5,HANOVER MANOR CROSSING,4144,15989,2015,438,159,59,Sold,,,https://www.redfin.com/MD/Hanover/6223-Sweetgum-Ln-21076/home/108437130,BRIGHT MLS,MDHW277428,N,Y,39.2006431,-76.7250619
PAST SALE,January-17-2020,Single Family Residential,7019 Mount Holly Way,Elkridge,MD,21075,529000,4,2.5,DORSEY HALL,2650,7245,2019,688,200,17,Sold,,,https://www.redfin.com/MD/Elkridge/7019-Mount-Holly-Way-21075/home/146229220,BRIGHT MLS,MDHW272998,N,Y,39.1808462,-76.7566013
PAST SALE,October-12-2021,Townhouse,7608 Cherrybark Oak Ln #264,Elkridge,MD,21075,377500,3,3.0,THE OAKS AT WATERS EDGE,2056,,2008,54,184,238,Sold,,,https://www.redfin.com/MD/Elkridge/7608-Cherrybark-Oak-Ln-21075/unit-264/home/23434346,BRIGHT MLS,MDHW2004260,N,Y,39.1809887,-76.7826067
PAST SALE,July-1-2019,Townhouse,6386 Ducketts Ln Unit 3-3,Elkridge,MD,21075,240000,3,2.0,MARBLE HILL,1335,,1980,888,180,109,Sold,,,https://www.redfin.com/MD/Elkridge/6386-Ducketts-Ln-21075/unit-3-3/home/9865003,BRIGHT MLS,MDHW249920,N,Y,39.1997849,-76.7471741
PAST SALE,May-2-2019,Single Family Residential,6628 Stipa Ct,Elkridge,MD,21075,422000,5,3.5,Elkridge,1856,12871,1989,948,227,33,Sold,,,https://www.redfin.com/MD/Elkridge/6628-Stipa-Ct-21075/home/9874044,BRIGHT MLS,MDHW208712,N,Y,39.2065311,-76.745984
PAST SALE,March-27-2020,Townhouse,5864 Steepridge Dr Unit 20-08,Elkridge,MD,21075,243000,3,1.5,MONTGOMERY WOODS,1212,,1977,618,200,137,Sold,,,https://www.redfin.com/MD/Elkridge/5864-Steepridge-Dr-21075/unit-20-08/home/9864358,BRIGHT MLS,MDHW272814,N,Y,39.209612,-76.733569
PAST SALE,October-25-2021,Townhouse,7025 Mahant Way Unit B,Elkridge,MD,21075,472625,3,2.5,ELKRIDGE CROSSING,1845,960,2021,41,256,110,Sold,,,https://www.redfin.com/MD/Elkridge/7025-Mahant-WAY-21075/unit-B/home/176949900,BRIGHT MLS,MDHW2006266,N,Y,39.17863407,-76.77822829
PAST SALE,January-31-2020,Single Family Residential,6100 Nightrose Ct,Elkridge,MD,21075,655000,4,3.5,AVALON LANDING,3908,12284,2000,674,168,28,Sold,,,https://www.redfin.com/MD/Elkridge/6100-Nightrose-Ct-21075/home/9898705,BRIGHT MLS,MDHW266588,N,Y,39.2058245,-76.7658207
PAST SALE,February-27-2019,Single Family Residential,6682 Deep Run Pkwy,Elkridge,MD,21075,56040,3,2.0,DEEP RUN,1488,6600,2007,1012,38,,Sold,,,https://www.redfin.com/MD/Elkridge/6682-Deep-Run-Pkwy-21075/home/160354472,BRIGHT MLS,MDHW226244,N,Y,39.189491,-76.783378
PAST SALE,,Single Family Residential,6723 Burnbridge Hunt Ct,Elkridge,MD,21075,435000,,2.5,,2670,13050,1993,,163,,,,,https://www.redfin.com/MD/Elkridge/6723-Burnbridge-Hunt-Ct-21075/home/9881463,,,N,Y,39.2038364,-76.7437297
PAST SALE,May-31-2019,Townhouse,7217 Darby Downs,Elkridge,MD,21075,330000,3,2.5,ELKRIDGE CROSSING,2600,,2008,919,127,170,Sold,,,https://www.redfin.com/MD/Elkridge/7217-Darby-Downs-21075/unit-7217/home/23430006,BRIGHT MLS,MDHW260640,N,Y,39.209087,-76.727427
PAST SALE,September-29-2021,Single Family Residential,7914 Red Barn Way,Elkridge,MD,21075,417000,3,3.5,THOMPSONS PURCHASE,1980,7002,1984,67,211,,Sold,,,https://www.redfin.com/MD/Elkridge/7914-Red-Barn-Way-21075/home/9866293,BRIGHT MLS,MDHW2004256,N,Y,39.1955076,-76.7851697
PAST SALE,September-7-2021,Townhouse,8033 Watermill Ct,Elkridge,MD,21075,341000,3,2.5,THOMPSONS PURCHASE,1575,2000,1985,89,217,57,Sold,,,https://www.redfin.com/MD/Elkridge/8033-Watermill-Ct-21075/home/9868400,BRIGHT MLS,MDHW2000956,N,Y,39.196578,-76.789216
PAST SALE,October-27-2021,Single Family Residential,6412 Woodland Forest Dr,Elkridge,MD,21075,410000,3,3.0,NOTTINGHAM,2117,4416,1995,39,194,26,Sold,,,https://www.redfin.com/MD/Elkridge/6412-Woodland-Forest-Dr-21075/home/9889774,BRIGHT MLS,MDHW2003940,N,Y,39.195672,-76.7750617
PAST SALE,,Single Family Residential,6408 Ruxton Dr,Elkridge,MD,21075,767000,,3.5,,3344,14000,1999,,229,,,,,https://www.redfin.com/MD/Elkridge/6408-Ruxton-Dr-21075/home/9900193,,,N,Y,39.2103892,-76.7538289
PAST SALE,October-25-2021,Single Family Residential,7695 Mayfield Ave,Elkridge,MD,21075,605500,4,3.5,ELKRIDGE,2258,14713,2005,41,268,,Sold,,,https://www.redfin.com/MD/Elkridge/7695-Mayfield-Ave-21075/home/10218112,BRIGHT MLS,MDHW2004298,N,Y,39.1935082,-76.7777663
PAST SALE,September-13-2019,Townhouse,7132 Fox Harbor Way #124,Elkridge,MD,21075,325000,4,2.5,VILLAGE TOWNS,2102,,2005,814,155,165,Sold,,,https://www.redfin.com/MD/Elkridge/7132-Fox-Harbor-Way-21075/unit-124/home/11744074,BRIGHT MLS,MDHW267106,N,Y,39.1781338,-76.7849264
PAST SALE,September-27-2019,Townhouse,7016 Holly Springs Ln #60,Elkridge,MD,21075,323000,3,3.5,VILLAGE TOWNS,2280,,2006,800,142,165,Sold,,,https://www.redfin.com/MD/Elkridge/7016-Holly-Springs-Ln-21075/unit-60/home/12278279,BRIGHT MLS,MDHW267758,N,Y,39.1772729,-76.7838851
PAST SALE,September-15-2021,Townhouse,7627 Tall Pin Oak Dr #98,Elkridge,MD,21075,385000,3,2.5,THE OAKS AT WATERS EDGE,2144,,2006,81,180,238,Sold,,,https://www.redfin.com/MD/Elkridge/7627-Tall-Pin-Oak-Dr-21075/unit-98/home/12019845,BRIGHT MLS,MDHW2002984,N,Y,39.1816269,-76.7793164
PAST SALE,,Townhouse,6296 Ducketts Ln,Elkridge,MD,21075,285000,,1.5,,1080,1574363,1980,,264,,,,,https://www.redfin.com/MD/Elkridge/6296-Ducketts-Ln-21075/home/9865139,,,N,Y,39.199786,-76.7471668
PAST SALE,January-14-2020,Townhouse,8892 Purple Iris Ln #3,Elkridge,MD,21075,409500,4,3.5,GATEWAY OVERLOOK,2592,,2009,691,158,279,Sold,,,https://www.redfin.com/MD/Elkridge/8892-Purple-Iris-Ln-21075/unit-3/home/28481084,BRIGHT MLS,MDHW269042,N,Y,39.1815019,-76.7875729
PAST SALE,November-19-2021,Single Family Residential,5015 Landing Rd,Elkridge,MD,21075,932156,4,2.5,SAMUEL'S GRANT,2762,24311,2021,16,337,,Sold,,,https://www.redfin.com/MD/Elkridge/5015-Landing-Rd-21075/home/175847985,BRIGHT MLS,MDHW2002504,N,Y,39.2339372,-76.7655461
PAST SALE,,Townhouse,7120 Penny Ln,Elkridge,MD,21075,335000,,2.5,,1424,1156,2011,,235,,,,,https://www.redfin.com/MD/Elkridge/7120-Penny-Ln-21075/home/40023857,,,N,Y,39.175905,-76.785012
PAST SALE,November-22-2019,Townhouse,5879 Whisper Way Unit 17-01,Elkridge,MD,21075,257500,3,3.0,MONTGOMERY WOODS,2142,,1977,744,120,130,Sold,,,https://www.redfin.com/MD/Elkridge/5879-Whisper-Way-21075/unit-17-01/home/9864216,BRIGHT MLS,MDHW270760,N,Y,39.2095006,-76.7344267
PAST SALE,August-28-2019,Townhouse,8889 Purple Iris Ln,Elkridge,MD,21075,406200,3,3.5,GATEWAY OVERLOOK,2544,,2009,830,160,289,Sold,,,https://www.redfin.com/MD/Elkridge/8889-Purple-Iris-Ln-21075/home/26767335,BRIGHT MLS,MDHW260724,N,Y,39.1816099,-76.787376
PAST SALE,July-17-2019,Condo/Co-op,7305 Maplecrest Rd #302,Elkridge,MD,21075,374900,3,2.0,MAPLECREST,1900,,2005,872,197,416,Sold,,,https://www.redfin.com/MD/Elkridge/7305-Maplecrest-Rd-21075/unit-302/home/10224523,BRIGHT MLS,MDHW265410,N,Y,39.2042374,-76.7629581
PAST SALE,November-15-2021,Single Family Residential,5013 Landing Rd,Elkridge,MD,21075,1044842,4,2.5,Elkridge,3250,36983,2021,20,321,,Sold,,,https://www.redfin.com/MD/Elkridge/5013-Landing-Rd-21075/home/175847982,BRIGHT MLS,MDHW2002502,N,Y,39.2338109,-76.7659663
PAST SALE,April-8-2020,Single Family Residential,6689 Deep Run Pkwy,Elkridge,MD,21075,36000,2,2.0,DEEP RUN PARK,960,4791,1994,606,38,,Sold,,,https://www.redfin.com/MD/Elkridge/6689-Deep-Run-Pkwy-21075/home/170544090,BRIGHT MLS,MDHW275066,N,Y,39.1892885,-76.7838149
PAST SALE,June-28-2019,Townhouse,5901 Autumn Spell,Elkridge,MD,21075,396000,3,3.0,LYNDWOOD,2096,1775,1995,891,189,37,Sold,,,https://www.redfin.com/MD/Elkridge/5901-Autumn-Spell-21075/home/9893553,BRIGHT MLS,MDHW264428,N,Y,39.2123695,-76.7814173
PAST SALE,February-28-2019,Townhouse,6409 Frothingham Ct,Elkridge,MD,21075,355000,3,3.0,WILLOWOOD,2120,2250,1995,1011,167,48,Sold,,,https://www.redfin.com/MD/Elkridge/6409-Frothingham-Ct-21075/home/9889465,BRIGHT MLS,1008357016,N,Y,39.199792,-76.77489
PAST SALE,November-15-2021,Townhouse,7998 Potter Pl,Elkridge,MD,21075,570440,4,3.0,BLUE STREAM,2200,1742,2021,20,259,141,Sold,,,https://www.redfin.com/MD/Elkridge/7998-Potter-Pl-21075/home/174786458,BRIGHT MLS,MDHW2007168,N,Y,39.1832531,-76.775885
PAST SALE,October-12-2021,Single Family Residential,6021 Toomey Ln,Elkridge,MD,21075,700000,4,3.5,WESLEY WOODS,4888,10475,2003,54,143,15,Sold,,,https://www.redfin.com/MD/Elkridge/6021-Toomey-Ln-21075/home/10208011,BRIGHT MLS,MDHW2003820,N,Y,39.2116377,-76.7121192
PAST SALE,June-28-2019,Townhouse,5855 Whisper Way Unit 19-08,Elkridge,MD,21075,260000,3,3.0,MONTGOMERY WOODS,1816,,1976,891,143,130,Sold,,,https://www.redfin.com/MD/Elkridge/5855-Whisper-Way-21075/unit-19-08/home/9864181,BRIGHT MLS,MDHW263906,N,Y,39.209973,-76.733867
PAST SALE,December-7-2018,Townhouse,8856 Purple Iris Ln #14,Elkridge,MD,21075,420000,4,3.5,Elkridge,2592,,2008,1094,162,181,Sold,,,https://www.redfin.com/MD/Elkridge/8856-Purple-Iris-Ln-21075/unit-14/home/23435125,BRIGHT MLS,1007544502,N,Y,39.1826759,-76.7876498
PAST SALE,July-22-2019,Single Family Residential,6508 Grainger Ct,Elkridge,MD,21075,374000,3,2.5,MEADOWRIDGE LANDING,2112,4354,1997,867,177,8,Sold,,,https://www.redfin.com/MD/Elkridge/6508-Grainger-Ct-21075/home/9895150,BRIGHT MLS,MDHW265312,N,Y,39.196605,-76.7727628
