SALE TYPE,SOLD DATE,PROPERTY TYPE,ADDRESS,CITY,STATE OR PROVINCE,ZIP OR POSTAL CODE,PRICE,BEDS,BATHS,LOCATION,SQUARE FEET,LOT SIZE,YEAR BUILT,DAYS ON MARKET,$/SQUARE FEET,HOA/MONTH,STATUS,NEXT OPEN HOUSE START TIME,NEXT OPEN HOUSE END TIME,URL (SEE https://www.redfin.com/buy-a-home/comparative-market-analysis FOR INFO ON PRICING),SOURCE,MLS#,FAVORITE,INTERESTED,LATITUDE,LONGITUDE
MLS Listing,,Single Family Residential,201 Rolling Rd,Chestertown,MD,21620,299000,4,2.0,COLLEGE HEIGHTS,2652,19650,1975,4,113,,Active,,,https://www.redfin.com/MD/Chestertown/201-Rolling-Rd-21620/home/15272250,BRIGHT MLS,MDKE2000754,N,Y,39.221601,-76.061253
MLS Listing,,Single Family Residential,7457 Shortall St,Chestertown,MD,21620,199900,4,2.0,QUAKER ESTATES,1248,15000,1994,4,160,,Active,,,https://www.redfin.com/MD/Chestertown/7457-Shortall-St-21620/home/15273102,BRIGHT MLS,MDKE2000726,N,Y,39.1821,-76.0764
MLS Listing,,Single Family Residential,201 S Water St,Chestertown,MD,21620,2100000,4,2.0,CHESTERTOWN HISTORIC DISTRICT,4452,14706,1857,15,472,,Active,,,https://www.redfin.com/MD/Chestertown/201-S-Water-St-21620/home/15271750,BRIGHT MLS,MDKE2000704,N,Y,39.2064091,-76.0647999
MLS Listing,,Multi-Family (2-4 Unit),8900 Fairlee Rd,Chestertown,MD,21620,212000,,,Chestertown,2188,109336,1900,16,97,,Active,,,https://www.redfin.com/MD/Chestertown/8900-Fairlee-Rd-21620/home/15273947,BRIGHT MLS,MDKE2000516,N,Y,39.2228039,-76.17341
MLS Listing,,Vacant Land,Sandpiper Rd,Chestertown,MD,21620,18500,,,CHESAPEAKE LANDING,,26500,,26,,,Active,,,https://www.redfin.com/MD/CHESTERTOWN/SANDPIPER-RD-21620/home/17407630,BRIGHT MLS,MDKE2000680,N,Y,39.262809,-76.159115
MLS Listing,,Single Family Residential,10598 Klamath Rd,Chestertown,MD,21620,249000,3,2.0,CHESAPEAKE LANDING,1499,14984,2020,27,166,,Active,,,https://www.redfin.com/MD/Chestertown/10598-Klamath-Rd-21620/home/23121155,BRIGHT MLS,MDKE2000672,N,Y,39.269059,-76.1540969
MLS Listing,,Single Family Residential,105 S Queen St,Chestertown,MD,21620,520000,3,1.5,HISTORIC CHESTERTOWN,2456,3895,1900,29,212,,Active,,,https://www.redfin.com/MD/Chestertown/105-S-Queen-St-21620/home/15271742,BRIGHT MLS,MDKE2000594,N,Y,39.2075103,-76.0655024
MLS Listing,,Single Family Residential,302 Park Row,Chestertown,MD,21620,695000,4,2.5,CHESTERTOWN HISTORIC DISTRICT,3600,1145,1927,31,193,,Active,,,https://www.redfin.com/MD/Chestertown/302-Park-Row-21620/home/177080070,BRIGHT MLS,MDKE2000626,N,Y,39.2097669,-76.066171
MLS Listing,,Single Family Residential,8926 Fairlee Rd,Chestertown,MD,21620,289000,3,2.0,FAIRLEE,1988,14374,1983,31,145,,Active,,,https://www.redfin.com/MD/Chestertown/8926-Fairlee-Rd-21620/home/15272398,BRIGHT MLS,MDKE2000656,N,Y,39.2233476,-76.1724113
MLS Listing,,Single Family Residential,106 Devon Dr,Chestertown,MD,21620,374900,3,2.5,COVENTRY FARMS,1700,21522,2001,34,221,,Active,,,https://www.redfin.com/MD/Chestertown/106-Devon-Dr-21620/home/15274460,BRIGHT MLS,MDKE2000033,N,Y,39.227851,-76.088311
MLS Listing,,Vacant Land,Caulks Field Rd,Chestertown,MD,21620,199900,,,Chestertown,,1306800,,34,,,Active,,,https://www.redfin.com/MD/CHESTERTOWN/CAULKS-FIELD-RD-21620/home/17407666,BRIGHT MLS,MDKE2000648,N,Y,39.2101,-76.205691
MLS Listing,,Multi-Family (2-4 Unit),422-424 High St,Chestertown,MD,21620,344000,,,HISTORIC DISTRICT CHESTERTOWN,2880,2688,1920,35,119,,Active,,,https://www.redfin.com/MD/Chestertown/422-High-St-21620/home/15275369,BRIGHT MLS,MDKE2000622,N,Y,39.211369,-76.069792
MLS Listing,,Single Family Residential,9225 Fairlee Rd,Chestertown,MD,21620,129900,1,1.0,FAIRLEE,584,174850,1940,37,222,,Active,,,https://www.redfin.com/MD/Chestertown/9225-Fairlee-Rd-21620/home/15273448,BRIGHT MLS,MDKE2000628,N,Y,39.230686,-76.165899
MLS Listing,,Single Family Residential,314 Devon Dr,Chestertown,MD,21620,449000,5,3.5,COVENTRY FARMS,3480,10327,2010,37,129,16,Active,,,https://www.redfin.com/MD/Chestertown/314-Devon-Dr-21620/home/17407136,BRIGHT MLS,MDKE2000600,N,Y,39.231163,-76.089056
MLS Listing,,Vacant Land,116 Cross,Chestertown,MD,21620,79900,,,HISTORIC DISTRICT CHESTERTOWN,,7945,,38,,,Active,,,https://www.redfin.com/MD/Chestertown/116-N-Cross-St-21620/home/169445401,BRIGHT MLS,MDKE2000041,N,Y,39.210212,-76.065714
MLS Listing,,Vacant Land,100 Hoffecker Rd,Chestertown,MD,21620,50000,,,Chestertown,,43560,,44,,,Active,,,https://www.redfin.com/MD/Chestertown/100-Hoffecker-Rd-21620/home/23443931,BRIGHT MLS,MDQA2001336,N,Y,39.2038308,-75.9824893
MLS Listing,,Single Family Residential,9540 Fairlee Rd,Chestertown,MD,21620,487500,4,2.0,Chestertown,2795,120661,2003,51,174,,Active,,,https://www.redfin.com/MD/Chestertown/9540-Fairlee-Rd-21620/home/15273262,BRIGHT MLS,MDKE2000570,N,Y,39.239796,-76.1533665
MLS Listing,,Single Family Residential,143 Fairview Dr,Chestertown,MD,21620,198000,3,1.0,CHESTER HARBOR,1026,15000,1988,51,193,,Active,,,https://www.redfin.com/MD/Chestertown/143-Fairview-Dr-21620/home/15295110,BRIGHT MLS,MDQA2001260,N,Y,39.2127952,-76.0303739
MLS Listing,,Single Family Residential,8990 Georgetown Rd,Chestertown,MD,21620,279000,3,2.0,GEORGETOWN,1440,174240,1998,54,194,,Active,,,https://www.redfin.com/MD/Chestertown/8990-Georgetown-Rd-21620/home/15273638,BRIGHT MLS,MDKE2000045,N,Y,39.225747,-76.194095
MLS Listing,,Single Family Residential,10840 Foreston Rd,Chestertown,MD,21620,599000,3,2.5,CHESAPEAKE LANDING,2049,24380,1972,55,292,,Active,,,https://www.redfin.com/MD/Chestertown/10840-Foreston-Rd-21620/home/15276990,BRIGHT MLS,MDKE2000009,N,Y,39.2764187,-76.1631054
MLS Listing,,Vacant Land,"Lot 60, 61 And 62 Buck Neck Landing Rd",Chestertown,MD,21620,12000,,,CHESAPEAKE LANDING,,23850,,55,,,Active,,,https://www.redfin.com/MD/CHESTERTOWN/BUCK-NECK-RD-21620/home/17407723,BRIGHT MLS,MDKE2000031,N,Y,39.263993,-76.149483
MLS Listing,,Vacant Land,Old Morgnec Rd,Chestertown,MD,21620,49000,,,Chestertown,,59677,,58,,,Active,,,https://www.redfin.com/MD/CHESTERTOWN/OLD-MORGNEC-RD-21620/home/23121613,BRIGHT MLS,MDKE2000015,N,Y,39.254997,-75.998349
MLS Listing,,Single Family Residential,7755 Waterview Ln,Chestertown,MD,21620,1350000,4,2.5,COUNTRY CLUB ESTATES,4730,26500,2011,59,285,,Active,,,https://www.redfin.com/MD/Chestertown/7755-Water-View-Ln-21620/home/15273521,BRIGHT MLS,MDKE2000502,N,Y,39.19052,-76.0792
MLS Listing,,Single Family Residential,Leverage Rd,Chestertown,MD,21620,499900,4,2.5,BLAKEFIELD,1800,1257142,,61,278,,Active,,,https://www.redfin.com/MD/Unknown/Leverage-Rd-21620/home/23451499,BRIGHT MLS,MDQA2001246,N,Y,39.197235,-76.00107802
MLS Listing,,Single Family Residential,7071 Pomona Rd,Chestertown,MD,21620,590000,4,2.5,Chestertown,2544,88427,1991,62,232,,Active,,,https://www.redfin.com/MD/Chestertown/7071-Pomona-Rd-21620/home/15273492,BRIGHT MLS,MDKE2000566,N,Y,39.1719151,-76.108333
MLS Listing,,Vacant Land,Airy Hill-brices Mill Rd,Chestertown,MD,21620,55000,,,Chestertown,,66647,,63,,,Active,,,https://www.redfin.com/MD/CHESTERTOWN/AIRY-HILL-BRICES-MILL-RD-21620/home/17407376,BRIGHT MLS,MDKE2000472,N,Y,39.184906,-76.110474
MLS Listing,,Single Family Residential,8891 Georgetown Rd,Chestertown,MD,21620,270000,3,3.0,FAIRLEE,1600,91476,1900,71,169,,Active,,,https://www.redfin.com/MD/Chestertown/8891-Georgetown-Rd-21620/home/15273430,BRIGHT MLS,MDKE2000510,N,Y,39.221939,-76.195598
MLS Listing,,Vacant Land,Lot 1 Leverage Rd,Chestertown,MD,21620,235000,,,Chestertown,,1257142,,79,,,Active,,,https://www.redfin.com/MD/Unknown/Lot-1-Leverage-Rd-21620/home/175581516,BRIGHT MLS,MDQA2001100,N,Y,39.19680872,-76.00023485
MLS Listing,,Single Family Residential,9831 Breezecroft Ln,Chestertown,MD,21620,859000,3,3.5,FAIRLEE CREEK,2352,59242,1994,81,365,,Active,,,https://www.redfin.com/MD/Chestertown/9831-Breezecroft-Ln-21620/home/15273263,BRIGHT MLS,MDKE2000484,N,Y,39.2492515,-76.1986488
MLS Listing,,Single Family Residential,109 Lyons Ln,Chestertown,MD,21620,449000,3,2.5,REBA L ANTHONY SUBDIVISI,1944,17032,1981,81,231,,Active,,,https://www.redfin.com/MD/Chestertown/109-Lyons-Ln-21620/home/15294844,BRIGHT MLS,MDQA2001084,N,Y,39.2036798,-76.055622
MLS Listing,,Single Family Residential,620 High St,Chestertown,MD,21620,209000,2,1.0,DOWNTOWN CHESTERTOWN,1092,2990,1920,102,191,,Active,,,https://www.redfin.com/MD/Chestertown/620-High-St-21620/home/15271913,BRIGHT MLS,MDKE2000372,N,Y,39.213202,-76.0724761
MLS Listing,,Single Family Residential,114 N Water St,Chestertown,MD,21620,749000,4,3.5,CHESTERTOWN HISTORIC DISTRICT,3640,7781,1900,112,206,,Active,,,https://www.redfin.com/MD/Chestertown/114-N-Water-St-21620/home/15275368,BRIGHT MLS,MDKE2000282,N,Y,39.2087045,-76.0628738
MLS Listing,,Single Family Residential,101 N Water St,Chestertown,MD,21620,4150000,6,6.0,HISTORIC CHESTERTOWN,7440,41000,1769,113,558,,Active,,,https://www.redfin.com/MD/Chestertown/101-N-Water-St-21620/home/15272254,BRIGHT MLS,MDKE2000342,N,Y,39.2076099,-76.0633723
MLS Listing,,Vacant Land,Lots 586 & 587 WS Colfax Chesapeake Lndg,Worton,MD,21678,20000,,,CHESAPEAKE LANDING,,17200,,122,,,Active,,,https://www.redfin.com/MD/Worton/Lots-586-587-WS-Colfax-Chesapeake-LNDG-21678/home/175996789,BRIGHT MLS,MDKE2000322,N,Y,39.26607476,-76.15269927
MLS Listing,,Vacant Land,Marina Rd,Chestertown,MD,21620,14900,,,CHESAPEAKE LANDING,,24596,,127,,,Active,,,https://www.redfin.com/MD/CHESTERTOWN/MARINA-RD-21620/home/17407652,BRIGHT MLS,MDKE2000286,N,Y,39.267634,-76.165205
MLS Listing,,Townhouse,209 Landing Ln,Chestertown,MD,21620,539000,3,2.5,CHESTER RIVER LANDING,2400,,2009,142,225,489,Active,,,https://www.redfin.com/MD/Chestertown/209-Landing-Ln-21620/unit-33/home/16861384,BRIGHT MLS,MDKE2000194,N,Y,39.199564,-76.069286
MLS Listing,,Single Family Residential,336 Truslow Rd,Chestertown,MD,21620,249500,1,1.0,KINGSTOWN,600,15028,1945,152,416,,Active,,,https://www.redfin.com/MD/Chestertown/336-Truslow-Rd-21620/home/15295550,BRIGHT MLS,MDQA2000234,N,Y,39.2013772,-76.0550328
MLS Listing,,Single Family Residential,100 Malone Ave,Chestertown,MD,21620,269000,3,2.0,FOXLEY MANOR,2444,15000,1967,155,110,,Active,,,https://www.redfin.com/MD/Chestertown/100-Malone-Ave-21620/home/15274996,BRIGHT MLS,MDKE2000120,N,Y,39.2281801,-76.0730256
MLS Listing,,Single Family Residential,27320 Morgnec Rd,Chestertown,MD,21620,269900,3,1.5,Chestertown,3724,178160,1920,158,72,,Active,,,https://www.redfin.com/MD/Chestertown/27320-Morgnec-Rd-21620/home/15278815,BRIGHT MLS,MDKE2000034,N,Y,39.245503,-76.0210309
MLS Listing,,Single Family Residential,954 High St,Chestertown,MD,21620,775000,6,6.0,CHESTERTOWN,6334,262231,1881,169,122,,Active,,,https://www.redfin.com/MD/Chestertown/954-High-St-21620/home/15271975,BRIGHT MLS,MDKE118230,N,Y,39.2194926,-76.0852838
MLS Listing,,Single Family Residential,6769 Quaker Neck Rd,Chestertown,MD,21620,59000,3,1.0,CHESTERTOWN,1040,43560,1920,205,57,,Active,,,https://www.redfin.com/MD/Chestertown/6769-Quaker-Neck-Rd-21620/home/15272629,BRIGHT MLS,MDKE118128,N,Y,39.163324,-76.103338
MLS Listing,,Vacant Land,500 Morgnec Rd,Chestertown,MD,21620,395000,,,Chestertown,,72745,,211,,,Active,,,https://www.redfin.com/MD/Chestertown/500-Morgnec-Rd-21620/home/18991836,BRIGHT MLS,MDKE118108,N,Y,39.225647,-76.060412
MLS Listing,,Vacant Land,201 Duke Of Kent St,Chestertown,MD,21620,92500,,,KINGSTOWNE MANOR,,71003,,213,,,Active,,,https://www.redfin.com/MD/Chestertown/201-Duke-of-Kent-St-21620/home/23447579,BRIGHT MLS,MDQA147654,N,Y,39.204298,-76.050468
MLS Listing,,Single Family Residential,10561 Millbrook Dr,Chestertown,MD,21620,299000,3,1.5,CHESAPEAKE LANDING,1050,16250,1969,236,285,3,Active,,,https://www.redfin.com/MD/Chestertown/10561-Millbrook-Dr-21620/home/15278119,BRIGHT MLS,MDKE117956,N,Y,39.26804,-76.147723
MLS Listing,,Vacant Land,900 High St,Chestertown,MD,21620,695000,,,Chestertown,,682585,,247,,,Active,,,https://www.redfin.com/MD/Chestertown/900-High-St-21620/home/17407328,BRIGHT MLS,MDKE117896,N,Y,39.21957,-76.083678
MLS Listing,,Townhouse,211 Landing Ln,Chestertown,MD,21620,559000,3,2.5,CHESTER RIVER LANDING,2200,,2007,257,254,489,Active,,,https://www.redfin.com/MD/Chestertown/211-Landing-Ln-21620/home/28943888,BRIGHT MLS,MDKE117826,N,Y,39.199589,-76.069273
MLS Listing,,Vacant Land,Tolchester Rd,Rock Hall,MD,21661,20000,,,Rock Hall,,10890,,267,,,Active,,,https://www.redfin.com/MD/ROCK-HALL/TOLCHESTER-RD-21661/home/17407949,BRIGHT MLS,MDKE117804,N,Y,39.205354,-76.206723
MLS Listing,,Single Family Residential,7250 Pentridge Ln,Chestertown,MD,21620,1450000,4,2.5,LANGFORD FARM,,7351491,2002,281,,,Active,,,https://www.redfin.com/MD/Chestertown/7250-Pentridge-Ln-21620/home/17407315,BRIGHT MLS,MDKE117708,N,Y,39.174843,-76.138667
MLS Listing,,Vacant Land,Cloquet Rd,Chestertown,MD,21620,50000,,,CHESAPEAKE LANDING,,65776,,301,,,Active,,,https://www.redfin.com/MD/CHESTERTOWN/CLOQUET-RD-21620/home/17409836,BRIGHT MLS,MDKE117632,N,Y,39.268446,-76.159071
MLS Listing,,Vacant Land,Morgnec Rd,Chestertown,MD,21620,1500000,,,Chestertown,,567151,,411,,,Active,,,https://www.redfin.com/MD/CHESTERTOWN/MORGNEC-RD-21620/home/17409277,BRIGHT MLS,MDKE117304,N,Y,39.232916,-76.042201
MLS Listing,,Vacant Land,Church Hill Rd,Chestertown,MD,21620,119000,,,Chestertown,,232610,,417,,,Active,,,https://www.redfin.com/MD/CHESTERTOWN/CHURCH-HILL-RD-21620/home/15294666,BRIGHT MLS,MDQA145622,N,Y,39.203622,-76.053003
MLS Listing,,Vacant Land,Airport,Chestertown,MD,21620,400000,,,Chestertown,,1463616,,519,,,Active,,,https://www.redfin.com/MD/Chestertown/9860-Breezecroft-Ln-21620/home/172377586,BRIGHT MLS,MDKE116748,N,Y,39.2472925,-76.1999273
MLS Listing,,Vacant Land,206 Cannon St,Chestertown,MD,21620,1400000,,,HISTORIC DISTRICT CHESTERTOWN,,67954,,643,,,Active,,,https://www.redfin.com/MD/Chestertown/206-Cannon-St-21620/home/175543290,BRIGHT MLS,MDKE116292,N,Y,39.2083174,-76.0675653
MLS Listing,,Vacant Land,Morgnec Rd,Chestertown,MD,21620,180000,,,Chestertown,,582833,,672,,,Active,,,https://www.redfin.com/MD/Chestertown/Morgnec-Rd-S-21620/home/147228373,BRIGHT MLS,MDKE116168,N,Y,39.25435963,-76.0022924
MLS Listing,,Vacant Land,Lot 72 & 73 Buck Neck Rd,Chestertown,MD,21620,42900,,,CHESAPEAKE LANDING,,15000,,817,,,Active,,,https://www.redfin.com/MD/Unknown/Lot-72-73-Buck-Neck-Rd-21620/home/168970150,BRIGHT MLS,MDKE115688,N,Y,39.27116,-76.16766
MLS Listing,,Vacant Land,0 Morgnec Rd,Chestertown,MD,21620,226000,,,Chestertown,,93872,,906,,,Active,,,https://www.redfin.com/MD/Chestertown/402-Morgnec-Rd-21620/home/15276060,BRIGHT MLS,MDKE115280,N,Y,39.2249838,-76.0642561
MLS Listing,,Vacant Land,0 Airy Hill Rd,Chestertown,MD,21620,79900,,,Chestertown,,348480,,1002,,,Active,,,https://www.redfin.com/MD/CHESTERTOWN/AIRY-HILL-RD-21620/home/17407594,BRIGHT MLS,MDKE114034,N,Y,39.188604,-76.099617
MLS Listing,,Vacant Land,206 S Cross St,Chestertown,MD,21620,345000,,,DOWNTOWN CHESTERTOWN,,6220,,1450,,,Active,,,https://www.redfin.com/MD/Chestertown/206-S-Cross-St-21620/home/172339700,BRIGHT MLS,1004334335,N,Y,39.208101,-76.06788
MLS Listing,,Vacant Land,Radcliffe Rd,Chestertown,MD,21620,119000,,,HEATHER HEIGHTS,,48787,,2213,,,Active,,,https://www.redfin.com/MD/7-Pomona/Radcliffe-Rd-21620/home/174187597,BRIGHT MLS,1001005491,N,Y,39.19354432,-76.07899079
MLS Listing,,Vacant Land,329 Flatland Rd,Chestertown,MD,21620,2500000,,,COVENTRY FARMS,,3804530,,2714,,,Active,,,https://www.redfin.com/MD/Chestertown/329-Flatland-Rd-21620/home/17409030,BRIGHT MLS,1000083633,N,Y,39.2333679,-76.0852544
New Construction Home,,Townhouse,214 Landing Ln,Chestertown,MD,21620,614900,3,2.5,Chester River Landing,,,2017,1571,,,Active,,,https://www.redfin.com/MD/Chestertown/214-Landing-Ln-21620/home/143320424,NewHomeSource.com,1362845,N,Y,39.199023,-76.068678
New Construction Plan,,Single Family Residential,Sawgrass Legacy,Chestertown,MD,21620,559000,3,2.5,Chester River Landing,2394,,,,234,,Active,,,https://www.redfin.com/MD/Chestertown/Chester-River-Landing/Sawgrass-Legacy/home/145131502,NewHomeSource.com,Plan-181170962,N,Y,39.199023,-76.068678
PAST SALE,,Single Family Residential,413B Pine Tree Rd Unit B,Chestertown,MD,21620,220000,,2.0,,1232,60113,2012,,179,,,,,https://www.redfin.com/MD/Chestertown/413B-Pine-Tree-Rd-21620/unit-B/home/28499006,,,N,Y,39.2122925,-75.9275605
PAST SALE,May-13-2021,Vacant Land,Pine Tree Rd,Chestertown,MD,21620,97000,,,Chestertown,,138521,,206,,,Sold,,,https://www.redfin.com/MD/CHESTERTOWN/PINE-TREE-RD-21620/home/23447259,BRIGHT MLS,1000108098,N,Y,39.222402,-75.929076
PAST SALE,June-17-2020,Single Family Residential,401 N Kent St,Chestertown,MD,21620,90000,2,1.0,CHESTERTOWN,850,6125,1950,536,106,,Sold,,,https://www.redfin.com/MD/Chestertown/401-N-Kent-St-21620/home/15276506,BRIGHT MLS,MDKE116530,N,Y,39.213368,-76.0635536
PAST SALE,March-17-2021,Single Family Residential,109 Pine Cove Ln,Chestertown,MD,21620,271000,3,2.0,PINE COVE,1311,21000,2014,263,207,,Sold,,,https://www.redfin.com/MD/Chestertown/109-Pine-Cove-Ln-21620/home/23447165,BRIGHT MLS,MDQA146464,N,Y,39.2384449,-75.9602774
PAST SALE,June-28-2019,Single Family Residential,105 Pine Cove Ln,Chestertown,MD,21620,238000,3,2.5,PINE COVE,1466,26646,2014,891,162,,Sold,,,https://www.redfin.com/MD/Chestertown/105-Pine-Cove-Ln-21620/home/23447164,BRIGHT MLS,MDQA138024,N,Y,39.2386803,-75.960721
PAST SALE,October-22-2020,Single Family Residential,202 Mount Vernon Ave,Chestertown,MD,21620,385000,4,2.5,HISTORIC DISTRICT,2660,4800,1920,409,145,,Sold,,,https://www.redfin.com/MD/Chestertown/202-Mt-Vernon-Ave-21620/home/15271735,BRIGHT MLS,MDKE116872,N,Y,39.2133379,-76.0682217
PAST SALE,October-27-2020,Single Family Residential,137 Hilltop Dr,Chestertown,MD,21620,324000,4,2.0,THE FLYWAY,2136,43560,1994,404,152,,Sold,,,https://www.redfin.com/MD/Chestertown/137-Hilltop-Dr-21620/home/15294564,BRIGHT MLS,MDQA145064,N,Y,39.1935227,-76.0098688
PAST SALE,November-12-2021,Single Family Residential,7710 Brices Mill Rd,Chestertown,MD,21620,950000,5,3.5,Chestertown,2808,1988514,1752,23,338,,Sold,,,https://www.redfin.com/MD/Chestertown/7710-Brices-Mill-Rd-21620/home/82088207,BRIGHT MLS,MDKE2000426,N,Y,39.189531,-76.114131
PAST SALE,March-19-2021,Single Family Residential,205 Pear Tree Point Rd,Chestertown,MD,21620,380000,3,2.5,Chestertown,2482,43560,1990,261,153,,Sold,,,https://www.redfin.com/MD/Chestertown/205-Pear-Tree-Point-Rd-21620/home/15282269,BRIGHT MLS,MDQA146284,N,Y,39.2188069,-76.0182695
PAST SALE,August-20-2021,Townhouse,21321 Persimmon Dr #22,Chestertown,MD,21620,121900,2,1.0,TOLCHESTER,1269,2882,1955,107,96,40,Sold,,,https://www.redfin.com/MD/Chestertown/21321-Persimmon-DR-21620/unit-22/home/174973439,BRIGHT MLS,MDKE117998,N,Y,39.20399169,-76.23185673
PAST SALE,March-13-2020,Single Family Residential,705 High St,Chestertown,MD,21620,30000,2,1.0,CHESTERTOWN,640,5890,1950,632,47,,Sold,,,https://www.redfin.com/MD/Chestertown/705-High-St-21620/home/15272042,BRIGHT MLS,MDKE115750,N,Y,39.213585,-76.07349
PAST SALE,March-31-2021,Vacant Land,Park Dr,Chestertown,MD,21620,72000,,,TOLCHESTER HEIGHTS,,59677,,249,,,Sold,,,https://www.redfin.com/MD/CHESTERTOWN/PARK-DR-21620/home/17407937,BRIGHT MLS,MDKE116398,N,Y,39.217134,-76.240543
PAST SALE,December-18-2020,Single Family Residential,351 Park Ln,Chestertown,MD,21620,1100000,4,3.0,ROYSTON SHORES,2476,241758,1975,352,444,,Sold,,,https://www.redfin.com/MD/Chestertown/351-Park-Ln-21620/home/15282394,BRIGHT MLS,MDQA145802,N,Y,39.218732,-76.030004
PAST SALE,July-2-2021,Single Family Residential,121 Justin Buch Dr,Chestertown,MD,21620,325000,3,2.0,LEONARD CALDWELL LANDS,1680,51836,2001,156,193,,Sold,,,https://www.redfin.com/MD/Chestertown/121-Justin-Buch-Dr-21620/home/15294231,BRIGHT MLS,MDQA147354,N,Y,39.2141795,-76.0342455
PAST SALE,January-8-2021,Single Family Residential,121 Lyons Ln,Chestertown,MD,21620,630000,4,2.5,REBA L ANTHONY SUBDIVISI,2327,82764,1990,331,271,,Sold,,,https://www.redfin.com/MD/Chestertown/121-Lyons-Ln-21620/home/15294625,BRIGHT MLS,MDQA144322,N,Y,39.2025576,-76.055894
PAST SALE,,Single Family Residential,108 BLUE HERON LN,CRUMPTON,MD,21628,350000,,2.0,,1768,298822,1977,,198,,,,,https://www.redfin.com/MD/CRUMPTON/108-BLUE-HERON-LN-21628/home/15282397,,,N,Y,39.233977,-75.938541
PAST SALE,August-14-2020,Single Family Residential,310 Spring Rd,Millington,MD,21651,230000,4,2.0,MILLINGTON,2280,117176,2004,478,101,,Sold,,,https://www.redfin.com/MD/Millington/310-Spring-Rd-21651/home/17411210,BRIGHT MLS,MDQA144024,N,Y,39.2196882,-75.9178122
PAST SALE,September-3-2021,Single Family Residential,210 Calvert St,Chestertown,MD,21620,270000,4,2.0,HISTORIC DISTRICT CHESTERTOWN,1747,5662,1920,93,155,,Sold,,,https://www.redfin.com/MD/Chestertown/210-Calvert-St-21620/home/15276355,BRIGHT MLS,MDKE2000050,N,Y,39.211669,-76.068389
PAST SALE,June-30-2021,Single Family Residential,112 Hoffecker Rd,Chestertown,MD,21620,57000,2,1.0,Chestertown,956,43560,1967,158,60,,Sold,,,https://www.redfin.com/MD/Chestertown/112-Hoffecker-Rd-21620/home/15282774,BRIGHT MLS,MDQA145798,N,Y,39.203362,-75.981107
PAST SALE,,Condo/Co-op,7501 Church Hill Rd,Chestertown,MD,21620,700000,,,,1344,,1940,,521,,,,,https://www.redfin.com/MD/Chestertown/7501-Church-Hill-Rd-21620/home/44631309,,,N,Y,39.206008,-76.0569138
PAST SALE,September-30-2021,Single Family Residential,10856 Foreston Rd,Chestertown,MD,21620,405000,2,1.0,CHESAPEAKE LANDING,1380,46174,1969,66,293,,Sold,,,https://www.redfin.com/MD/Chestertown/10856-Foreston-Rd-21620/home/15275196,BRIGHT MLS,MDKE2000188,N,Y,39.275615,-76.161888
PAST SALE,September-23-2019,Single Family Residential,347 Round Top Wharf Rd,Chestertown,MD,21620,180000,3,1.0,NINE ACRES,1040,23958,2010,804,173,,Sold,,,https://www.redfin.com/MD/Chestertown/347-Round-Top-Rd-21620/home/21907639,BRIGHT MLS,MDQA140718,N,Y,39.207101,-76.035931
PAST SALE,August-16-2019,Vacant Land,8920 Orchard Dr,Chestertown,MD,21620,55000,,,ORCHARD HILL,,95832,,842,,,Sold,,,https://www.redfin.com/MD/Chestertown/8920-Orchard-Dr-21620/home/17408964,BRIGHT MLS,1002109914,N,Y,39.2218469,-76.097131
PAST SALE,January-22-2019,Single Family Residential,405 River Rd,Chestertown,MD,21620,295000,3,3.0,Chestertown,2467,63162,2005,1048,120,,Sold,,,https://www.redfin.com/MD/Chestertown/405-River-Rd-21620/home/15294940,BRIGHT MLS,1002304002,N,Y,39.1896265,-76.0629011
PAST SALE,September-30-2021,Single Family Residential,103 Camelot Dr,Chestertown,MD,21620,355000,4,2.5,COVENTRY FARMS,3816,11300,2009,66,93,12,Sold,,,https://www.redfin.com/MD/Chestertown/103-Camelot-21620/home/17407156,BRIGHT MLS,MDKE118166,N,Y,39.2305225,-76.0914283
PAST SALE,September-23-2021,Single Family Residential,6270 Broad Neck Rd,Chestertown,MD,21620,8850000,4,2.5,CHESTERTOWN,3360,34412400,1978,73,2634,,Sold,,,https://www.redfin.com/MD/Chestertown/6270-Broad-Neck-Rd-21620/home/143206524,BRIGHT MLS,MDKE117568,N,Y,39.152732,-76.17729
PAST SALE,December-14-2018,Vacant Land,Flatland Rd,Chestertown,MD,21620,30000,,,Chestertown,,185304,,1087,,,Sold,,,https://www.redfin.com/MD/CHESTERTOWN/FLATLAND-RD-21620/home/17408048,BRIGHT MLS,1003225994,N,Y,39.257403,-76.125188
PAST SALE,January-31-2019,Single Family Residential,602 Rosin Dr,Chestertown,MD,21620,169900,3,2.0,CHESTER HARBOR,1428,21170,1990,1039,119,,Sold,,,https://www.redfin.com/MD/Chestertown/602-Rosin-Dr-21620/home/15294694,BRIGHT MLS,1002283206,N,Y,39.2140392,-76.0278353
PAST SALE,April-4-2019,Single Family Residential,229 Princess Anne Dr,Chestertown,MD,21620,280000,3,2.0,KINGSTOWNE MANOR,1867,20000,2004,976,150,,Sold,,,https://www.redfin.com/MD/Chestertown/229-Princess-Anne-Dr-21620/home/15294141,BRIGHT MLS,1009970936,N,Y,39.206878,-76.0468741
PAST SALE,March-9-2020,Single Family Residential,205 Creston Rd,Chestertown,MD,21620,227000,3,1.0,CHESTER HARBOR,1338,15300,1975,636,170,2,Sold,,,https://www.redfin.com/MD/Chestertown/205-Creston-Rd-21620/home/15294632,BRIGHT MLS,MDQA136892,N,Y,39.2108717,-76.0273366
PAST SALE,April-3-2020,Single Family Residential,423 Fairview Dr,Chestertown,MD,21620,310000,3,2.0,CHESTER HARBOR,1680,20592,1984,611,185,2,Sold,,,https://www.redfin.com/MD/Chestertown/423-Fairview-Dr-21620/home/15294777,BRIGHT MLS,MDQA140474,N,Y,39.216716,-76.030054
PAST SALE,,Single Family Residential,23292 Schooner Rd,Chestertown,MD,21620,235000,,1.0,,1878,22500,1987,,125,,,,,https://www.redfin.com/MD/Chestertown/23292-Schooner-Rd-21620/home/15272557,,,N,Y,39.265381,-76.1627861
PAST SALE,August-29-2019,Single Family Residential,114 Malone Ave,Chestertown,MD,21620,220000,3,2.5,FOXLEY MANOR,1514,15681,1964,829,145,,Sold,,,https://www.redfin.com/MD/Chestertown/114-Malone-Ave-21620/home/15274977,BRIGHT MLS,MDKE115450,N,Y,39.228103,-76.074175
PAST SALE,,Vacant Land,SCHOONER RD,CHESTERTOWN,MD,21620,5000,,,,,22400,,,,,,,,https://www.redfin.com/MD/CHESTERTOWN/SCHOONER-RD-21620/home/17407828,,,N,Y,39.266949,-76.166587
PAST SALE,,Vacant Land,BUNTING RD,CHESTERTOWN,MD,21620,16000,,,,,15000,,,,,,,,https://www.redfin.com/MD/CHESTERTOWN/BUNTING-RD-21620/home/17407721,,,N,Y,39.264037,-76.159567
PAST SALE,,Vacant Land,VERMONT AVE,CHESTERTOWN,MD,21620,12000,,,,,12000,,,,,,,,https://www.redfin.com/MD/CHESTERTOWN/VERMONT-AVE-21620/home/17407662,,,N,Y,39.233014,-76.231021
PAST SALE,December-28-2018,Vacant Land,Radcliffe Rd,Chestertown,MD,21620,60000,,,HEATHER HEIGHTS,,33800,,1073,,,Sold,,,https://www.redfin.com/MD/CHESTERTOWN/RADCLIFF-DR-21620/home/17407443,BRIGHT MLS,1003383914,N,Y,39.192862,-76.076499
PAST SALE,,Single Family Residential,25799 John Hanson Rd,Chestertown,MD,21620,425000,,2.5,,2923,35875,1965,,145,,,,,https://www.redfin.com/MD/Chestertown/25799-John-Hanson-Rd-21620/home/15273213,,,N,Y,39.1956875,-76.075586
PAST SALE,April-26-2019,Vacant Land,Airy Hill Rd,Chestertown,MD,21620,900000,,,Chestertown,,4356000,,954,,,Sold,,,https://www.redfin.com/MD/CHESTERTOWN/AIRY-HILL-RD-21620/home/17407391,BRIGHT MLS,MDKE114970,N,Y,39.187125,-76.100504
PAST SALE,,Single Family Residential,6719 Quaker Neck Rd,Chestertown,MD,21620,170000,,2.0,,1352,53579,1995,,126,,,,,https://www.redfin.com/MD/Chestertown/6719-Quaker-Neck-Rd-21620/home/15273046,,,N,Y,39.16226,-76.109299
PAST SALE,July-8-2020,Single Family Residential,101 Myers Rd,Chestertown,MD,21620,350000,4,3.5,THE GROVE,2910,44867,1996,515,120,,Sold,,,https://www.redfin.com/MD/Chestertown/101-Myers-Rd-21620/home/15294238,BRIGHT MLS,MDQA143146,N,Y,39.1905063,-76.012557
PAST SALE,September-24-2021,Single Family Residential,7431 Maple Grove Rd,Chestertown,MD,21620,1075000,4,4.0,Chestertown,5595,917809,2002,72,192,,Sold,,,https://www.redfin.com/MD/Chestertown/7431-Maple-Grove-Rd-21620/home/17407296,BRIGHT MLS,MDKE118122,N,Y,39.181632,-76.123693
PAST SALE,June-1-2021,Single Family Residential,204 Campus Ave E,Chestertown,MD,21620,380000,4,2.5,BYFORD HEIGHTS,2310,17500,1928,187,165,,Sold,,,https://www.redfin.com/MD/Chestertown/204-E-Campus-Ave-21620/home/15276841,BRIGHT MLS,MDKE117764,N,Y,39.2163123,-76.0639451
PAST SALE,October-29-2021,Single Family Residential,105 Lyons Ln,Chestertown,MD,21620,255000,3,2.0,REBA L ANTHONY SUBDIVISI,1192,15943,1997,37,214,,Sold,,,https://www.redfin.com/MD/Chestertown/105-Lyons-Ln-21620/home/15294890,BRIGHT MLS,MDQA2000498,N,Y,39.2038889,-76.0557636
PAST SALE,October-28-2020,Single Family Residential,4845 Cliffs City Rd,Chestertown,MD,21620,2650000,7,8.0,QUAKER NECK,9177,7149502,1965,403,289,,Sold,,,https://www.redfin.com/MD/Chestertown/4845-Cliffs-City-Rd-21620/home/146450805,BRIGHT MLS,MDKE117046,N,Y,39.111736,-76.140697
PAST SALE,August-16-2021,Single Family Residential,301 E Campus Ave,Chestertown,MD,21620,245000,3,2.0,BYFORD DEVELOPMENT,1398,15000,1964,111,175,,Sold,,,https://www.redfin.com/MD/Chestertown/301-E-Campus-Ave-21620/home/15274947,BRIGHT MLS,MDKE2000138,N,Y,39.2162685,-76.0625112
PAST SALE,,Vacant Land,PENNSYLVANIA AVE,CHESTERTOWN,MD,21620,7200,,,,,10000,,,,,,,,https://www.redfin.com/MD/CHESTERTOWN/PENNSYLVANIA-AVE-21620/home/17407966,,,N,Y,39.230152,-76.231166
PAST SALE,May-27-2021,Single Family Residential,104 Riverview Pl,Chestertown,MD,21620,705000,3,2.0,KINGSTOWN,2196,18295,2015,192,321,,Sold,,,https://www.redfin.com/MD/Chestertown/104-Riverview-Pl-21620/home/15295432,BRIGHT MLS,MDQA147214,N,Y,39.20484,-76.057818
PAST SALE,June-6-2019,Single Family Residential,203 David Dr,Chestertown,MD,21620,220000,4,2.0,BYFORD DEVELOPMENT,1876,15000,1964,913,117,,Sold,,,https://www.redfin.com/MD/Chestertown/203-David-Dr-21620/home/15272060,BRIGHT MLS,MDKE114948,N,Y,39.21529,-76.06027
PAST SALE,April-22-2019,Single Family Residential,203 Washington Ave,Chestertown,MD,21620,297000,3,2.0,Chestertown,2028,9418,1900,958,146,,Sold,,,https://www.redfin.com/MD/Chestertown/203-Washington-Ave-21620/home/15272495,BRIGHT MLS,MDKE107872,N,Y,39.2134498,-76.065865
PAST SALE,December-4-2019,Single Family Residential,22452 Goose Hollow Rd,Chestertown,MD,21620,460000,4,2.5,Chestertown,2531,138085,1988,732,182,,Sold,,,https://www.redfin.com/MD/Chestertown/22452-Goose-Hollow-Dr-21620/home/15273973,BRIGHT MLS,MDKE115150,N,Y,39.243948,-76.1923149
PAST SALE,April-9-2020,Single Family Residential,220 Duke Of Kent St,Chestertown,MD,21620,252500,4,2.0,KINGSTOWNE MANOR,2412,20000,1993,605,105,,Sold,,,https://www.redfin.com/MD/Chestertown/220-Duke-of-Kent-St-21620/home/15291412,BRIGHT MLS,MDQA141466,N,Y,39.2060244,-76.0483699
PAST SALE,January-15-2020,Single Family Residential,116 Woodstock Rd,Chestertown,MD,21620,200000,3,1.5,CHESTER HARBOR,1368,15000,1987,690,146,,Sold,,,https://www.redfin.com/MD/Chestertown/116-Woodstock-Rd-21620/home/15295506,BRIGHT MLS,MDQA141742,N,Y,39.211844,-76.034061
PAST SALE,March-15-2021,Single Family Residential,105 Sheaffer Rd,Chestertown,MD,21620,351000,4,2.5,THE GROVE,1784,44867,2015,265,197,,Sold,,,https://www.redfin.com/MD/Chestertown/105-Sheaffer-Rd-21620/home/23441683,BRIGHT MLS,MDQA146472,N,Y,39.1917171,-76.0064814
PAST SALE,,Vacant Land,144 Char nor Manor Blvd,Chestertown,MD,21620,23000,,,,,22500,,,,,,,,https://www.redfin.com/MD/Chestertown/144-Char-nor-Manor-Blvd-21620/home/23440847,,,N,Y,39.239453,-75.983749
PAST SALE,August-15-2019,Single Family Residential,108 Pine Cove Ln,Chestertown,MD,21620,242000,3,2.0,PINE COVE,,25896,2018,843,,,Sold,,,https://www.redfin.com/MD/Chestertown/108-Pine-Cove-Ln-21620/home/23440966,BRIGHT MLS,1000219966,N,Y,39.237884,-75.960531
PAST SALE,,Vacant Land,100 E Step Rd,Chestertown,MD,21620,260000,,,,,16418,,,,,,,,https://www.redfin.com/MD/Chestertown/100-E-Step-Rd-21620/home/23449222,,,N,Y,39.23715,-75.98359
PAST SALE,,Vacant Land,144 Royston Shores Rd Unit R,Chestertown,MD,21620,140000,,,,,24000,,,,,,,,https://www.redfin.com/MD/Chestertown/144-Royston-Shores-Rd-21620/unit-R/home/23448572,,,N,Y,39.2210614,-76.0314677
PAST SALE,,Vacant Land,736 Double Creek Point Rd,Chestertown,MD,21620,235650,,,,,20338,,,,,,,,https://www.redfin.com/MD/Chestertown/736-Double-Creek-Point-Rd-21620/home/23451724,,,N,Y,39.237167,-75.983474
PAST SALE,,Vacant Land,1925 Pondtown Rd,Chestertown,MD,21620,30000,,,,,261360,,,,,,,,https://www.redfin.com/MD/Chestertown/1925-Pondtown-Rd-21620/home/23452397,,,N,Y,39.21173,-75.922484
PAST SALE,January-3-2020,Single Family Residential,130 Prospect,Chestertown,MD,21620,35000,3,2.0,CHESTERTOWN,1012,5376,1988,702,35,,Sold,,,https://www.redfin.com/MD/Chestertown/130-Prospect-St-21620/home/169951857,BRIGHT MLS,MDKE116002,N,Y,39.215052,-76.071383
PAST SALE,September-27-2021,Single Family Residential,102 Dutchess Rd,Chestertown,MD,21620,240000,3,2.0,CHESTER HARBOR,1144,16428,1992,69,210,,Sold,,,https://www.redfin.com/MD/Chestertown/102-Dutchess-Rd-21620/home/15295775,BRIGHT MLS,MDQA2000542,N,Y,39.2107952,-76.0249112
PAST SALE,September-10-2021,Vacant Land,Fairlee-bayshore,Chestertown,MD,21620,30000,,,FAIRLEE,,43560,,86,,,Sold,,,https://www.redfin.com/MD/Chestertown/Unknown-21620/home/146459378,BRIGHT MLS,MDKE2000140,N,Y,39.22726429,-76.18736346
PAST SALE,August-31-2021,Single Family Residential,118 Chester Vw,Chestertown,MD,21620,641219,2,2.0,CHESTERTOWN,1326,87120,1982,96,484,,Sold,,,https://www.redfin.com/MD/Chestertown/118-Chester-Vw-21620/home/15294266,BRIGHT MLS,MDQA2000068,N,Y,39.2168382,-76.0341365
PAST SALE,,Vacant Land,ELM ST,CHESTERTOWN,MD,21620,26000,,,,,24000,,,,,,,,https://www.redfin.com/MD/CHESTERTOWN/ELM-ST-21620/home/17408099,,,N,Y,39.215601,-76.236701
PAST SALE,,Single Family Residential,207 Union Church Rd,Chestertown,MD,21620,375000,,2.0,,1914,43560,2001,,196,,,,,https://www.redfin.com/MD/Chestertown/207-Union-Church-Rd-21620/home/15281204,,,N,Y,39.19058,-76.016258
PAST SALE,,Townhouse,21312 PERSIMMON DR,CHESTERTOWN,MD,21620,131900,,1.0,,1350,2880,1955,,98,,,,,https://www.redfin.com/MD/CHESTERTOWN/21312-PERSIMMON-DR-21620/home/15272916,,,N,Y,39.203872,-76.231584
PAST SALE,,Vacant Land,LANGFORD RD,CHESTERTOWN,MD,21620,32000,,,,,95832,,,,,,,,https://www.redfin.com/MD/CHESTERTOWN/LANGFORD-RD-21620/home/17407891,,,N,Y,39.213806,-76.115177
PAST SALE,,Single Family Residential,224 Fey Rd,Chestertown,MD,21620,200000,,2.0,,1504,22326,1988,,133,,,,,https://www.redfin.com/MD/Chestertown/224-Fey-Rd-21620/home/15291406,,,N,Y,39.2083813,-76.0480979
PAST SALE,February-12-2020,Single Family Residential,111 Woodstock Rd,Chestertown,MD,21620,215000,3,2.0,CHESTER HARBOR,1056,23608,1975,662,204,,Sold,,,https://www.redfin.com/MD/Chestertown/111-Woodstock-Rd-21620/home/15295501,BRIGHT MLS,MDQA142394,N,Y,39.211847,-76.03569
PAST SALE,,Single Family Residential,23438 Sandpiper Rd,Chestertown,MD,21620,115000,,2.0,,1966,21600,1979,,58,,,,,https://www.redfin.com/MD/Chestertown/23438-Sandpiper-Rd-21620/home/15273291,,,N,Y,39.2654403,-76.1589545
PAST SALE,,Townhouse,21336 PERSIMMON DR,CHESTERTOWN,MD,21620,130900,,1.0,,1350,2880,1955,,97,,,,,https://www.redfin.com/MD/CHESTERTOWN/21336-PERSIMMON-DR-21620/home/15272926,,,N,Y,39.204414,-76.231742
PAST SALE,,Single Family Residential,401 Ewingtown Rd,Church Hill,MD,21623,430000,,1.5,,2603,116436,1984,,165,,,,,https://www.redfin.com/MD/Church-Hill/401-Ewingtown-Rd-21623/home/15294133,,,N,Y,39.1778505,-75.9867342
PAST SALE,July-6-2021,Single Family Residential,325 Truslow Rd,Chestertown,MD,21620,253000,3,1.0,Chestertown,1272,20909,1973,152,199,,Sold,,,https://www.redfin.com/MD/Chestertown/325-Truslow-Rd-21620/home/15292042,BRIGHT MLS,MDQA147388,N,Y,39.2022807,-76.053945
PAST SALE,September-17-2020,Single Family Residential,23416 Cloquet Rd,Chestertown,MD,21620,230000,3,2.0,CHESAPEAKE LANDING,1512,14984,2020,444,152,,Sold,,,https://www.redfin.com/MD/Chestertown/23416-Cloquet-Rd-21620/home/17407403,BRIGHT MLS,MDKE116716,N,Y,39.2680417,-76.158235
PAST SALE,June-7-2019,Vacant Land,Chestertown Rd,Chestertown,MD,21620,21500,,,Chestertown,,34848,,912,,,Sold,,,https://www.redfin.com/MD/CHESTERTOWN/CHESTERTOWN-RD-21620/home/17407930,BRIGHT MLS,1000083663,N,Y,39.217047,-76.130798
PAST SALE,May-22-2020,Vacant Land,0 White Swan Ct,Chestertown,MD,21620,79500,,,FAIRGALE PROPERTIES,,57499,,562,,58,Sold,,,https://www.redfin.com/MD/CHESTERTOWN/WHITE-SWAN-CT-21620/home/23121153,BRIGHT MLS,MDKE115100,N,Y,39.247576,-76.185442
PAST SALE,August-19-2019,Vacant Land,335 Union Church Rd,Chestertown,MD,21620,62000,,,THE GROVE,,76230,,839,,,Sold,,,https://www.redfin.com/MD/Chestertown/335-Union-Church-Rd-21620/home/23441684,BRIGHT MLS,1009980572,N,Y,39.1909,-76.00618
PAST SALE,April-18-2019,Single Family Residential,406 River Rd,Chestertown,MD,21620,750000,3,4.5,SARAH SKIPPER LANDS,5200,26615,1995,962,144,,Sold,,,https://www.redfin.com/MD/Chestertown/406-River-Rd-21620/home/15295205,BRIGHT MLS,1001205824,N,Y,39.1900868,-76.0641623
PAST SALE,,Single Family Residential,315 Longfellow Dr,Chestertown,MD,21620,156000,,2.0,,1296,22500,2002,,120,,,,,https://www.redfin.com/MD/Chestertown/315-Longfellow-Dr-21620/home/15295522,,,N,Y,39.2131619,-76.035757
PAST SALE,October-9-2020,Multi-Family (2-4 Unit),321-343 Calvert St,Chestertown,MD,21620,670000,,,Chestertown,7168,24524,1987,422,93,,Sold,,,https://www.redfin.com/MD/Chestertown/321-Calvert-St-21620/home/170304406,BRIGHT MLS,MDKE116114,N,Y,39.2123227,-76.069616
PAST SALE,,Townhouse,101 Flying Cloud Dr,Chestertown,MD,21620,50000,,,,,4967,,,,,,,,https://www.redfin.com/MD/Chestertown/101-Flying-Cloud-Dr-21620/home/15271399,,,N,Y,39.228443,-76.064125
PAST SALE,,Condo/Co-op,223 S Water St #5,Chestertown,MD,21620,169000,,3.5,,2800,,2006,,60,,,,,https://www.redfin.com/MD/Chestertown/223-S-Water-St-21620/unit-5/home/15271417,,,N,Y,39.20511,-76.0655
PAST SALE,December-30-2019,Single Family Residential,109 S Kent St,Chestertown,MD,21620,277500,2,2.5,CHESTERTOWN HISTORIC DISTRICT,1120,1352,1900,706,248,,Sold,,,https://www.redfin.com/MD/Chestertown/109-S-Kent-St-21620/home/15276115,BRIGHT MLS,MDKE116076,N,Y,39.2106223,-76.0706379
PAST SALE,August-30-2019,Single Family Residential,105 Chester Vw,Chestertown,MD,21620,635000,3,1.5,Chestertown,1987,167270,1964,828,320,,Sold,,,https://www.redfin.com/MD/Chestertown/105-Chester-Vw-21620/home/15295032,BRIGHT MLS,MDQA139826,N,Y,39.217533,-76.03545
PAST SALE,,Single Family Residential,425 Rolphs Wharf Rd,Chestertown,MD,21620,450000,,1.0,,1344,10466597,1920,,335,,,,,https://www.redfin.com/MD/Chestertown/425-Rolphs-Wharf-Rd-21620/home/44631236,,,N,Y,39.168478,-76.013212
PAST SALE,November-21-2019,Townhouse,117 Acorn Dr,Chestertown,MD,21620,175000,3,2.5,"OAKSTREET, LLC",1876,2200,2005,745,93,55,Sold,,,https://www.redfin.com/MD/Chestertown/117-Acorn-Dr-21620/home/15271847,BRIGHT MLS,MDKE115396,N,Y,39.2276417,-76.0668903
PAST SALE,,Single Family Residential,27370 Morgnec Rd,Chestertown,MD,21620,195000,,1.5,,1008,41686,1969,,193,,,,,https://www.redfin.com/MD/Chestertown/27370-Morgnec-Rd-21620/home/15275938,,,N,Y,39.246259,-76.0193118
PAST SALE,,Vacant Land,CHESMAR RD,CHESTERTOWN,MD,21620,5000,,,,,26092,,,,,,,,https://www.redfin.com/MD/CHESTERTOWN/CHESMAR-RD-21620/home/17409080,,,N,Y,39.22181,-76.041665
PAST SALE,,Single Family Residential,205 Glen St,Chestertown,MD,21620,255000,,2.0,,1404,22550,1972,,182,,,,,https://www.redfin.com/MD/Chestertown/205-Glen-St-21620/home/15272198,,,N,Y,39.2205493,-76.0620126
PAST SALE,October-21-2021,Single Family Residential,114 Heath Rd,Chestertown,MD,21620,235000,3,1.0,CHESTER HARBOR,1560,20320,1979,45,151,2,Sold,,,https://www.redfin.com/MD/Chestertown/114-Heath-Rd-21620/home/15295047,BRIGHT MLS,MDQA2000994,N,Y,39.213759,-76.0308631
PAST SALE,November-12-2020,Townhouse,"21347 Lynn Lane, Lot 6",Chestertown,MD,21620,128000,3,1.0,TOLCHESTER,1254,7173,1955,388,102,40,Sold,,,https://www.redfin.com/MD/Chestertown/21347-Lynn-Lane-Lot-6-21620/home/173370066,BRIGHT MLS,MDKE117222,N,Y,39.2041877,-76.23094756
PAST SALE,October-16-2020,Single Family Residential,300 Princess Anne Dr,Chestertown,MD,21620,290000,3,2.0,KINGSTOWNE MANOR,1680,21300,1992,415,173,,Sold,,,https://www.redfin.com/MD/Chestertown/300-Princess-Anne-Dr-21620/home/15291416,BRIGHT MLS,MDQA144760,N,Y,39.2082797,-76.0466458
PAST SALE,September-19-2019,Single Family Residential,244 River Rd,Chestertown,MD,21620,675000,4,3.0,SARAH SKIPPER LANDS,2182,38594,1962,808,309,,Sold,,,https://www.redfin.com/MD/Chestertown/244-River-Rd-21620/home/15294635,BRIGHT MLS,MDQA139824,N,Y,39.193743,-76.064615
PAST SALE,October-2-2020,Single Family Residential,10610 Klamath Rd,Chestertown,MD,21620,220000,3,1.5,CHESAPEAKE LANDING,1440,15000,1976,429,153,,Sold,,,https://www.redfin.com/MD/Chestertown/10610-Klamath-Rd-21620/home/15277575,BRIGHT MLS,MDKE116970,N,Y,39.2693636,-76.1542458
PAST SALE,December-18-2020,Single Family Residential,10572 Klamath Rd,Chestertown,MD,21620,210000,3,2.0,CHESAPEAKE LANDING,1232,22500,1996,352,170,,Sold,,,https://www.redfin.com/MD/Chestertown/10572-Klamath-Rd-21620/home/15277633,BRIGHT MLS,MDKE117348,N,Y,39.2684476,-76.1541669
PAST SALE,,Vacant Land,SHELDRAKE DR,CHESTERTOWN,MD,21620,10000,,,,,15500,,,,,,,,https://www.redfin.com/MD/CHESTERTOWN/SHELDRAKE-DR-21620/home/17409667,,,N,Y,39.272514,-76.149472
PAST SALE,November-8-2019,Single Family Residential,10699 Kasota Rd,Chestertown,MD,21620,215000,3,2.0,CHESAPEAKE LANDING,1450,124582,1967,758,148,,Sold,,,https://www.redfin.com/MD/Chestertown/10699-Kasota-Rd-21620/home/15277165,BRIGHT MLS,MDKE115702,N,Y,39.271509,-76.158875
PAST SALE,,Other,10533 Fairlee Rd,Chestertown,MD,21620,178000,,,,,41382,,,,,,,,https://www.redfin.com/MD/Chestertown/10533-Fairlee-Rd-21620/home/15275188,,,N,Y,39.267117,-76.14183
PAST SALE,February-6-2019,Single Family Residential,10769 Glenola Rd,Chestertown,MD,21620,206000,4,2.5,CHESAPEAKE LANDING,1624,15000,2004,1033,127,,Sold,,,https://www.redfin.com/MD/Chestertown/10769-Glenola-Rd-21620/home/15277079,BRIGHT MLS,1002775292,N,Y,39.2739875,-76.1653635
PAST SALE,October-2-2020,Single Family Residential,23720 Owasso Rd,Chestertown,MD,21620,165000,3,1.0,CHESAPEAKE LANDING,1056,23629,1988,429,156,,Sold,,,https://www.redfin.com/MD/Chestertown/23720-Owasso-Rd-21620/home/15277075,BRIGHT MLS,MDKE116938,N,Y,39.266401,-76.147773
PAST SALE,January-29-2021,Single Family Residential,10788 Mallard Point Rd,Chestertown,MD,21620,480000,3,3.0,CHESAPEAKE LANDING,2273,24800,1989,310,211,,Sold,,,https://www.redfin.com/MD/Chestertown/10788-Mallard-Point-Rd-21620/home/15276755,BRIGHT MLS,MDKE117364,N,Y,39.274177,-76.155626
PAST SALE,,Vacant Land,10701 Millbrook Dr,Chestertown,MD,21620,16000,,,,,20800,,,,,,,,https://www.redfin.com/MD/Chestertown/10701-Millbrook-Dr-21620/home/17409384,,,N,Y,39.2719461,-76.15129
PAST SALE,February-19-2021,Single Family Residential,10577 Watonga Rd,Chestertown,MD,21620,264000,4,2.0,CHESAPEAKE LANDING,1872,20400,2003,289,141,,Sold,,,https://www.redfin.com/MD/Chestertown/10577-Watonga-Rd-21620/home/15276721,BRIGHT MLS,MDKE117520,N,Y,39.268841,-76.1505339
PAST SALE,March-25-2020,Single Family Residential,10141 Flatland Rd,Chestertown,MD,21620,106500,4,1.0,Chestertown,2142,87120,1900,620,50,,Sold,,,https://www.redfin.com/MD/Chestertown/10141-Flatland-Rd-21620/home/15276796,BRIGHT MLS,MDKE115032,N,Y,39.2566365,-76.1225751
PAST SALE,July-31-2020,Single Family Residential,10632 Watonga Rd,Chestertown,MD,21620,168000,3,2.0,CHESAPEAKE LANDING,1404,16667,1994,492,120,,Sold,,,https://www.redfin.com/MD/Chestertown/10632-Watonga-Rd-21620/home/15277345,BRIGHT MLS,MDKE115662,N,Y,39.2699349,-76.151915
PAST SALE,November-22-2021,Single Family Residential,25155 Chinquapin Rd,Worton,MD,21678,475000,5,2.0,Worton,2520,649479,1977,13,188,,Sold,,,https://www.redfin.com/MD/Worton/25155-Chinquapin-Rd-21678/home/15277344,BRIGHT MLS,MDKE2000276,N,Y,39.2606054,-76.0975611
PAST SALE,,Single Family Residential,10767 Carimon Rd,Chestertown,MD,21620,176300,,1.0,,1008,17750,1988,,175,,,,,https://www.redfin.com/MD/Chestertown/10767-Carimon-Rd-21620/home/15275147,,,N,Y,39.273725,-76.161218
PAST SALE,January-3-2020,Single Family Residential,10652 Watonga Rd,Chestertown,MD,21620,211500,3,2.0,CHESAPEAKE LANDING,1196,20001,1994,702,177,,Sold,,,https://www.redfin.com/MD/Chestertown/10652-Watonga-Rd-21620/home/15276607,BRIGHT MLS,MDKE115618,N,Y,39.270158,-76.152103
PAST SALE,July-24-2020,Single Family Residential,23240 Clarissa Rd,Chestertown,MD,21620,199500,3,2.0,CHESAPEAKE LANDING,1404,18012,1999,499,142,,Sold,,,https://www.redfin.com/MD/Chestertown/23240-Clarissa-Rd-21620/home/15272743,BRIGHT MLS,MDKE116212,N,Y,39.272146,-76.1646473
PAST SALE,September-16-2021,Single Family Residential,10570 Cogar Rd,Chestertown,MD,21620,330000,3,2.0,CHESAPEAKE LANDING,2264,15507,2010,80,146,,Sold,,,https://www.redfin.com/MD/Chestertown/10570-Cogar-Rd-21620/home/17407063,BRIGHT MLS,MDKE2000324,N,Y,39.268665,-76.149922
PAST SALE,February-19-2019,Single Family Residential,113 Malone Ave,Chestertown,MD,21620,46000,3,1.0,FOXLEY MANOR,640,15463,1966,1020,72,,Sold,,,https://www.redfin.com/MD/Chestertown/113-Malone-Ave-21620/home/15275013,BRIGHT MLS,MDKE107786,N,Y,39.2277534,-76.0747079
PAST SALE,August-26-2019,Vacant Land,134 Prospect St,Chestertown,MD,21620,5200,,,CHESTERTOWN,,2400,,832,,,Sold,,,https://www.redfin.com/MD/Chestertown/134-Prospect-St-21620/home/17408980,BRIGHT MLS,MDKE113956,N,Y,39.215223,-76.071475
PAST SALE,October-8-2021,Single Family Residential,23430 Cloquet Rd,Chestertown,MD,21620,385000,4,4.0,CHESAPEAKE LANDING,3504,15000,2005,58,110,,Sold,,,https://www.redfin.com/MD/Chestertown/23430-Cloquet-Rd-21620/home/15272064,BRIGHT MLS,MDKE2000380,N,Y,39.267749,-76.157583
PAST SALE,July-12-2021,Single Family Residential,107 Malone Ave,Chestertown,MD,21620,235000,3,1.0,FOXLEY MANOR,1200,15420,1962,146,196,,Sold,,,https://www.redfin.com/MD/Chestertown/107-Malone-Ave-21620/home/15272115,BRIGHT MLS,MDKE118168,N,Y,39.2274429,-76.0738413
PAST SALE,November-25-2020,Single Family Residential,256 Merganser Dr,Chestertown,MD,21620,30000,0,,DUCKS NECK,,22000,,375,,,Sold,,,https://www.redfin.com/MD/Chestertown/256-Merganser-Dr-21620/home/15281088,BRIGHT MLS,MDQA144986,N,Y,39.241688,-75.977947
PAST SALE,October-16-2020,Single Family Residential,108 Malone Ave,Chestertown,MD,21620,200000,3,1.0,FOXLEY MANOR,1600,15899,1962,415,125,,Sold,,,https://www.redfin.com/MD/Chestertown/108-Malone-Ave-21620/home/15275012,BRIGHT MLS,MDKE116950,N,Y,39.2279661,-76.0738866
PAST SALE,February-5-2019,Single Family Residential,206 Lincoln Dr,Chestertown,MD,21620,165000,3,1.0,WASHINGTON PARK,960,22584,1965,1034,172,,Sold,,,https://www.redfin.com/MD/Chestertown/206-Lincoln-Dr-21620/home/15276561,BRIGHT MLS,1009949688,N,Y,39.225673,-76.084669
PAST SALE,,Single Family Residential,123 Manor Ave,Chestertown,MD,21620,270000,,2.0,,1596,16988,2002,,169,,,,,https://www.redfin.com/MD/Chestertown/123-Manor-Ave-21620/home/15275007,,,N,Y,39.227659,-76.076033
PAST SALE,,Single Family Residential,519 Morgnec Rd,Chestertown,MD,21620,270000,,1.5,,1431,28400,1922,,189,,,,,https://www.redfin.com/MD/Chestertown/519-Morgnec-Rd-21620/home/15276927,,,N,Y,39.2260767,-76.0583415
PAST SALE,July-30-2020,Single Family Residential,104 Lincoln Dr,Chestertown,MD,21620,162000,3,1.0,WASHINGTON PARK,960,21959,1966,493,169,,Sold,,,https://www.redfin.com/MD/Chestertown/104-Lincoln-Dr-21620/home/15275010,BRIGHT MLS,MDKE116602,N,Y,39.2245641,-76.0862127
PAST SALE,,Single Family Residential,131 Flatland Rd,Chestertown,MD,21620,714000,,2.0,,1100,22215,2006,,649,,,,,https://www.redfin.com/MD/Chestertown/131-Flatland-Rd-21620/home/15272086,,,N,Y,39.2208719,-76.0833579
PAST SALE,September-17-2021,Single Family Residential,318 Lincoln Dr,Chestertown,MD,21620,210000,3,2.0,WASHINGTON PARK,960,21379,1966,79,219,,Sold,,,https://www.redfin.com/MD/Chestertown/318-Lincoln-Dr-21620/home/15275009,BRIGHT MLS,MDKE2000100,N,Y,39.224549,-76.083768
PAST SALE,June-11-2021,Single Family Residential,306 Roosevelt Dr,Chestertown,MD,21620,205000,3,1.5,WASHINGTON PARK,1152,20826,1966,177,178,,Sold,,,https://www.redfin.com/MD/Chestertown/306-Roosevelt-Dr-21620/home/15274993,BRIGHT MLS,MDKE118074,N,Y,39.2235981,-76.0831766
PAST SALE,March-11-2021,Single Family Residential,26785 Mallard Rd,Chestertown,MD,21620,715000,4,4.0,CHESMAR,2737,32626,1964,269,261,,Sold,,,https://www.redfin.com/MD/Chestertown/26785-Mallard-Rd-21620/home/15274992,BRIGHT MLS,MDKE116838,N,Y,39.22314,-76.04036
PAST SALE,August-21-2020,Single Family Residential,910 Washington Ave,Chestertown,MD,21620,185000,4,2.0,CHESTERTOWN,1806,22500,1959,471,102,,Sold,,,https://www.redfin.com/MD/Chestertown/910-Washington-Ave-21620/home/15276881,BRIGHT MLS,MDKE116580,N,Y,39.2339811,-76.0706236
PAST SALE,,Single Family Residential,508 Morgnec Rd,Chestertown,MD,21620,125000,,1.0,,884,10236,1953,,141,,,,,https://www.redfin.com/MD/Chestertown/508-Morgnec-Rd-21620/home/15276880,,,N,Y,39.2260264,-76.0595652
PAST SALE,July-15-2021,Single Family Residential,127 Manor Ave,Chestertown,MD,21620,280000,4,2.0,FOXLEY MANOR,2192,15768,1973,143,128,,Sold,,,https://www.redfin.com/MD/Chestertown/127-Manor-Ave-21620/home/15276904,BRIGHT MLS,MDKE117946,N,Y,39.228397,-76.07648
PAST SALE,,Vacant Land,10679 Watonga Rd,Chestertown,MD,21620,242000,,2.0,,1404,22500,2020,,172,,,,,https://www.redfin.com/MD/Chestertown/10679-Watonga-Rd-21620/home/17409842,,,N,Y,39.271295,-76.15157
PAST SALE,May-24-2021,Single Family Residential,303 Manor Ave,Chestertown,MD,21620,240000,3,1.5,FOXLEY MANOR,1176,18000,1968,195,204,,Sold,,,https://www.redfin.com/MD/Chestertown/303-Manor-Ave-21620/home/15276879,BRIGHT MLS,MDKE117872,N,Y,39.2284809,-76.0732068
PAST SALE,June-18-2020,Single Family Residential,109 Manor Ave,Chestertown,MD,21620,237000,3,2.0,FOXLEY MANOR,1456,19166,1962,535,163,,Sold,,,https://www.redfin.com/MD/Chestertown/109-Manor-Ave-21620/home/15272136,BRIGHT MLS,MDKE116438,N,Y,39.2264417,-76.073796
PAST SALE,,Single Family Residential,126 Manor Ave,Chestertown,MD,21620,301000,,1.5,,1872,15000,1966,,161,,,,,https://www.redfin.com/MD/Chestertown/126-Manor-Ave-21620/home/15276896,,,N,Y,39.228416,-76.075892
PAST SALE,January-22-2021,Single Family Residential,106 Manor Ave,Chestertown,MD,21620,234000,3,2.0,FOXLEY MANOR,1248,15028,1980,317,188,,Sold,,,https://www.redfin.com/MD/Chestertown/106-Manor-Ave-21620/home/15272085,BRIGHT MLS,MDKE117430,N,Y,39.2270171,-76.0736147
PAST SALE,March-17-2021,Single Family Residential,312 Roosevelt Dr,Chestertown,MD,21620,136000,4,1.5,WASHINGTON PARK,1152,32132,1966,263,118,,Sold,,,https://www.redfin.com/MD/Chestertown/312-Roosevelt-Dr-21620/home/15274985,BRIGHT MLS,MDKE117488,N,Y,39.2236338,-76.0828141
PAST SALE,October-15-2020,Single Family Residential,102 N Water St,Chestertown,MD,21620,625000,4,3.5,CHESTERTOWN,3960,10395,1903,416,158,,Sold,,,https://www.redfin.com/MD/Chestertown/102-N-Water-St-21620/home/15271766,BRIGHT MLS,MDKE116178,N,Y,39.207928,-76.063544
PAST SALE,September-12-2019,Single Family Residential,209 Waldo Dr,Chestertown,MD,21620,230000,4,2.0,BYFORD DEVELOPMENT,1728,15000,1965,815,133,,Sold,,,https://www.redfin.com/MD/Chestertown/209-Waldo-Dr-21620/home/15274967,BRIGHT MLS,MDKE115508,N,Y,39.21553,-76.06184
PAST SALE,,Multi-Family (5+ Unit),121 Washington Ave,Chestertown,MD,21620,749000,11,7.0,,4532,23304,1920,,165,,,,,https://www.redfin.com/MD/Chestertown/121-Washington-Ave-21620/home/15276850,,,N,Y,39.2122555,-76.0657064
PAST SALE,June-12-2020,Townhouse,121 N Queen St,Chestertown,MD,21620,285000,3,2.0,Chestertown,1849,3098,1900,541,154,,Sold,,,https://www.redfin.com/MD/Chestertown/121-N-Queen-St-21620/home/15274965,BRIGHT MLS,MDKE114134,N,Y,39.2089449,-76.0639502
PAST SALE,August-31-2020,Townhouse,543 High St,Chestertown,MD,21620,184000,2,1.5,VICKER'S ROW,975,500,1900,461,189,100,Sold,,,https://www.redfin.com/MD/Chestertown/543-High-St-21620/unit-543/home/15276848,BRIGHT MLS,MDKE116792,N,Y,39.2123372,-76.0716965
PAST SALE,December-7-2020,Single Family Residential,301 Manor Ave,Chestertown,MD,21620,205000,3,2.0,FOXLEY MANOR,2156,19166,1969,363,95,,Sold,,,https://www.redfin.com/MD/Chestertown/301-Manor-Ave-21620/home/15276901,BRIGHT MLS,MDKE117262,N,Y,39.228827,-76.0734334
PAST SALE,June-26-2019,Single Family Residential,226 Cannon St,Chestertown,MD,21620,372000,3,2.5,CHESTERTOWN,1867,5000,1920,893,199,,Sold,,,https://www.redfin.com/MD/Chestertown/226-Cannon-St-21620/home/15271763,BRIGHT MLS,MDKE114954,N,Y,39.207877,-76.066888
PAST SALE,July-12-2021,Condo/Co-op,105 N Water St #1,Chestertown,MD,21620,460000,2,2.0,HISTORIC DISTRICT CHESTERTOWN,1098,,1900,146,419,500,Sold,,,https://www.redfin.com/MD/Chestertown/105-N-Water-St-21620/unit-1/home/15272133,BRIGHT MLS,MDKE118076,N,Y,39.2080212,-76.0629871
PAST SALE,July-2-2021,Single Family Residential,525 N Kent St,Chestertown,MD,21620,452000,4,2.0,BYFORD DEVELOPMENT,2016,17020,1987,156,224,,Sold,,,https://www.redfin.com/MD/Chestertown/525-N-Kent-St-21620/home/15271559,BRIGHT MLS,MDKE118124,N,Y,39.215023,-76.058437
PAST SALE,July-30-2020,Single Family Residential,205 Rolling Rd,Chestertown,MD,21620,250000,4,2.0,COLLEGE HEIGHTS,2138,12450,1976,493,117,,Sold,,,https://www.redfin.com/MD/Chestertown/205-Rolling-Rd-21620/home/15276837,BRIGHT MLS,MDKE116562,N,Y,39.220857,-76.060449
PAST SALE,October-5-2021,Single Family Residential,829 High St,Chestertown,MD,21620,178000,2,1.0,CHESTERTOWN,928,4486,1900,61,192,,Sold,,,https://www.redfin.com/MD/Chestertown/829-High-St-21620/home/80173389,BRIGHT MLS,MDKE2000190,N,Y,39.216528,-76.077301
PAST SALE,,Single Family Residential,526 High St,Chestertown,MD,21620,218414,3,1.5,,1280,5280,1920,,171,,,,,https://www.redfin.com/MD/Chestertown/526-High-St-21620/home/15274968,,,N,Y,39.2121546,-76.0709409
PAST SALE,,Single Family Residential,601 Cannon St,Chestertown,MD,21620,130000,,2.0,,792,2600,1950,,164,,,,,https://www.redfin.com/MD/Chestertown/601-Cannon-St-21620/home/15276861,,,N,Y,39.2119431,-76.0726873
PAST SALE,September-21-2020,Single Family Residential,535 High St,Chestertown,MD,21620,285000,2,2.5,CHESTERTOWN HISTORIC DISTRICT,1608,3174,1900,440,177,,Sold,,,https://www.redfin.com/MD/Chestertown/535-High-St-21620/home/15276867,BRIGHT MLS,MDKE116594,N,Y,39.212039,-76.0713827
PAST SALE,,Single Family Residential,10645 Watonga Rd,Chestertown,MD,21620,219000,,2.0,,1404,20000,2020,,156,,,,,https://www.redfin.com/MD/Chestertown/10645-Watonga-Rd-21620/home/17409845,,,N,Y,39.270463,-76.151427
PAST SALE,July-2-2020,Single Family Residential,537 High St,Chestertown,MD,21620,300000,3,2.5,CHESTERTOWN HISTORIC DISTRICT,1584,3250,1900,521,189,,Sold,,,https://www.redfin.com/MD/Chestertown/537-High-St-21620/home/15276862,BRIGHT MLS,MDKE116036,N,Y,39.2121633,-76.0715867
PAST SALE,,Single Family Residential,216 Mt Vernon Ave,Chestertown,MD,21620,173250,,1.0,,1444,10018,1920,,120,,,,,https://www.redfin.com/MD/Chestertown/216-Mt-Vernon-Ave-21620/home/15272497,,,N,Y,39.2144409,-76.0684483
PAST SALE,January-22-2021,Single Family Residential,104 S Queen St,Chestertown,MD,21620,265000,4,2.5,CHESTERTOWN HISTORIC DISTRICT,1562,4698,1900,317,170,,Sold,,,https://www.redfin.com/MD/Chestertown/104-S-Queen-St-21620/home/15276839,BRIGHT MLS,MDKE116682,N,Y,39.2078167,-76.065729
PAST SALE,March-13-2019,Single Family Residential,503 Cannon St,Chestertown,MD,21620,67000,2,1.5,Chestertown,1762,7360,1900,998,38,,Sold,,,https://www.redfin.com/MD/Chestertown/503-Cannon-St-21620/home/15274940,BRIGHT MLS,1005610732,N,Y,39.210955,-76.071212
PAST SALE,June-8-2021,Single Family Residential,224 N Kent St,Chestertown,MD,21620,246000,2,1.5,CHESTERTOWN,1818,6098,1917,180,135,,Sold,,,https://www.redfin.com/MD/Chestertown/224-N-Kent-St-21620/home/15271737,BRIGHT MLS,MDKE117996,N,Y,39.2131607,-76.068403
PAST SALE,June-1-2020,Single Family Residential,211 Waldo Dr,Chestertown,MD,21620,190000,3,2.5,BYFORD DEVELOPMENT,1591,15000,1982,552,119,,Sold,,,https://www.redfin.com/MD/Chestertown/211-Waldo-Dr-21620/home/15271736,BRIGHT MLS,MDKE116288,N,Y,39.21577,-76.06202
PAST SALE,July-25-2019,Single Family Residential,102 Prospect St,Chestertown,MD,21620,49000,4,2.0,CHESTERTOWN,1824,7200,1900,864,27,,Sold,,,https://www.redfin.com/MD/Chestertown/102-Prospect-St-21620/home/143227766,BRIGHT MLS,MDKE113958,N,Y,39.2145459,-76.0706236
PAST SALE,March-12-2021,Single Family Residential,4 Byford Ct,Chestertown,MD,21620,480000,3,2.5,BYFORD COURT,2138,37512,1969,268,225,,Sold,,,https://www.redfin.com/MD/Chestertown/4-Byford-Ct-21620/home/15274946,BRIGHT MLS,MDKE116820,N,Y,39.212901,-76.059793
PAST SALE,September-6-2019,Single Family Residential,403 Cannon St,Chestertown,MD,21620,415000,2,2.5,CHESTERTOWN,1923,5252,1900,821,216,,Sold,,,https://www.redfin.com/MD/Chestertown/403-Cannon-St-21620/home/15276401,BRIGHT MLS,MDKE114002,N,Y,39.210057,-76.069871
PAST SALE,October-27-2021,Single Family Residential,403 N Kent St,Chestertown,MD,21620,177500,2,1.5,CHESTERTOWN,1029,6755,1920,39,172,,Sold,,,https://www.redfin.com/MD/Chestertown/403-N-Kent-St-21620/home/15276507,BRIGHT MLS,MDKE2000170,N,Y,39.2129143,-76.0624304
PAST SALE,April-1-2021,Single Family Residential,110 Cedar St,Chestertown,MD,21620,285000,3,1.0,COLLEGE HEIGHTS,1107,13971,1960,248,257,,Sold,,,https://www.redfin.com/MD/Chestertown/110-Cedar-St-21620/home/15276437,BRIGHT MLS,MDKE117602,N,Y,39.22211,-76.0648517
PAST SALE,,Single Family Residential,202 Cedar St,Chestertown,MD,21620,280000,,2.5,,2963,37908,1960,,94,,,,,https://www.redfin.com/MD/Chestertown/202-Cedar-St-21620/home/15276152,,,N,Y,39.2204902,-76.0639841
PAST SALE,June-28-2019,Single Family Residential,229 Richard Dr,Chestertown,MD,21620,385000,3,2.0,BYFORD DEVELOPMENT,2199,16200,1975,891,175,,Sold,,,https://www.redfin.com/MD/Chestertown/229-Richard-Dr-21620/home/15276394,BRIGHT MLS,MDKE114920,N,Y,39.214508,-76.057585
PAST SALE,October-21-2021,Single Family Residential,150 Longfellow Dr,Chestertown,MD,21620,220521,3,1.0,CHESTER HARBOR,1056,15000,1975,45,209,,Sold,,,https://www.redfin.com/MD/Chestertown/150-Longfellow-Dr-21620/home/15295073,BRIGHT MLS,MDQA2000900,N,Y,39.2106632,-76.0359638
PAST SALE,June-25-2021,Single Family Residential,415 Greenwood Ave,Chestertown,MD,21620,310000,3,1.5,COLLEGE HEIGHTS,1198,11211,1969,163,259,,Sold,,,https://www.redfin.com/MD/Chestertown/415-Greenwood-Ave-21620/home/15271749,BRIGHT MLS,MDKE117982,N,Y,39.221773,-76.062358
PAST SALE,July-23-2021,Single Family Residential,103 S College Ave,Chestertown,MD,21620,270000,2,1.5,CHESTERTOWN HISTORIC DISTRICT,1536,2970,1920,135,176,,Sold,,,https://www.redfin.com/MD/Chestertown/103-S-College-Ave-21620/home/15274944,BRIGHT MLS,MDKE118202,N,Y,39.21213,-76.072138
PAST SALE,March-5-2021,Single Family Residential,206 Glen St,Chestertown,MD,21620,235000,3,2.0,COLLEGE HEIGHTS,1502,12528,1973,275,156,,Sold,,,https://www.redfin.com/MD/Chestertown/206-Glen-St-21620/home/15276330,BRIGHT MLS,MDKE117210,N,Y,39.22056,-76.06272
PAST SALE,February-28-2019,Single Family Residential,108 Spring Ave,Chestertown,MD,21620,490000,6,4.5,HISTORIC CHESTERTOWN,4849,34151,1876,1011,101,,Sold,,,https://www.redfin.com/MD/Chestertown/108-Spring-Ave-21620/home/15276371,BRIGHT MLS,1000404816,N,Y,39.2107894,-76.0665901
PAST SALE,February-18-2021,Single Family Residential,210 Washington Ave,Chestertown,MD,21620,310000,3,1.5,CHESTERTOWN,2040,10780,1900,290,152,,Sold,,,https://www.redfin.com/MD/Chestertown/210-Washington-Ave-21620/home/15276388,BRIGHT MLS,MDKE117398,N,Y,39.214198,-76.066656
PAST SALE,,Single Family Residential,403 E Campus Ave,Chestertown,MD,21620,175000,,1.0,,1248,13200,1947,,140,,,,,https://www.redfin.com/MD/Chestertown/403-E-Campus-Ave-21620/home/15276331,,,N,Y,39.2169,-76.0609
PAST SALE,,Single Family Residential,207 Washington Ave,Chestertown,MD,21620,265000,,2.0,,1504,11101,1920,,176,,,,,https://www.redfin.com/MD/Chestertown/207-Washington-Ave-21620/home/15271979,,,N,Y,39.2137396,-76.0659556
PAST SALE,February-14-2020,Single Family Residential,215 N Kent St,Chestertown,MD,21620,330000,3,2.5,CHESTERTOWN HISTORIC DISTRICT,1776,8494,2011,660,186,,Sold,,,https://www.redfin.com/MD/Chestertown/215-N-Kent-St-21620/home/17409211,BRIGHT MLS,MDKE115908,N,Y,39.212494,-76.068257
PAST SALE,February-5-2021,Single Family Residential,214 Mount Vernon Ave,Chestertown,MD,21620,300000,3,1.5,CHESTERTOWN HISTORIC DISTRICT,1702,10465,1925,303,176,,Sold,,,https://www.redfin.com/MD/Chestertown/214-Mt-Vernon-Ave-21620/home/15271907,BRIGHT MLS,MDKE117460,N,Y,39.2143159,-76.068403
PAST SALE,August-10-2020,Single Family Residential,305 Washington Ave,Chestertown,MD,21620,325000,5,3.0,CHESTERTOWN,2000,11685,1930,482,163,,Sold,,,https://www.redfin.com/MD/Chestertown/305-Washington-Ave-21620/home/15276369,BRIGHT MLS,MDKE116760,N,Y,39.2160541,-76.0663182
PAST SALE,,Single Family Residential,200 N Mill St,Chestertown,MD,21620,270000,,2.5,,2224,5460,1900,,121,,,,,https://www.redfin.com/MD/Chestertown/200-N-Mill-St-21620/home/15274937,,,N,Y,39.211308,-76.0676809
PAST SALE,November-24-2020,Single Family Residential,7 Rolling Rd,Chestertown,MD,21620,168000,3,1.0,COLLEGE HEIGHTS,1300,9100,1961,376,129,,Sold,,,https://www.redfin.com/MD/Chestertown/7-Rolling-Rd-21620/home/15276327,BRIGHT MLS,MDKE117230,N,Y,39.2190416,-76.059112
PAST SALE,April-15-2019,Single Family Residential,207 Pine St,Chestertown,MD,21620,185000,3,1.0,COLLEGE HEIGHTS,,12600,1956,965,,,Sold,,,https://www.redfin.com/MD/Chestertown/207-Pine-St-21620/home/15271851,BRIGHT MLS,MDKE111342,N,Y,39.2196193,-76.0655024
PAST SALE,October-29-2020,Single Family Residential,615 Cannon St,Chestertown,MD,21620,224000,3,2.0,HISTORIC,1582,9860,1934,402,142,,Sold,,,https://www.redfin.com/MD/Chestertown/615-Cannon-St-21620/home/15275382,BRIGHT MLS,MDKE116988,N,Y,39.2122886,-76.0731193
PAST SALE,April-27-2020,Single Family Residential,611 Cannon St,Chestertown,MD,21620,134000,2,1.5,DOWNTOWN CHESTERTOWN,920,9140,1980,587,146,,Sold,,,https://www.redfin.com/MD/Chestertown/611-Cannon-St-21620/home/15276378,BRIGHT MLS,MDKE116372,N,Y,39.2120616,-76.072799
PAST SALE,August-16-2021,Single Family Residential,205 Washington Ave,Chestertown,MD,21620,290000,6,2.5,CHESTERTOWN HISTORIC DISTRICT,3457,10476,1920,111,84,,Sold,,,https://www.redfin.com/MD/Chestertown/205-Washington-Ave-21620/home/15276360,BRIGHT MLS,MDKE2000036,N,Y,39.2135803,-76.0659556
PAST SALE,,Other,101 Prospect St,Chestertown,MD,21620,45000,,,,,5000,,,,,,,,https://www.redfin.com/MD/Chestertown/101-Prospect-St-21620/home/15271727,,,N,Y,39.214236,-76.070539
PAST SALE,November-19-2019,Single Family Residential,108 Elm St,Chestertown,MD,21620,165000,3,1.0,COLLEGE HEIGHTS,1324,15000,1962,747,125,,Sold,,,https://www.redfin.com/MD/Chestertown/108-Elm-St-21620/home/15276323,BRIGHT MLS,MDKE115270,N,Y,39.2220059,-76.0661729
PAST SALE,June-29-2021,Single Family Residential,614 High St,Chestertown,MD,21620,125000,2,1.0,CHESTERTOWN,1064,2470,1920,159,117,,Sold,,,https://www.redfin.com/MD/Chestertown/614-High-St-21620/home/15271546,BRIGHT MLS,MDKE117128,N,Y,39.2131703,-76.0723344
PAST SALE,May-28-2021,Single Family Residential,101 S College Ave,Chestertown,MD,21620,235501,2,1.5,DOWNTOWN CHESTERTOWN,1036,1238,1920,191,227,,Sold,,,https://www.redfin.com/MD/Chestertown/101-S-College-Ave-21620/home/15276321,BRIGHT MLS,MDKE117994,N,Y,39.2121586,-76.0720399
PAST SALE,May-21-2021,Single Family Residential,221 Philosophers Ter,Chestertown,MD,21620,179000,2,1.0,CHESTERTOWN,720,7650,1939,198,249,,Sold,,,https://www.redfin.com/MD/Chestertown/221-Philosophers-Ter-21620/home/15276289,BRIGHT MLS,MDKE117700,N,Y,39.215318,-76.064575
PAST SALE,September-27-2021,Multi-Family (2-4 Unit),500 Cannon St,Chestertown,MD,21620,275000,,,Chestertown,1572,2822,1922,69,175,,Sold,,,https://www.redfin.com/MD/Chestertown/500-Cannon-St-21620/home/15276317,BRIGHT MLS,MDKE2000202,N,Y,39.2105759,-76.0710725
PAST SALE,,Single Family Residential,209 Mt Vernon Ave,Chestertown,MD,21620,409000,,2.5,,2152,5040,1920,,190,,,,,https://www.redfin.com/MD/Chestertown/209-Mt-Vernon-Ave-21620/home/15271543,,,N,Y,39.2138515,-76.0678591
PAST SALE,November-18-2020,Single Family Residential,19 Byford Ct,Chestertown,MD,21620,990000,5,6.0,BYFORD COURT,7505,63162,1992,382,132,,Sold,,,https://www.redfin.com/MD/Chestertown/19-Byford-Ct-21620/home/15276346,BRIGHT MLS,MDKE115726,N,Y,39.211513,-76.060968
PAST SALE,September-20-2021,Single Family Residential,226 Calvert St,Chestertown,MD,21620,245000,2,2.0,Chestertown,1080,4399,1989,76,227,,Sold,,,https://www.redfin.com/MD/Chestertown/226-Calvert-St-21620/home/15276316,BRIGHT MLS,MDKE2000344,N,Y,39.2121623,-76.0690374
PAST SALE,August-16-2021,Townhouse,612 High St,Chestertown,MD,21620,120000,2,1.0,CHESTERTOWN,1064,2470,1920,111,113,,Sold,,,https://www.redfin.com/MD/Chestertown/612-High-St-21620/home/15276209,BRIGHT MLS,MDKE117958,N,Y,39.21313,-76.072208
PAST SALE,October-29-2021,Single Family Residential,407 Cannon St,Chestertown,MD,21620,300000,3,2.5,HISTORIC DISTRICT,1632,3768,1890,37,184,,Sold,,,https://www.redfin.com/MD/Chestertown/407-Cannon-St-21620/home/15276314,BRIGHT MLS,MDKE2000254,N,Y,39.2102906,-76.0701436
PAST SALE,,Single Family Residential,127 N Queen St,Chestertown,MD,21620,265000,,2.0,,1848,3441,1900,,143,,,,,https://www.redfin.com/MD/Chestertown/127-N-Queen-St-21620/home/15276312,,,N,Y,39.2090935,-76.0637802
PAST SALE,May-26-2021,Single Family Residential,114 Washington Ave,Chestertown,MD,21620,575000,5,6.0,HISTORIC CHESTERTOWN,4100,28749,1860,193,140,,Sold,,,https://www.redfin.com/MD/Chestertown/114-Washington-Ave-21620/home/15276206,BRIGHT MLS,MDKE116878,N,Y,39.2121217,-76.0664088
PAST SALE,August-27-2021,Single Family Residential,208 Fey Rd,Chestertown,MD,21620,299500,3,2.0,KINGSTOWNE MANOR,1499,20680,2001,100,200,,Sold,,,https://www.redfin.com/MD/Chestertown/208-Fey-Rd-21620/home/15295007,BRIGHT MLS,MDQA2000198,N,Y,39.2073763,-76.0490045
PAST SALE,December-11-2020,Single Family Residential,23550 Canvasback Rd,Chestertown,MD,21620,315000,4,2.0,CHESAPEAKE LANDING,2284,67082,1975,359,138,,Sold,,,https://www.redfin.com/MD/Chestertown/23550-Canvasback-Rd-21620/home/15277024,BRIGHT MLS,MDKE117142,N,Y,39.275478,-76.154432
PAST SALE,,Single Family Residential,26899 Mallard Rd,Chestertown,MD,21620,232260,,2.0,,2208,30187,1973,,105,,,,,https://www.redfin.com/MD/Chestertown/26899-Mallard-Rd-21620/home/15276525,,,N,Y,39.2261567,-76.0357684
PAST SALE,January-17-2020,Single Family Residential,10061 Flatland Rd,Chestertown,MD,21620,184000,3,1.0,Chestertown,2376,56628,1969,688,77,,Sold,,,https://www.redfin.com/MD/Chestertown/10061-Flatland-Rd-21620/home/15277026,BRIGHT MLS,MDKE115442,N,Y,39.254158,-76.120459
PAST SALE,January-15-2020,Single Family Residential,127 Philosophers Ter,Chestertown,MD,21620,212000,3,2.0,CHESTERTOWN HISTORIC DISTRICT,1344,6316,1956,690,158,,Sold,,,https://www.redfin.com/MD/Chestertown/127-Philosophers-Ter-21620/home/15276473,BRIGHT MLS,MDKE115902,N,Y,39.21297,-76.0642186
PAST SALE,August-31-2019,Single Family Residential,10571 Millbrook Dr,Chestertown,MD,21620,169500,3,1.5,CHESAPEAKE LANDING,1430,18750,1969,827,119,,Sold,,,https://www.redfin.com/MD/Chestertown/10571-Millbrook-Dr-21620/home/15278547,BRIGHT MLS,MDKE115390,N,Y,39.2682603,-76.1479113
PAST SALE,,Single Family Residential,862 Washington Ave,Chestertown,MD,21620,84600,,1.0,,1536,9120,1948,,55,,,,,https://www.redfin.com/MD/Chestertown/862-Washington-Ave-21620/home/15271560,,,N,Y,39.229773,-76.0730256
PAST SALE,November-15-2019,Townhouse,105 N Water St #6,Chestertown,MD,21620,375000,2,2.0,HISTORIC DISTRICT CHESTERTOWN,1015,1015,1900,751,369,446,Sold,,,https://www.redfin.com/MD/Chestertown/105-N-Water-St-21620/unit-6/home/15271676,BRIGHT MLS,MDKE115210,N,Y,39.2080212,-76.0629871
PAST SALE,April-30-2020,Single Family Residential,10594 Millbrook Dr,Chestertown,MD,21620,229000,3,2.0,CHESAPEAKE LANDING,1500,15376,2020,584,153,,Sold,,,https://www.redfin.com/MD/Chestertown/10594-Millbrook-Dr-21620/home/17409822,BRIGHT MLS,MDKE116294,N,Y,39.268851,-76.1497472
PAST SALE,May-15-2020,Single Family Residential,10784 Foreston Rd,Chestertown,MD,21620,195000,3,2.0,CHESAPEAKE LANDING,1620,22825,2008,569,120,,Sold,,,https://www.redfin.com/MD/Chestertown/10784-Foreston-Rd-21620/home/17409902,BRIGHT MLS,MDKE115224,N,Y,39.2747051,-76.1647752
PAST SALE,,Single Family Residential,511 Morgnec Rd,Chestertown,MD,21620,410000,,,,,31493,1968,,,,,,,https://www.redfin.com/MD/Chestertown/511-Morgnec-Rd-21620/home/15276534,,,N,Y,39.2256442,-76.0583868
PAST SALE,,Single Family Residential,23396 Clarissa Rd,Chestertown,MD,21620,195000,,2.0,,1668,30545,1980,,117,,,,,https://www.redfin.com/MD/Chestertown/23396-Clarissa-Rd-21620/home/15277050,,,N,Y,39.271039,-76.159039
PAST SALE,November-9-2020,Single Family Residential,10761 Kasota Rd,Chestertown,MD,21620,710000,4,3.0,CHESAPEAKE LANDING,2582,20995,2005,391,275,,Sold,,,https://www.redfin.com/MD/Chestertown/10761-Kasota-Rd-21620/home/15278416,BRIGHT MLS,MDKE117118,N,Y,39.27366,-76.159691
PAST SALE,,Single Family Residential,311 Roosevelt Dr,Chestertown,MD,21620,148000,,1.5,,1152,23374,1966,,128,,,,,https://www.redfin.com/MD/Chestertown/311-Roosevelt-Dr-21620/home/15276588,,,N,Y,39.2232397,-76.0831766
PAST SALE,May-17-2019,Single Family Residential,105 College Ave,Chestertown,MD,21620,63750,2,2.0,CHESTERTOWN,1134,5772,1900,933,56,,Sold,,,https://www.redfin.com/MD/Chestertown/105-S-College-Ave-21620/home/15276858,BRIGHT MLS,1000084317,N,Y,39.212077,-76.072205
PAST SALE,August-31-2021,Single Family Residential,10754 Mallard Point Rd,Chestertown,MD,21620,925000,4,2.0,CHESAPEAKE LANDING,3236,40500,2004,96,286,3,Sold,,,https://www.redfin.com/MD/Chestertown/10754-Mallard-Point-Rd-21620/home/15275741,BRIGHT MLS,MDKE118260,N,Y,39.27338,-76.1552467
PAST SALE,November-18-2021,Single Family Residential,10749 Millbrook Dr,Chestertown,MD,21620,300000,3,2.5,CHESAPEAKE LANDING,1344,19800,1998,17,223,,Sold,,,https://www.redfin.com/MD/Chestertown/10749-Millbrook-Dr-21620/home/15277068,BRIGHT MLS,MDKE2000176,N,Y,39.2734923,-76.1539182
PAST SALE,,Vacant Land,,,MD,,17500,,,,,17000,,,,,,,,https://www.redfin.com/MD/Unknown/Unknown-Unknown/home/17409537,,,N,Y,39.268236,-76.151739
PAST SALE,September-17-2021,Single Family Residential,317 Truslow Rd,Chestertown,MD,21620,364000,4,2.0,CHESTERTOWN,1680,20000,1991,79,217,,Sold,,,https://www.redfin.com/MD/Chestertown/317-Truslow-Rd-21620/home/15291387,BRIGHT MLS,MDQA2000342,N,Y,39.2027931,-76.0538997
PAST SALE,May-15-2019,Single Family Residential,351 Round Top Rd,Chestertown,MD,21620,174900,3,2.0,NINE ACRES,1344,24088,1989,935,130,,Sold,,,https://www.redfin.com/MD/Chestertown/351-Round-Top-Rd-21620/home/15294228,BRIGHT MLS,MDQA138942,N,Y,39.207114,-76.035693
PAST SALE,,Single Family Residential,9731 Fairlee Landing Rd,Chestertown,MD,21620,203900,,1.5,,1144,92783,1979,,178,,,,,https://www.redfin.com/MD/Chestertown/9731-Fairlee-Landing-Rd-21620/home/15272966,,,N,Y,39.245636,-76.197341
PAST SALE,April-18-2019,Single Family Residential,5793 Quaker Neck Landing Rd,Chestertown,MD,21620,2000000,5,4.5,CHESTERTOWN,5800,2837063,1970,962,345,,Sold,,,https://www.redfin.com/MD/Chestertown/5793-Quaker-Neck-Landing-Rd-21620/home/40530943,BRIGHT MLS,1000083695,N,Y,39.137618,-76.100352
PAST SALE,December-31-2020,Single Family Residential,104 Church Aly,Chestertown,MD,21620,230000,0,,CHESTERTOWN HISTORIC DISTRICT,1076,1800,1880,339,214,,Sold,,,https://www.redfin.com/MD/Chestertown/104-Church-Aly-21620/home/17409351,BRIGHT MLS,MDKE117418,N,Y,39.209174,-76.064616
PAST SALE,May-15-2020,Single Family Residential,200 Princess Anne Dr,Chestertown,MD,21620,257000,3,2.0,KINGSTOWNE MANOR,1658,25172,1999,569,155,,Sold,,,https://www.redfin.com/MD/Chestertown/200-Princess-Anne-Dr-21620/home/15294143,BRIGHT MLS,MDQA141974,N,Y,39.20407,-76.0486779
PAST SALE,July-15-2021,Single Family Residential,519 N Kent St,Chestertown,MD,21620,415000,4,3.0,BYFORD DEVELOPMENT,2200,15100,1965,143,189,,Sold,,,https://www.redfin.com/MD/Chestertown/519-N-Kent-St-21620/home/15272232,BRIGHT MLS,MDKE118056,N,Y,39.214712,-76.059473
PAST SALE,September-17-2021,Single Family Residential,120 Justin Buch Dr,Chestertown,MD,21620,299000,3,2.0,LEONARD CALDWELL LANDS,1344,38000,1992,79,222,,Sold,,,https://www.redfin.com/MD/Chestertown/120-Justin-Buch-Dr-21620/home/15294099,BRIGHT MLS,MDQA2000026,N,Y,39.213917,-76.035331
PAST SALE,July-19-2021,Single Family Residential,213 Byford Dr,Chestertown,MD,21620,160000,3,1.0,BYFORD DEVELOPMENT,1277,15000,1965,139,125,,Sold,,,https://www.redfin.com/MD/Chestertown/213-Byford-Dr-21620/home/15275339,BRIGHT MLS,MDKE118258,N,Y,39.2155312,-76.063327
PAST SALE,June-9-2021,Single Family Residential,215 Richard Dr,Chestertown,MD,21620,279000,3,2.0,BYFORD DEVELOPMENT,1624,16000,1974,179,172,,Sold,,,https://www.redfin.com/MD/Chestertown/215-Richard-Dr-21620/home/15275341,BRIGHT MLS,MDKE117952,N,Y,39.213549,-76.059742
PAST SALE,,Single Family Residential,7312 Church Hill Rd,Chestertown,MD,21620,70000,,,,,15028,,,,,,,,https://www.redfin.com/MD/Chestertown/7312-Church-Hill-Rd-21620/home/40019118,,,N,Y,39.205722,-76.0543983
PAST SALE,May-29-2019,Single Family Residential,109 Malone Ave,Chestertown,MD,21620,200000,3,1.0,FOXLEY MANOR,500,15463,1964,921,400,,Sold,,,https://www.redfin.com/MD/Chestertown/109-Malone-Ave-21620/home/15276533,BRIGHT MLS,MDKE108622,N,Y,39.227468,-76.074086
PAST SALE,December-22-2020,Townhouse,616 High St,Chestertown,MD,21620,159900,2,2.0,DOWNTOWN CHESTERTOWN,1005,2470,1920,348,159,,Sold,,,https://www.redfin.com/MD/Chestertown/616-High-St-21620/home/15271691,BRIGHT MLS,MDKE116374,N,Y,39.213199,-76.072321
PAST SALE,July-2-2021,Single Family Residential,115 School Rd,Chestertown,MD,21620,225000,4,2.0,COLLEGE HEIGHTS,1356,13350,1966,156,166,,Sold,,,https://www.redfin.com/MD/Chestertown/115-School-Rd-21620/home/15272485,BRIGHT MLS,MDKE117886,N,Y,39.2194446,-76.0607889
PAST SALE,January-31-2020,Single Family Residential,203 N Queen St,Chestertown,MD,21620,430000,3,2.5,HISTORIC DISTRICT CHESTERTOWN,,6201,2015,674,,,Sold,,,https://www.redfin.com/MD/Chestertown/203-N-Queen-St-21620/home/17409034,BRIGHT MLS,MDKE115938,N,Y,39.2100025,-76.0627378
PAST SALE,,Single Family Residential,515 High St,Chestertown,MD,21620,155000,,3.0,,1870,4504,1900,,83,,,,,https://www.redfin.com/MD/Chestertown/515-High-St-21620/home/15275330,,,N,Y,39.2115017,-76.070567
PAST SALE,October-7-2020,Townhouse,109 Water St S,Chestertown,MD,21620,450000,4,2.0,Chestertown,2064,2574,1900,424,218,,Sold,,,https://www.redfin.com/MD/Chestertown/109-S-Water-St-21620/home/15276093,BRIGHT MLS,1006633640,N,Y,39.2067598,-76.0639162
PAST SALE,May-15-2019,Single Family Residential,109 Cedar St,Chestertown,MD,21620,191700,3,2.0,COLLEGE HEIGHTS,1397,12600,1962,935,137,,Sold,,,https://www.redfin.com/MD/Chestertown/109-Cedar-St-21620/home/15275322,BRIGHT MLS,MDKE113952,N,Y,39.2223553,-76.0642561
PAST SALE,June-21-2019,Single Family Residential,209 Richard Dr,Chestertown,MD,21620,270000,3,2.0,Chestertown,1444,14105,1974,898,187,,Sold,,,https://www.redfin.com/MD/Chestertown/209-Richard-Dr-21620/home/15272027,BRIGHT MLS,MDKE114124,N,Y,39.213128,-76.060656
PAST SALE,June-3-2021,Single Family Residential,116 Washington Ave,Chestertown,MD,21620,270000,6,1.0,HISTORIC CHESTERTOWN,3016,13500,1920,185,90,,Sold,,,https://www.redfin.com/MD/Chestertown/116-Washington-Ave-21620/home/15275324,BRIGHT MLS,MDKE117848,N,Y,39.2124312,-76.0663641
PAST SALE,,Single Family Residential,107 Maple Ave,Chestertown,MD,21620,695000,,3.0,,3289,11387,1869,,211,,,,,https://www.redfin.com/MD/Chestertown/107-Maple-Ave-21620/home/15276094,,,N,Y,39.209404,-76.062597
PAST SALE,February-12-2021,Single Family Residential,200 Mill St,Chestertown,MD,21620,270000,3,2.5,CHESTERTOWN,2198,5460,1900,296,123,,Sold,,,https://www.redfin.com/MD/Chestertown/200-S-Mill-St-21620/home/15276479,BRIGHT MLS,MDKE116670,N,Y,39.2093014,-76.0700798
PAST SALE,April-15-2019,Single Family Residential,111 Queen St,Chestertown,MD,21620,660000,4,3.5,HISTORIC CHESTERTOWN,4086,11979,1788,965,162,,Sold,,,https://www.redfin.com/MD/Chestertown/111-N-Queen-St-21620/home/15276467,BRIGHT MLS,1000083781,N,Y,39.2086363,-76.0642787
PAST SALE,September-16-2019,Single Family Residential,604 Cannon St,Chestertown,MD,21620,110000,3,1.0,CHESTERTOWN,1416,8039,1942,811,78,,Sold,,,https://www.redfin.com/MD/Chestertown/604-Cannon-St-21620/home/15276464,BRIGHT MLS,MDKE114964,N,Y,39.2120514,-76.0733583
PAST SALE,September-21-2021,Single Family Residential,103 S Queen St,Chestertown,MD,21620,540000,4,2.5,HISTORIC CHESTERTOWN,2684,3920,1920,75,201,,Sold,,,https://www.redfin.com/MD/Chestertown/103-S-Queen-St-21620/home/15272219,BRIGHT MLS,MDKE2000214,N,Y,39.2075734,-76.0653665
PAST SALE,August-5-2020,Single Family Residential,204 N Water St,Chestertown,MD,21620,520000,3,2.5,HISTORIC CHESTERTOWN,2135,6320,1900,487,244,,Sold,,,https://www.redfin.com/MD/Chestertown/204-N-Water-St-21620/home/15276113,BRIGHT MLS,MDKE116174,N,Y,39.209704,-76.061697
PAST SALE,November-18-2019,Single Family Residential,610 High St,Chestertown,MD,21620,148450,3,1.0,Chestertown,1536,4810,1900,748,97,,Sold,,,https://www.redfin.com/MD/Chestertown/610-High-St-21620/home/15275310,BRIGHT MLS,MDKE113922,N,Y,39.2130202,-76.0721645
PAST SALE,March-1-2021,Single Family Residential,307 Washington Ave,Chestertown,MD,21620,265000,4,1.5,CHESTERTOWN,2244,7800,1936,279,118,,Sold,,,https://www.redfin.com/MD/Chestertown/307-Washington-Ave-21620/home/15276082,BRIGHT MLS,MDKE117560,N,Y,39.2161736,-76.0663182
PAST SALE,November-20-2019,Single Family Residential,414 Bell Ave,Chestertown,MD,21620,237000,4,2.5,COLLEGE HEIGHTS,2080,17290,1976,746,114,,Sold,,,https://www.redfin.com/MD/Chestertown/414-Bell-Ave-21620/home/15276460,BRIGHT MLS,MDKE114082,N,Y,39.2225135,-76.0631004
PAST SALE,December-22-2020,Single Family Residential,105 S Mill St,Chestertown,MD,21620,610000,3,2.5,DOWNTOWN CHESTERTOWN,2855,6916,1800,348,214,,Sold,,,https://www.redfin.com/MD/Chestertown/105-S-Mill-St-21620/home/15275305,BRIGHT MLS,MDKE117106,N,Y,39.2096871,-76.0689921
PAST SALE,May-4-2020,Single Family Residential,200 Richard Dr,Chestertown,MD,21620,275000,3,2.0,BYFORD DEVELOPMENT,1653,15000,1975,580,166,,Sold,,,https://www.redfin.com/MD/Chestertown/200-Richard-Dr-21620/home/15276127,BRIGHT MLS,MDKE115764,N,Y,39.21314,-76.06197
PAST SALE,July-22-2020,Vacant Land,222 S Water St,Chestertown,MD,21620,169000,,,Chestertown,,1845,,501,,,Sold,,,https://www.redfin.com/MD/Chestertown/222-S-Water-St-21620/home/15275304,BRIGHT MLS,MDKE116106,N,Y,39.205862,-76.065834
PAST SALE,April-9-2019,Single Family Residential,120 Washington Ave,Chestertown,MD,21620,150000,4,1.0,CHESTERTOWN HISTORIC DISTRICT,2578,25000,1900,971,58,,Sold,,,https://www.redfin.com/MD/Chestertown/120-Washington-Ave-21620/home/15276084,BRIGHT MLS,MDKE114038,N,Y,39.2127989,-76.0664088
PAST SALE,June-15-2021,Single Family Residential,206 Rolling Rd,Chestertown,MD,21620,220000,3,2.0,COLLEGE HEIGHTS,1728,15378,1970,173,127,,Sold,,,https://www.redfin.com/MD/Chestertown/206-Rolling-Rd-21620/home/15272217,BRIGHT MLS,MDKE117860,N,Y,39.2207577,-76.0611062
PAST SALE,September-24-2019,Single Family Residential,409 Cannon St,Chestertown,MD,21620,232500,2,1.5,CHESTERTOWN,1008,4400,1900,803,231,,Sold,,,https://www.redfin.com/MD/Chestertown/409-Cannon-St-21620/home/15276456,BRIGHT MLS,MDKE114110,N,Y,39.2103322,-76.0702185
PAST SALE,January-29-2021,Single Family Residential,534 Cannon St,Chestertown,MD,21620,78065,2,1.0,DOWNTOWN CHESTERTOWN,948,5325,1900,310,82,,Sold,,,https://www.redfin.com/MD/Chestertown/534-Cannon-St-21620/home/15275309,BRIGHT MLS,MDKE117302,N,Y,39.211537,-76.072523
PAST SALE,August-31-2020,Single Family Residential,209 Glen St,Chestertown,MD,21620,149000,3,1.0,COLLEGE HEIGHTS,1463,13950,1967,461,102,,Sold,,,https://www.redfin.com/MD/Chestertown/209-Glen-St-21620/home/15272206,BRIGHT MLS,MDKE116142,N,Y,39.2196633,-76.0616047
PAST SALE,November-20-2020,Single Family Residential,202 N Queen St,Chestertown,MD,21620,210000,5,3.0,CHESTERTOWN HISTORIC DISTRICT,3316,5141,1900,380,63,,Sold,,,https://www.redfin.com/MD/Chestertown/202-N-Queen-St-21620/home/15276477,BRIGHT MLS,MDKE116148,N,Y,39.2100055,-76.0634176
PAST SALE,October-8-2021,Single Family Residential,216 Washington Ave,Chestertown,MD,21620,131500,5,1.5,CHESTERTOWN HISTORIC DISTRICT,2594,7972,1900,58,51,,Sold,,,https://www.redfin.com/MD/Chestertown/216-Washington-Ave-21620/home/15272035,BRIGHT MLS,MDKE2000392,N,Y,39.2144761,-76.0667714
PAST SALE,April-20-2021,Single Family Residential,201 S Maple Ave,Chestertown,MD,21620,150000,3,1.5,DOWNTOWN CHESTERTOWN,1428,1936,1880,229,105,,Sold,,,https://www.redfin.com/MD/Chestertown/201-Maple-Ave-21620/home/15275308,BRIGHT MLS,MDKE116756,N,Y,39.2100729,-76.0636442
PAST SALE,September-7-2021,Single Family Residential,206 Pine St,Chestertown,MD,21620,260000,3,2.0,COLLEGE HEIGHTS,1616,13200,1955,89,161,,Sold,,,https://www.redfin.com/MD/Chestertown/206-Pine-St-21620/home/15271520,BRIGHT MLS,MDKE2000260,N,Y,39.2193613,-76.066001
PAST SALE,,Single Family Residential,127 High St,Chestertown,MD,21620,400000,,2.0,,3286,1937,1900,,122,,,,,https://www.redfin.com/MD/Chestertown/127-High-St-21620/home/15272034,,,N,Y,39.207848,-76.0650039
PAST SALE,,Single Family Residential,101 Church Aly,Chestertown,MD,21620,475000,,1.0,,3246,3610,1730,,146,,,,,https://www.redfin.com/MD/Chestertown/101-Church-Aly-21620/home/144126861,,,N,Y,39.2089805,-76.0648611
PAST SALE,July-30-2020,Single Family Residential,411 E Campus Ave,Chestertown,MD,21620,325000,4,3.0,CHESTERTOWN,2942,43500,1900,493,110,,Sold,,,https://www.redfin.com/MD/Chestertown/411-E-Campus-Ave-21620/home/17409151,BRIGHT MLS,MDKE116378,N,Y,39.2174459,-76.0597465
PAST SALE,November-17-2020,Single Family Residential,108 N Water St,Chestertown,MD,21620,725000,5,3.5,CHESTERTOWN,3031,9000,1925,383,239,,Sold,,,https://www.redfin.com/MD/Chestertown/108-N-Water-St-21620/home/15276453,BRIGHT MLS,MDKE115048,N,Y,39.2083591,-76.0631996
PAST SALE,May-7-2021,Single Family Residential,225 Richard Dr,Chestertown,MD,21620,445000,4,3.0,BYFORD DEVELOPMENT,2749,16000,1977,212,162,,Sold,,,https://www.redfin.com/MD/Chestertown/225-Richard-Dr-21620/home/15271523,BRIGHT MLS,MDKE117622,N,Y,39.214279,-76.058242
PAST SALE,July-13-2020,Single Family Residential,212 Calvert St,Chestertown,MD,21620,110000,3,1.0,Chestertown,1160,3610,1920,510,95,,Sold,,,https://www.redfin.com/MD/Chestertown/212-Calvert-St-21620/home/15276470,BRIGHT MLS,MDKE116154,N,Y,39.211727,-76.0683236
PAST SALE,July-10-2020,Single Family Residential,531 Cannon St,Chestertown,MD,21620,144000,2,1.5,DOWNTOWN CHESTERTOWN,1190,5748,1900,513,121,,Sold,,,https://www.redfin.com/MD/Chestertown/531-Cannon-St-21620/home/15276445,BRIGHT MLS,MDKE115990,N,Y,39.2115563,-76.0721419
PAST SALE,August-17-2020,Single Family Residential,25026 Chestertown Rd,Chestertown,MD,21620,215000,4,2.0,Chestertown,1485,30187,1962,475,145,,Sold,,,https://www.redfin.com/MD/Chestertown/25026-Chestertown-Rd-21620/home/15276077,BRIGHT MLS,MDKE116358,N,Y,39.2116463,-76.1022078
PAST SALE,November-20-2020,Single Family Residential,25030 Chestertown Rd,Chestertown,MD,21620,213000,4,2.0,Chestertown,1260,22389,1955,380,169,,Sold,,,https://www.redfin.com/MD/Chestertown/25030-Chestertown-Rd-21620/home/15276076,BRIGHT MLS,MDKE117090,N,Y,39.2116079,-76.1018906
PAST SALE,,Single Family Residential,9797 Augustine Herman Hwy,Chestertown,MD,21620,358500,,3.5,,3120,43560,1991,,115,,,,,https://www.redfin.com/MD/Chestertown/9797-Augustine-Herman-Hwy-21620/home/15275296,,,N,Y,39.2457416,-76.0625565
PAST SALE,February-19-2021,Single Family Residential,199 N Queen St,Chestertown,MD,21620,285000,1,1.0,CHESTERTOWN HISTORIC DISTRICT,1000,7270,1974,289,285,,Sold,,,https://www.redfin.com/MD/Chestertown/199-N-Queen-St-21620/home/15276057,BRIGHT MLS,MDKE117538,N,Y,39.2097962,-76.0627003
PAST SALE,October-8-2020,Single Family Residential,8 Byford Ct,Chestertown,MD,21620,730000,4,3.0,BYFORD COURT,3069,71874,1970,423,238,,Sold,,,https://www.redfin.com/MD/Chestertown/8-Byford-Ct-21620/home/15275920,BRIGHT MLS,MDKE116762,N,Y,39.2141623,-76.0574052
PAST SALE,June-18-2021,Townhouse,104 Conley Dr,Chestertown,MD,21620,171500,3,1.5,CHESTER ARMS,1280,3000,1979,170,134,,Sold,,,https://www.redfin.com/MD/Chestertown/104-Conley-Dr-21620/home/15274933,BRIGHT MLS,MDKE117918,N,Y,39.226815,-76.067195
PAST SALE,December-9-2019,Townhouse,118 Conley Dr,Chestertown,MD,21620,129000,3,1.5,CHESTER ARMS,1280,3750,1980,727,101,,Sold,,,https://www.redfin.com/MD/Chestertown/118-Conley-Dr-21620/home/15274928,BRIGHT MLS,MDKE115460,N,Y,39.227073,-76.066445
PAST SALE,July-30-2021,Single Family Residential,10258 Mill Hollow Ln,Chestertown,MD,21620,590000,5,3.0,Chestertown,3414,217800,1985,128,173,,Sold,,,https://www.redfin.com/MD/Chestertown/10258-Mill-Hollow-Ln-21620/home/15274932,BRIGHT MLS,MDKE2000306,N,Y,39.259737,-76.047303
PAST SALE,May-29-2020,Single Family Residential,107 Birch Run Rd,Chestertown,MD,21620,272500,3,2.0,MILE TREE VILLAGE,1753,19848,1978,555,155,,Sold,,,https://www.redfin.com/MD/Chestertown/107-Birch-Run-Rd-21620/home/15276073,BRIGHT MLS,MDKE116346,N,Y,39.2167315,-76.059112
PAST SALE,July-27-2021,Single Family Residential,413 Greenwood Ave,Chestertown,MD,21620,235000,4,1.5,COLLEGE HEIGHTS,1590,14500,1973,131,148,,Sold,,,https://www.redfin.com/MD/Chestertown/413-Greenwood-Ave-21620/home/15272202,BRIGHT MLS,MDKE2000094,N,Y,39.2216674,-76.0626925
PAST SALE,,Single Family Residential,501 Cannon St,Chestertown,MD,21620,275000,,1.5,,1504,2000,1900,,183,,,,,https://www.redfin.com/MD/Chestertown/501-Cannon-St-21620/home/15275875,,,N,Y,39.21089,-76.071113
PAST SALE,June-14-2021,Single Family Residential,110 Elm St,Chestertown,MD,21620,325000,3,2.0,COLLEGE HEIGHTS,1267,11250,2018,174,257,,Sold,,,https://www.redfin.com/MD/Chestertown/110-Elm-St-21620/home/15275854,BRIGHT MLS,MDKE118000,N,Y,39.2216204,-76.0659103
PAST SALE,June-11-2021,Townhouse,103 Conley Dr,Chestertown,MD,21620,230000,3,1.5,CHESTER ARMS,1260,2000,2021,177,183,,Sold,,,https://www.redfin.com/MD/Chestertown/103-Conley-Dr-21620/home/23121723,BRIGHT MLS,MDKE118072,N,Y,39.226486,-76.067095
PAST SALE,May-20-2021,Townhouse,101 Conley Dr,Chestertown,MD,21620,219900,2,2.0,CHESTER ARMS,,4914,2021,199,,,Sold,,,https://www.redfin.com/MD/Chestertown/101-Conley-Dr-21620/home/17409115,BRIGHT MLS,MDKE2000028,N,Y,39.226457,-76.067191
PAST SALE,May-14-2021,Single Family Residential,203 Brown St,Chestertown,MD,21620,168529,3,2.0,CHESTERTOWN,1904,12600,1985,205,89,,Sold,,,https://www.redfin.com/MD/Chestertown/203-Brown-St-21620/home/15275909,BRIGHT MLS,MDKE117834,N,Y,39.217224,-76.063176
PAST SALE,May-28-2021,Single Family Residential,206 Greenwood Ave,Chestertown,MD,21620,250000,4,2.0,COLLEGE HEIGHTS,2664,17500,1959,191,94,,Sold,,,https://www.redfin.com/MD/Chestertown/206-Greenwood-Ave-21620/home/15272479,BRIGHT MLS,MDKE116220,N,Y,39.2202756,-76.0650039
PAST SALE,August-20-2021,Townhouse,126 Conley Dr,Chestertown,MD,21620,220000,3,2.0,CHESTER ARMS,,3750,,107,,,Sold,,,https://www.redfin.com/MD/Chestertown/126-Conley-Dr-21620/home/17409114,BRIGHT MLS,MDKE2000532,N,Y,39.2272023,-76.0661161
PAST SALE,September-3-2021,Townhouse,116 Riverside Ter #7,Chestertown,MD,21620,325000,2,1.5,RIVERSIDE TERRACE,900,,1900,93,361,73,Sold,,,https://www.redfin.com/MD/Chestertown/116-Riverside-Ter-21620/unit-7/home/15275889,BRIGHT MLS,MDKE2000220,N,Y,39.210688,-76.061758
PAST SALE,October-30-2020,Single Family Residential,215 Kennedy Dr,Chestertown,MD,21620,164500,3,1.0,WASHINGTON PARK,1176,20526,1998,401,140,,Sold,,,https://www.redfin.com/MD/Chestertown/215-Kennedy-Dr-21620/home/15274918,BRIGHT MLS,MDKE116918,N,Y,39.22611,-76.085289
PAST SALE,September-24-2021,Townhouse,344 Cannon St,Chestertown,MD,21620,138000,1,1.0,HISTORIC DISTRICT CHESTERTOWN,884,2202,1900,72,156,,Sold,,,https://www.redfin.com/MD/Chestertown/344-Cannon-St-21620/home/15275895,BRIGHT MLS,MDKE2000110,N,Y,39.2092654,-76.0691281
PAST SALE,April-30-2021,Townhouse,125 Conley Dr,Chestertown,MD,21620,162000,3,1.5,CHESTER ARMS,1280,3750,1992,219,127,,Sold,,,https://www.redfin.com/MD/Chestertown/125-Conley-Dr-21620/home/15274925,BRIGHT MLS,MDKE117730,N,Y,39.226897,-76.065971
PAST SALE,September-16-2020,Townhouse,117 Conley Dr,Chestertown,MD,21620,158000,3,1.5,CHESTER ARMS,1064,3500,1989,445,148,,Sold,,,https://www.redfin.com/MD/Chestertown/117-Conley-Dr-21620/home/15275886,BRIGHT MLS,MDKE116712,N,Y,39.226731,-76.066413
PAST SALE,September-30-2021,Townhouse,115 Conley Dr,Chestertown,MD,21620,150000,3,1.5,CHESTER ARMS,1320,2000,1989,66,114,,Sold,,,https://www.redfin.com/MD/Chestertown/115-Conley-Dr-21620/home/15275885,BRIGHT MLS,MDKE2000360,N,Y,39.226698,-76.066496
PAST SALE,October-16-2020,Single Family Residential,211 Birch Run Rd,Chestertown,MD,21620,355000,4,2.5,MILE TREE VILLAGE,1928,23137,1978,415,184,,Sold,,,https://www.redfin.com/MD/Chestertown/211-Birch-Run-Rd-21620/home/15275806,BRIGHT MLS,MDKE116400,N,Y,39.2176081,-76.0566401
PAST SALE,June-15-2020,Single Family Residential,4 Cedar Chase Ct,Chestertown,MD,21620,339000,2,3.0,MILE TREE VILLAGE,1804,21882,1982,538,188,,Sold,,,https://www.redfin.com/MD/Chestertown/4-Cedar-St-21620/home/15274876,BRIGHT MLS,MDKE116402,N,Y,39.216176,-76.058117
PAST SALE,December-17-2018,Single Family Residential,221 Birch Run Rd,Chestertown,MD,21620,350000,3,2.5,MILE TREE VILLAGE,2544,19323,1980,1084,138,,Sold,,,https://www.redfin.com/MD/Chestertown/221-Birch-Run-Rd-21620/home/15274873,BRIGHT MLS,1002352414,N,Y,39.216739,-76.055297
PAST SALE,December-17-2018,Single Family Residential,5 Reed Ct,Chestertown,MD,21620,283500,3,2.0,CHESTERTOWN,2052,11039,1988,1084,138,,Sold,,,https://www.redfin.com/MD/Chestertown/5-Reed-Ct-21620/home/15275800,BRIGHT MLS,1006503594,N,Y,39.2176691,-76.0579789
PAST SALE,February-26-2021,Vacant Land,Pine Tree Rd,Chestertown,MD,21620,85000,,,Chestertown,,289674,,282,,,Sold,,,https://www.redfin.com/MD/CHESTERTOWN/PINE-TREE-RD-21620/home/23450634,BRIGHT MLS,MDQA146560,N,Y,39.220573,-75.931152
PAST SALE,September-21-2021,Single Family Residential,123 Heath Rd,Chestertown,MD,21620,240000,3,2.0,CHESTER HARBOR,1792,22500,1990,75,134,,Sold,,,https://www.redfin.com/MD/Chestertown/123-Heath-Rd-21620/home/15294801,BRIGHT MLS,MDQA148194,N,Y,39.2142334,-76.0307366
PAST SALE,December-29-2020,Single Family Residential,205 David Dr,Chestertown,MD,21620,275500,3,2.5,BYFORD DEVELOPMENT,2179,15000,1980,341,126,,Sold,,,https://www.redfin.com/MD/Chestertown/205-David-Dr-21620/home/15276155,BRIGHT MLS,MDKE117334,N,Y,39.21557,-76.06049
