SALE TYPE,SOLD DATE,PROPERTY TYPE,ADDRESS,CITY,STATE OR PROVINCE,ZIP OR POSTAL CODE,PRICE,BEDS,BATHS,LOCATION,SQUARE FEET,LOT SIZE,YEAR BUILT,DAYS ON MARKET,$/SQUARE FEET,HOA/MONTH,STATUS,NEXT OPEN HOUSE START TIME,NEXT OPEN HOUSE END TIME,URL (SEE https://www.redfin.com/buy-a-home/comparative-market-analysis FOR INFO ON PRICING),SOURCE,MLS#,FAVORITE,INTERESTED,LATITUDE,LONGITUDE
MLS Listing,,Single Family Residential,195 United Morgan Cir,Berkeley Springs,WV,25411,195000,2,2.0,MORGAN TERRACE,1260,4791,2005,3,155,42,Active,,,https://www.redfin.com/WV/Berkeley-Springs/195-United-Morgan-Cir-25411/home/15954028,BRIGHT MLS,WVMO2000760,N,Y,39.5987724,-78.2463019
MLS Listing,,Vacant Land,Parkside Ter,Berkeley Springs,WV,25411,29000,,,CACAPON EAST,,88252,,4,,31,Active,,,https://www.redfin.com/WV/BERKELEY-SPRINGS/OFF-ROUTE-38-6-25411/home/23325484,BRIGHT MLS,WVMO2000756,N,Y,39.535308,-78.296128
MLS Listing,,Vacant Land,Lot 27 Basswood Way,Berkeley Springs,WV,25411,35000,,,HORSESHOE RUN,,191925,,5,,25,Active,,,https://www.redfin.com/WV/Berkeley-Springs/27-Basswood-Way-25411/home/177418093,BRIGHT MLS,WVMO2000738,N,Y,39.6642655,-78.0964843
MLS Listing,,Vacant Land,Lot 24 Basswood Way,Berkeley Springs,WV,25411,35000,,,HORSESHOE RUN,,211222,,5,,25,Active,,,https://www.redfin.com/WV/Berkeley-Springs/24-Basswood-Way-25411/home/177418086,BRIGHT MLS,WVMO2000736,N,Y,39.664769,-78.0951045
MLS Listing,,Single Family Residential,1711 Holly Hill Ln,Berkeley Springs,WV,25411,364900,4,2.0,SLEEPY CREEK FARMS,1557,114998,2021,5,234,21,Active,December-5-2021 12:00 PM,December-5-2021 02:00 PM,https://www.redfin.com/WV/BERKELEY-SPRINGS/1711-HOLLY-HILL-LN-25411/home/23323364,BRIGHT MLS,WVMO2000748,N,Y,39.471846,-78.26171
MLS Listing,,Vacant Land,General Ln,Berkeley Springs,WV,25411,50000,,,GENERAL STONEWALL'S RETREAT,,298386,,5,,13,Active,,,https://www.redfin.com/WV/Berkeley-Springs/General-LN-25411/home/170100840,BRIGHT MLS,WVMO2000740,N,Y,39.43554059,-78.25564979
MLS Listing,,Single Family Residential,226 Fairview Oaks Ln,Berkeley Springs,WV,25411,395000,3,2.0,FAIRVIEW OAKS,1920,47916,2021,7,206,33,Active,,,https://www.redfin.com/WV/Berkeley-Springs/226-Fairview-Oaks-Ln-25411/home/177347798,BRIGHT MLS,WVMO2000714,N,Y,39.6518274,-78.1945486
MLS Listing,,Vacant Land,89 Parkside Ter,Berkeley Springs,WV,25411,28000,,,Berkeley Springs,,76142,,13,,31,Active,,,https://www.redfin.com/WV/Berkeley-Springs/89-Parkside-Ter-25411/home/23309755,BRIGHT MLS,WVMO2000728,N,Y,39.534711,-78.297554
MLS Listing,,Vacant Land,Parcel 0053 Pious Ridge Rd,Berkeley Springs,WV,25411,135000,,,Berkeley Springs,,449321,,15,,,Active,,,https://www.redfin.com/WV/Unknown/Parcel-0053-Pious-Ridge-Rd-25411/home/177284699,BRIGHT MLS,WVMO2000726,N,Y,39.68771133,-78.16119451
MLS Listing,,Vacant Land,Henderson Heirs,Berkeley Springs,WV,25411,99000,,,HENDERSON ESTATES,,871200,,16,,,Active,,,https://www.redfin.com/WV/BERKELEY-SPRINGS/PIOUS-RDG-25411/home/23309740,BRIGHT MLS,WVMO2000716,N,Y,39.675773,-78.17123
MLS Listing,,Single Family Residential,328 United Morgan Cir,Berkeley Springs,WV,25411,236800,2,2.0,MORGAN TERRACE,1476,4791,2007,20,160,42,Active,,,https://www.redfin.com/WV/Berkeley-Springs/328-United-Morgan-Cir-25411/home/17461398,BRIGHT MLS,WVMO2000702,N,Y,39.598323,-78.245302
MLS Listing,,Vacant Land,57 Coffee Pot Ln,Berkeley Springs,WV,25411,97000,,,Berkeley Springs,,309276,,20,,,Active,,,https://www.redfin.com/WV/Berkeley-Springs/57-Coffee-Pot-Ln-25411/home/177193143,BRIGHT MLS,WVMO2000706,N,Y,39.5477294,-78.2682599
MLS Listing,,Vacant Land,Pine Acres Ln,Berkeley Springs,WV,25411,144690,,,PINE ACRES,,900385,,20,,25,Active,,,https://www.redfin.com/WV/BERKELEY-SPRINGS/PINE-ACRES-LN-25411/home/23325395,BRIGHT MLS,WVMO2000700,N,Y,39.679363,-78.155645
MLS Listing,,Vacant Land,River,Berkeley Springs,WV,25411,82500,,,Berkeley Springs,,662112,,20,,,Active,,,https://www.redfin.com/WV/Berkeley-Springs/RIVER-25411/home/147067122,BRIGHT MLS,WVMO2000698,N,Y,39.68292761,-78.12405434
MLS Listing,,Vacant Land,Snake Eyes Ln,Berkeley Springs,WV,25411,27000,,,Berkeley Springs,,43560,,24,,,Active,,,https://www.redfin.com/WV/BERKELEY-SPRINGS/SNAKE-EYES-LN-25411/home/23323479,BRIGHT MLS,WVMO2000584,N,Y,39.456711,-78.307854
MLS Listing,,Single Family Residential,1810 Sticky Kline Rd,Berkeley Springs,WV,25411,299000,4,2.0,MORGAN COUNTY,1856,213008,1890,24,161,,Active,,,https://www.redfin.com/WV/Berkeley-Springs/1810-Sticky-Kline-Rd-25411/home/177164204,BRIGHT MLS,WVMO2000684,N,Y,39.4833393,-78.249278
MLS Listing,,Single Family Residential,17 Goalpost Ln,Berkeley Springs,WV,25411,169900,3,2.0,CW JOHNSON ADDITION,1320,5662,1930,26,129,,Active,,,https://www.redfin.com/WV/Berkeley-Springs/17-Goalpost-Ln-25411/home/177152016,BRIGHT MLS,WVMO2000630,N,Y,39.6199774,-78.2321729
MLS Listing,,Vacant Land,Fairview Dr,Berkeley Springs,WV,25411,35000,,,Berkeley Springs,,27878,,29,,,Active,,,https://www.redfin.com/WV/BERKELEY-SPRINGS/FAIRVIEW-DR-25411/home/23317138,BRIGHT MLS,WVMO2000662,N,Y,39.644483,-78.19745
MLS Listing,,Single Family Residential,186 Happy Valley Cir,Berkeley Springs,WV,25411,325000,1,1.5,HAPPY VALLEY RETREAT,1870,213444,1977,30,174,,Active,,,https://www.redfin.com/WV/Berkeley-Springs/186-Happy-Valley-Cir-25411/home/177098230,BRIGHT MLS,WVMO2000606,N,Y,39.5650432,-78.2793234
MLS Listing,,Vacant Land,4539 Valley Rd,Berkeley Springs,WV,25411,125000,,,Berkeley Springs,,217800,,31,,,Active,,,https://www.redfin.com/WV/Berkeley-Springs/4539-Valley-Rd-25411/home/177074341,BRIGHT MLS,WVMO2000652,N,Y,39.5658835,-78.2617464
MLS Listing,,Single Family Residential,74 Painted Meadow Ln,Berkeley Springs,WV,25411,289900,4,1.5,TIMBER RIDGE,1288,182516,1967,33,225,,Active,,,https://www.redfin.com/WV/Berkeley-Springs/74-Top-Meadow-Ln-25411/home/145876363,BRIGHT MLS,WVMO2000628,N,Y,39.5817434,-78.2108293
MLS Listing,,Single Family Residential,Lot 11 Mickey Mantle,Berkeley Springs,WV,25411,385000,3,2.0,POINT VIEW ESTATES,1800,56192,2021,38,214,10,Active,,,https://www.redfin.com/WV/Berkeley-Springs/11-Mickey-Mantle-Ct-25411/home/22183363,BRIGHT MLS,WVMO2000454,N,Y,39.5493009,-78.2683288
MLS Listing,,Single Family Residential,Lot 15 Mickey Mantle Ct,Berkeley Springs,WV,25411,365000,3,2.0,POINT VIEW ESTATES,1600,46173,2021,38,228,10,Active,,,https://www.redfin.com/WV/Berkeley-Springs/15-Mickey-Mantle-Ct-25411/home/22183366,BRIGHT MLS,WVMO2000456,N,Y,39.54937,-78.2683616
MLS Listing,,Single Family Residential,144 Grove Heights Rd,Berkeley Springs,WV,25411,399000,1,1.5,Berkeley Springs,1996,158122,2017,39,200,,Active,,,https://www.redfin.com/WV/Berkeley-Springs/144-Grove-Heights-Rd-25411/home/23309704,BRIGHT MLS,WVMO2000634,N,Y,39.6221706,-78.2058593
MLS Listing,,Single Family Residential,10976 Valley Rd,Berkeley Springs,WV,25411,180000,2,1.0,Berkeley Springs,746,25700,1946,45,241,,Active,,,https://www.redfin.com/WV/Berkeley-Springs/10976-Valley-Rd-25411/home/176838199,BRIGHT MLS,WVMO2000590,N,Y,39.4794123,-78.3027954
MLS Listing,,Single Family Residential,96 Woodbrier Ln,Berkeley Springs,WV,25411,280000,3,2.0,RIDGE VIEW,1440,37548,2006,53,194,30,Active,,,https://www.redfin.com/WV/Berkeley-Springs/96-Woodbrier-Rd-25411/home/21971048,BRIGHT MLS,WVMO2000049,N,Y,39.642328,-78.193012
MLS Listing,,Vacant Land,Flagstone,Berkeley Springs,WV,25411,39900,,,ROCK GAP WOODS,,206038,,58,,10,Active,,,https://www.redfin.com/WV/2/Flagstone-Ln-25411/home/143406992,BRIGHT MLS,WVMO2000027,N,Y,39.54834861,-78.27855473
MLS Listing,,Vacant Land,Route 9 -martinsburg Rd,Berkeley Springs,WV,25411,139000,,,Berkeley Springs,,701316,,60,,,Active,,,https://www.redfin.com/WV/Berkeley-Springs/Unknown-Unknown/home/176674758,BRIGHT MLS,WVMO2000007,N,Y,39.63619027,-78.13928603
MLS Listing,,Vacant Land,Lou's Pony Rd,Berkeley Springs,WV,25411,65000,,,Berkeley Springs,,276170,,62,,,Active,,,https://www.redfin.com/WV/BERKELEY-SPRINGS/WV-ROUTE-1-25411/home/23326786,BRIGHT MLS,WVMO2000570,N,Y,39.685742,-78.157245
MLS Listing,,Vacant Land,Iroquois Trl,Berkeley Springs,WV,25411,45000,,,THUNDERBIRD HILLS,,94699,,69,,25,Active,,,https://www.redfin.com/WV/BERKELEY-SPRINGS/CAYUGA-TRL-25411/home/23319837,BRIGHT MLS,WVMO2000524,N,Y,39.52044,-78.291994
MLS Listing,,Vacant Land,Lot 9 Douglas Ln,Berkeley Springs,WV,25411,40000,,,LAKEWOOD HILLS,,45738,,69,,8,Active,,,https://www.redfin.com/WV/Berkeley-Springs/9-Douglas-Ln-25411/home/176551077,BRIGHT MLS,WVMO2000548,N,Y,39.6215079,-78.2092059
MLS Listing,,Vacant Land,Lakeview Dr,Berkeley Springs,WV,25411,37000,,,Berkeley Springs,,259182,,80,,10,Active,,,https://www.redfin.com/WV/BERKELEY-SPRINGS/LAKEVIEW-DR-25411/home/23324058,BRIGHT MLS,WVMO2000476,N,Y,39.414641,-78.250032
MLS Listing,,Vacant Land,Brosius Ln E,Berkeley Springs,WV,25411,299000,,,Berkeley Springs,,891237,,80,,,Active,,,https://www.redfin.com/WV/Unknown/E-Brosius-Ln-25411/home/175534658,BRIGHT MLS,WVMO2000436,N,Y,39.68703546,-78.1870076
MLS Listing,,Single Family Residential,351 Yost Cir,Berkeley Springs,WV,25411,750000,3,3.0,Berkeley Springs,3626,634669,1991,81,207,,Active,,,https://www.redfin.com/WV/Unknown/351-Yost-Cir-25411/home/176380455,BRIGHT MLS,WVMO2000434,N,Y,39.62968,-78.2157
MLS Listing,,Vacant Land,Birch Grove Ln,Berkeley Springs,WV,25411,20000,,,Berkeley Springs,,102366,,82,,11,Active,,,https://www.redfin.com/WV/BERKELEY-SPRINGS/BIRCH-GROVE-LN-25411/home/23323447,BRIGHT MLS,WVMO2000458,N,Y,39.467514,-78.286856
MLS Listing,,Vacant Land,181 Amulet,Berkeley Springs,WV,25411,50000,,,HORSESHOE RUN,,282269,,82,,21,Active,,,https://www.redfin.com/WV/Unknown/181-Amulet-Cir-25411/home/176373517,BRIGHT MLS,WVMO2000460,N,Y,39.66239591,-78.09212893
MLS Listing,,Single Family Residential,386 Quaint Acres Ln,Berkeley Springs,WV,25411,682500,4,3.0,Berkeley Springs,3087,1478862,1985,83,221,,Active,,,https://www.redfin.com/WV/Berkeley-Springs/386-Quaint-Acres-Ln-25411/home/176372466,BRIGHT MLS,WVMO2000234,N,Y,39.6074787,-78.2551665
MLS Listing,,Vacant Land,"Lots 6A, 6B, 6C Fairview Dr",Berkeley Springs,WV,25411,99000,,,FAIRVIEW ESTATES,,340683,,83,,,Active,,,https://www.redfin.com/WV/Unknown/Lots-6A-6B-6C-Fairview-Dr-25411/home/176369053,BRIGHT MLS,WVMO2000400,N,Y,39.64540294,-78.19244242
MLS Listing,,Vacant Land,Lot 3A Fairview Dr,Berkeley Springs,WV,25411,68000,,,Berkeley Springs,,114868,,83,,,Active,,,https://www.redfin.com/WV/Unknown/Lot-3A-Fairview-Dr-25411/home/176368848,BRIGHT MLS,WVMO2000394,N,Y,39.64552827,-78.1945556
MLS Listing,,Vacant Land,3 Salmon Ln,Berkeley Springs,WV,25411,119900,,,COOLFONT MOUNTAINSIDE,,124146,,83,,104,Active,,,https://www.redfin.com/WV/Unknown/3-Salmon-Ln-25411/home/176368446,BRIGHT MLS,WVMO2000452,N,Y,39.57509697,-78.27798399
MLS Listing,,Vacant Land,Cold Run Valley Rd,Berkeley Springs,WV,25411,149900,,,Berkeley Springs,,873814,,88,,,Active,,,https://www.redfin.com/WV/BERKELEY-SPRINGS/COLD-RUN-VALLEY-RD-25411/home/23313989,BRIGHT MLS,WVMO2000430,N,Y,39.614471,-78.246251
MLS Listing,,Vacant Land,Lot 11 Kinglet Ct,Berkeley Springs,WV,25411,50000,,,CACAPON SOUTH,,45302,,89,,25,Active,,,https://www.redfin.com/WV/Berkeley-Springs/11-Kinglet-Ct-25411/home/176327725,BRIGHT MLS,WVMO2000424,N,Y,39.499683322,-78.28856951
MLS Listing,,Single Family Residential,41 Pratt St,Berkeley Springs,WV,25411,245000,3,3.0,BATH,3592,7666,1910,93,68,,Active,,,https://www.redfin.com/WV/Berkeley-Springs/41-Pratt-St-25411/home/15957884,BRIGHT MLS,WVMO2000220,N,Y,39.6242079,-78.2262528
MLS Listing,,Single Family Residential,200 Sleepyview Ln,Berkeley Springs,WV,25411,110000,2,1.0,SLEEPY VIEW ESTATES,960,240887,1977,101,115,,Active,,,https://www.redfin.com/WV/Berkeley-Springs/200-Sleepy-View-Ln-25411/home/176227886,BRIGHT MLS,WVMO2000366,N,Y,39.5712494,-78.1818416
MLS Listing,,Single Family Residential,269 Harperella Ln,Berkeley Springs,WV,25411,374000,4,2.0,SLEEPY CREEK ORCHARD,2637,109336,1984,101,142,10,Active,,,https://www.redfin.com/WV/Berkeley-Springs/269-Harperella-Ln-25411/home/15961899,BRIGHT MLS,WVMO2000364,N,Y,39.6440098,-78.1239042
MLS Listing,,Vacant Land,Mauzy And Troy,Berkeley Springs,WV,25411,320000,,,Berkeley Springs,,2216332,,103,,,Active,,,https://www.redfin.com/WV/Unknown/Unknown-25411/home/176196248,BRIGHT MLS,WVMO2000372,N,Y,39.41839064,-78.23603669
MLS Listing,,Vacant Land,Parkside Dr,Berkeley Springs,WV,25411,29900,,,Berkeley Springs,,126759,,103,,31,Active,,,https://www.redfin.com/WV/BERKELEY-SPRINGS/PARKSIDE-DR-25411/home/15957689,BRIGHT MLS,WVMO2000370,N,Y,39.546307,-78.295136
MLS Listing,,Single Family Residential,1105 New Hope Rd,Berkeley Springs,WV,25411,185000,2,1.5,Berkeley Springs,1792,77537,1980,113,103,,Active,,,https://www.redfin.com/WV/Berkeley-Springs/1105-New-Hope-Rd-25411/home/143729938,BRIGHT MLS,WVMO2000280,N,Y,39.607494,-78.209343
MLS Listing,,Single Family Residential,237 Bonnie Brae Ln,Berkeley Springs,WV,25411,750000,4,4.0,Berkeley Springs,5520,808473,1999,113,136,,Active,,,https://www.redfin.com/WV/BERKELEY-SPRINGS/237-BONNIE-BRAE-LN-25411/home/15961759,BRIGHT MLS,WVMO2000130,N,Y,39.5813,-78.16476
MLS Listing,,Vacant Land,Lot 49 Plum Tree Ln,Berkeley Springs,WV,25411,80000,,,OAK FOREST SUBDIVISION,,220849,,114,,4,Active,,,https://www.redfin.com/WV/Berkeley-Springs/49-Plum-Tree-Ln-25411/home/166813908,BRIGHT MLS,WVMO2000342,N,Y,39.4565144,-78.2846555
MLS Listing,,Vacant Land,Gazing Star Ln,Hedgesville,WV,25427,61000,,,Hedgesville,,322344,,114,,,Active,,,https://www.redfin.com/WV/Hedgesville/Gazing-Star-LN-Unknown/home/176116615,BRIGHT MLS,WVMO2000330,N,Y,39.59124771,-78.18246319
MLS Listing,,Single Family Residential,410 Wilkes St,Berkeley Springs,WV,25411,139750,2,1.5,Berkeley Springs,1028,10890,1920,115,136,,Active,,,https://www.redfin.com/WV/Berkeley-Springs/410-Wilkes-St-25411/home/15954246,BRIGHT MLS,WVMO2000338,N,Y,39.631659,-78.225338
MLS Listing,,Single Family Residential,67 Berryville Cir,Berkeley Springs,WV,25411,107500,1,1.0,Berkeley Springs,744,12197,1920,116,144,,Active,,,https://www.redfin.com/WV/2/Berryville-Cir-25411/home/147013550,BRIGHT MLS,WVMO2000224,N,Y,39.61604809,-78.22879527
MLS Listing,,Single Family Residential,132 Concord Ave,Berkeley Springs,WV,25411,275000,3,1.0,BERKELEY SPRINGS,1700,41382,1930,116,162,,Active,,,https://www.redfin.com/WV/Berkeley-Springs/132-Concord-Ave-25411/home/15959394,BRIGHT MLS,WVMO2000334,N,Y,39.618628,-78.233466
MLS Listing,,Vacant Land,Creekview Ln,Berkeley Springs,WV,25411,25000,,,Berkeley Springs,,108464,,119,,13,Active,,,https://www.redfin.com/WV/BERKELEY-SPRINGS/CREEK-VIEW-LN-25411/home/23312471,BRIGHT MLS,WVMO2000306,N,Y,39.46574,-78.295499
MLS Listing,,Single Family Residential,1189 Hartman Rd,Berkeley Springs,WV,25411,345000,3,2.0,Berkeley Springs,2280,1089000,1960,129,151,,Active,,,https://www.redfin.com/WV/BERKELEY-SPRINGS/1189-HARTMAN-LN-25411/home/15957614,BRIGHT MLS,WVMO2000214,N,Y,39.531681,-78.267216
MLS Listing,,Vacant Land,Highland Ridge Rd,Berkeley Springs,WV,25411,70000,,,Berkeley Springs,,119354,,130,,,Active,,,https://www.redfin.com/WV/BERKELEY-SPRINGS/HIGHLAND-RIDGE-RD-25411/home/164786883,BRIGHT MLS,WVMO2000216,N,Y,39.575687,-78.187059
MLS Listing,,Single Family Residential,3475 Valley Rd,Berkeley Springs,WV,25411,259000,3,2.0,SHIRLEY FARMS,1532,90605,1999,139,169,11,Active,,,https://www.redfin.com/WV/Berkeley-Springs/3475-Valley-Rd-25411/home/21884398,BRIGHT MLS,WVMO2000166,N,Y,39.5808271,-78.2525143
MLS Listing,,Vacant Land,Off Tolley Ln,Berkeley Springs,WV,25411,59900,,,Berkeley Springs,,142441,,145,,,Active,,,https://www.redfin.com/WV/BERKELEY-SPRINGS/OFF-TOLLEY-LN-25411/home/40533384,BRIGHT MLS,WVMO2000162,N,Y,39.615138,-78.203107
MLS Listing,,Vacant Land,Shanghai,Berkeley Springs,WV,25411,24900,,,Berkeley Springs,,58806,,149,,,Active,,,https://www.redfin.com/WV/Berkeley-Springs/Shanghai-25411/home/174444827,BRIGHT MLS,WVMO2000148,N,Y,39.43923,-78.21303
MLS Listing,,Vacant Land,Grove Heights Rd Unit PARCEL B,Berkeley Springs,WV,25411,29500,,,GROVE HEIGHTS,,78408,,150,,,Active,,,https://www.redfin.com/WV/3/Grove-Heights-Rd-25411/unit-PARCEL-B/home/168949852,BRIGHT MLS,WVMO2000146,N,Y,39.62096878,-78.20432215
MLS Listing,,Vacant Land,Lot 54 William St,Berkeley Springs,WV,25411,21500,,,Berkeley Springs,,10763,,153,,,Active,,,https://www.redfin.com/WV/Berkeley-Springs/Lot-54-William-ST-25411/home/175596704,BRIGHT MLS,WVMO2000128,N,Y,39.62895102,-78.22127688
MLS Listing,,Vacant Land,Lot 52 William St,Berkeley Springs,WV,25411,21500,,,Berkeley Springs,,10763,,153,,,Active,,,https://www.redfin.com/WV/Berkeley-Springs/Lot-52-William-ST-25411/home/175596635,BRIGHT MLS,WVMO2000120,N,Y,39.62931326,-78.22108102
MLS Listing,,Vacant Land,Lot B Fairview Dr,Berkeley Springs,WV,25411,60000,,,Berkeley Springs,,150282,,156,,,Active,,,https://www.redfin.com/WV/Unknown/Fairview-Dr-25411/home/23313950,BRIGHT MLS,WVMO2000110,N,Y,39.65002407,-78.19824374
MLS Listing,,Vacant Land,Lot 108 William St,Berkeley Springs,WV,25411,12500,,,Berkeley Springs,,10388,,157,,,Active,,,https://www.redfin.com/WV/Berkeley-Springs/Lot-108-William-ST-25411/home/175590759,BRIGHT MLS,WVMO2000118,N,Y,39.62920977,-78.2191391
MLS Listing,,Vacant Land,Lot 107 William St,Berkeley Springs,WV,25411,12500,,,Berkeley Springs,,12284,,157,,,Active,,,https://www.redfin.com/WV/Berkeley-Springs/Lot-107-William-ST-25411/home/175590516,BRIGHT MLS,WVMO2000116,N,Y,39.62979864,-78.21866167
MLS Listing,,Vacant Land,Lot 106 William St,Berkeley Springs,WV,25411,12500,,,Berkeley Springs,,14174,,157,,,Active,,,https://www.redfin.com/WV/Berkeley-Springs/Lot-106-William-ST-25411/home/175590402,BRIGHT MLS,WVMO2000114,N,Y,39.62945262,-78.219064
MLS Listing,,Vacant Land,Lot 105 William St,Berkeley Springs,WV,25411,12500,,,Berkeley Springs,,15717,,157,,,Active,,,https://www.redfin.com/WV/Berkeley-Springs/Lot-105-William-ST-25411/home/175590229,BRIGHT MLS,WVMO2000112,N,Y,39.62933624,-78.21904704
MLS Listing,,Vacant Land,Lot 80 William St,Berkeley Springs,WV,25411,12500,,,Berkeley Springs,,12019,,158,,,Active,,,https://www.redfin.com/WV/Berkeley-Springs/Lot-80-William-ST-25411/home/175584265,BRIGHT MLS,WVMO2000098,N,Y,39.631164,-78.21840418
MLS Listing,,Vacant Land,Lot 78 William St,Berkeley Springs,WV,25411,12500,,,Berkeley Springs,,11977,,160,,,Active,,,https://www.redfin.com/WV/Berkeley-Springs/Lot-78-William-ST-25411/home/175569530,BRIGHT MLS,WVMO2000080,N,Y,39.63006767,-78.21943377
MLS Listing,,Vacant Land,Lot 76 William St,Berkeley Springs,WV,25411,12500,,,Berkeley Springs,,11936,,160,,,Active,,,https://www.redfin.com/WV/Berkeley-Springs/Lot-76-William-ST-25411/home/175569521,BRIGHT MLS,WVMO2000074,N,Y,39.62928579,-78.21991993
MLS Listing,,Vacant Land,Lot 74 William St,Berkeley Springs,WV,25411,12500,,,Berkeley Springs,,11894,,163,,,Active,,,https://www.redfin.com/WV/Berkeley-Springs/74-Williams-St-25411/home/175565540,BRIGHT MLS,WVMO2000072,N,Y,39.6310522,-78.2247504
MLS Listing,,Vacant Land,Keekee Ln,Berkeley Springs,WV,25411,22500,,,Berkeley Springs,,120661,,165,,,Active,,,https://www.redfin.com/WV/BERKELEY-SPRINGS/TIMBER-RIDGE-RD-25411/home/23312530,BRIGHT MLS,WVMO2000056,N,Y,39.457015,-78.26975
MLS Listing,,Vacant Land,Route 522,Berkeley Springs,WV,25411,40000,,,Berkeley Springs,,21780,,166,,,Active,,,https://www.redfin.com/WV/BERKELEY-SPRINGS/ROUTE-522-25411/home/23316511,BRIGHT MLS,WVMO2000046,N,Y,39.600058,-78.242017
MLS Listing,,Vacant Land,Lot #9 Polmood Farm Ln,Berkeley Springs,WV,25411,39900,,,Berkeley Springs,,169884,,169,,,Active,,,https://www.redfin.com/WV/Berkeley-Springs/9-Polmood-Farm-Ln-25411/home/169409440,BRIGHT MLS,WVMO2000018,N,Y,39.4778023,-78.2307243
MLS Listing,,Single Family Residential,1973 Valley Rd,Berkeley Springs,WV,25411,230000,2,2.0,Berkeley Springs,1253,,1956,171,184,,Active,,,https://www.redfin.com/WV/Berkeley-Springs/1973-Valley-Rd-25411/home/175471749,BRIGHT MLS,WVMO2000030,N,Y,39.6007456,-78.2410193
MLS Listing,,Vacant Land,15 Cielo Ln,Berkeley Springs,WV,25411,24900,,,CACAPON SOUTH SECTION 5,,34848,,172,,28,Active,,,https://www.redfin.com/WV/Berkeley-Springs/15-Cielo-Ln-25411/home/175449755,BRIGHT MLS,WVMO2000006,N,Y,39.4913284,-78.2918197
MLS Listing,,Single Family Residential,641 Sol Anna Ln,Berkeley Springs,WV,25411,224900,2,1.0,HIGHLAND RIDGE,1296,753588,1986,174,174,,Active,,,https://www.redfin.com/WV/Unknown/641-Chase-Ln-25411/home/175404054,BRIGHT MLS,WVMO118594,N,Y,39.53915615,-78.213497
MLS Listing,,Vacant Land,Sandy Hill Ln,Berkeley Springs,WV,25411,32500,,,Berkeley Springs,,189921,,184,,,Active,,,https://www.redfin.com/WV/BERKELEY-SPRINGS/BATH-VLY-25411/home/23319641,BRIGHT MLS,WVMO118620,N,Y,39.555101,-78.270532
MLS Listing,,Vacant Land,0 Sandy Hill Ln,Berkeley Springs,WV,25411,65000,,,Berkeley Springs,,364162,,184,,,Active,,,https://www.redfin.com/WV/Berkeley-Springs/110-Michigan-Ln-25411/home/145925559,BRIGHT MLS,WVMO118598,N,Y,39.5768697,-78.2710853
MLS Listing,,Single Family Residential,12261 Valley Rd,Berkeley Springs,WV,25411,225000,2,1.0,Berkeley Springs,1760,17424,1860,184,128,,Active,,,https://www.redfin.com/WV/Berkeley-Springs/12261-Valley-Rd-25411/home/140063428,BRIGHT MLS,WVMO118438,N,Y,39.4623838,-78.31205
MLS Listing,,Vacant Land,0 Big Sky Ln,Berkeley Springs,WV,25411,22000,,,Berkeley Springs,,130680,,186,,,Active,,,https://www.redfin.com/WV/2/Big-Sky-Ln-25411/home/52354725,BRIGHT MLS,WVMO118606,N,Y,39.52552963,-78.26931687
MLS Listing,,Vacant Land,0 Whitetail Dr,Berkeley Springs,WV,25411,27500,,,MOUNTAIN LICK RUN,,88427,,190,,13,Active,,,https://www.redfin.com/WV/Berkeley-Springs/25-Troubadour-Ln-25411/home/15954158,BRIGHT MLS,WVMO118588,N,Y,39.5488157,-78.1944038
MLS Listing,,Multi-Family (2-4 Unit),Us Rt 522,Berkeley Springs,WV,25411,1600000,,,Berkeley Springs,,725274,,205,,,Active,,,https://www.redfin.com/WV/BERKELEY-SPRINGS/US-ROUTE-522-25411/home/164788939,BRIGHT MLS,WVMO118486,N,Y,39.547023,-78.271988
MLS Listing,,Vacant Land,Cubby Hole Ln,Berkeley Springs,WV,25411,39900,,,Berkeley Springs,,101930,,207,,,Active,,,https://www.redfin.com/WV/BERKELEY-SPRINGS/OFF-ROUTE-9-10-25411/home/23317067,BRIGHT MLS,WVMO118476,N,Y,39.621252,-78.242501
MLS Listing,,Vacant Land,Plum Tree Ln,Berkeley Springs,WV,25411,70000,,,OAK FOREST,,183387,,214,,18,Active,,,https://www.redfin.com/WV/BERKELEY-SPRINGS/PLUM-TREE-LN-25411/home/15955966,BRIGHT MLS,WVMO118446,N,Y,39.456961,-78.28443
MLS Listing,,Vacant Land,12 Cielo Ln,Berkeley Springs,WV,25411,32500,,,CACAPON SOUTH SECTION V,,43996,,243,,28,Active,,,https://www.redfin.com/WV/Berkeley-Springs/12-Cielo-Ln-25411/home/21727745,BRIGHT MLS,WVMO118272,N,Y,39.4913284,-78.2918197
MLS Listing,,Vacant Land,Route 522,Berkeley Springs,WV,25411,300000,,,Berkeley Springs,,280962,,251,,,Active,,,https://www.redfin.com/WV/BERKELEY-SPRINGS/ROUTE-522-25411/home/23309706,BRIGHT MLS,WVMO118226,N,Y,39.592013,-78.249675
MLS Listing,,Vacant Land,Lot 24 Clear Spring Trl,Berkeley Springs,WV,25411,49900,,,Berkeley Springs,,133729,,254,,,Active,,,https://www.redfin.com/WV/Unknown/Lot-24-Clear-Spring-Trl-25411/home/174784361,BRIGHT MLS,WVMO118220,N,Y,39.42517398,-78.23914977
MLS Listing,,Vacant Land,W Cacapon Rd,Berkeley Springs,WV,25411,22000,,,Berkeley Springs,,21780,,254,,,Active,,,https://www.redfin.com/WV/BERKELEY-SPRINGS/W-CACAPON-RD-25411/home/23317893,BRIGHT MLS,WVMO118222,N,Y,39.623362,-78.232739
MLS Listing,,Vacant Land,Lot 37 Parkside Ct,Berkeley Springs,WV,25411,30000,,,CACAPON EAST,,60548,,261,,31,Active,,,https://www.redfin.com/WV/Unknown/Lot-37-Parkside-Ct-25411/home/174756447,BRIGHT MLS,WVMO118184,N,Y,39.53384759,-78.29900832
MLS Listing,,Vacant Land,Lot 26 Megans Ter,Berkeley Springs,WV,25411,30000,,,CACAPON SOUTH SECTION V,,43560,,261,,28,Active,,,https://www.redfin.com/WV/Berkeley-Springs/26-Megans-Ter-25411/home/174755767,BRIGHT MLS,WVMO118182,N,Y,39.4907007,-78.2899549
MLS Listing,,Vacant Land,"LOT 5, J R Hawvermale Way",Berkeley Springs,WV,25411,50000,,,Berkeley Springs,,121968,,262,,,Active,,,https://www.redfin.com/WV/Berkeley-Springs/5-J-R-Hawvermale-Way-25411/home/174717497,BRIGHT MLS,WVMO118180,N,Y,39.4743886,-78.3038076
MLS Listing,,Vacant Land,Oak Hill Rd,Berkeley Springs,WV,25411,25000,,,SLEEPY CREEK FOREST,,131116,,268,,4,Active,,,https://www.redfin.com/WV/BERKELEY-SPRINGS/OAK-HILL-RD-25411/home/23319898,BRIGHT MLS,WVMO118134,N,Y,39.514551,-78.210447
MLS Listing,,Vacant Land,Route 522,Berkeley Springs,WV,25411,140000,,,Berkeley Springs,,21344,,268,,,Active,,,https://www.redfin.com/WV/BERKELEY-SPRINGS/ROUTE-522-25411/home/23319622,BRIGHT MLS,WVMO118140,N,Y,39.558192,-78.266577
MLS Listing,,Vacant Land,Pious Ridge Rd,Berkeley Springs,WV,25411,46900,,,Berkeley Springs,,87120,,287,,,Active,,,https://www.redfin.com/WV/BERKELEY-SPRINGS/PIOUS-RIDGE-RD-25411/home/15961713,BRIGHT MLS,WVMO118054,N,Y,39.665105,-78.158788
MLS Listing,,Vacant Land,LOT 13 Ty Cobb Ct,Berkeley Springs,WV,25411,48990,,,POINT VIEW ESTATES,,44866,,293,,,Active,,,https://www.redfin.com/WV/Berkeley-Springs/13-Ty-Cobb-Ct-25411/home/174446878,BRIGHT MLS,WVMO118046,N,Y,39.5509605,-78.2672771
MLS Listing,,Single Family Residential,Route 9/12,Berkeley Springs,WV,25411,889000,3,2.5,BATH,,88943,1993,310,,,Active,,,https://www.redfin.com/WV/BERKELEY-SPRINGS/ROUTE-9-12-25411/home/23316560,BRIGHT MLS,WVMO117982,N,Y,39.619589,-78.259844
MLS Listing,,Vacant Land,"Route 4 Pious Ridge, Lot 2 Land",Berkeley Springs,WV,25411,33000,,,Berkeley Springs,,105415,,341,,,Active,,,https://www.redfin.com/WV/Berkeley-Springs/4-Pious-Ridge-Rd-25411/home/15961203,BRIGHT MLS,WVMO117894,N,Y,39.6244591,-78.1928455
MLS Listing,,Vacant Land,522,Berkeley Springs,WV,25411,215000,,,BATH VALLEY,,1524600,,422,,,Active,,,https://www.redfin.com/WV/BERKELEY-SPRINGS/US-HWY-522-25411/home/23320965,BRIGHT MLS,WVMO117562,N,Y,39.512089,-78.285351
MLS Listing,,Vacant Land,Jim West,Berkeley Springs,WV,25411,549000,,,Berkeley Springs,,5434110,,439,,,Active,,,https://www.redfin.com/WV/3/W-Jim-Rd-25411/home/143217847,BRIGHT MLS,WVMO117254,N,Y,39.65544552,-78.15313456
MLS Listing,,Vacant Land,English Muffin Way,Berkeley Springs,WV,25411,29500,,,UNION CHAPEL,,174240,,448,,,Active,,,https://www.redfin.com/WV/BERKELEY-SPRINGS/OFF-ROUTE-522-25411/home/23323342,BRIGHT MLS,WVMO117390,N,Y,39.48817,-78.303734
MLS Listing,,Vacant Land,State Route 522,Berkeley Springs,WV,25411,375000,,,Berkeley Springs,,726581,,488,,,Active,,,https://www.redfin.com/WV/BERKELEY-SPRINGS/STATE-ROUTE-522-25411/home/15957254,BRIGHT MLS,WVMO117200,N,Y,39.560324,-78.264627
MLS Listing,,Vacant Land,522 S/ Valley Rd,Berkeley Springs,WV,25411,40000,,,Berkeley Springs,,81893,,646,,,Active,,,https://www.redfin.com/WV/Berkeley-Springs/522-Valley-Rd-25411/home/114035406,BRIGHT MLS,WVMO116550,N,Y,39.6136968,-78.2333104
MLS Listing,,Vacant Land,26 Twin Lakes Dr,Berkeley Springs,WV,25411,28900,,,TWIN LAKES,,131116,,1203,,17,Active,,,https://www.redfin.com/WV/Berkeley-Springs/26-Twin-Lakes-Dr-25411/home/88444742,BRIGHT MLS,1002271644,N,Y,39.499471,-78.2612506
MLS Listing,,Vacant Land,30 Bear Paw Dr,Berkeley Springs,WV,25411,23900,,,TWIN LAKES EAST,,95396,,1205,,17,Active,,,https://www.redfin.com/WV/1/30-Bear-Paw-Dr-25411/home/171697054,BRIGHT MLS,1002263528,N,Y,39.50023092,-78.25945248
MLS Listing,,Vacant Land,25 Twin Lakes Dr,Berkeley Springs,WV,25411,28900,,,TWIN LAKES EAST,,108464,,1205,,17,Active,,,https://www.redfin.com/WV/1/25-Twin-Lakes-Dr-25411/home/172110698,BRIGHT MLS,1002261750,N,Y,39.50016844,-78.26317465
MLS Listing,,Vacant Land,24 Twin Lakes Dr,Berkeley Springs,WV,25411,28900,,,TWIN LAKES EAST,,103673,,1206,,17,Active,,,https://www.redfin.com/WV/Berkeley-Springs/24-Twin-Lakes-Dr-25411/home/88402924,BRIGHT MLS,1002259986,N,Y,39.499471,-78.2612506
MLS Listing,,Vacant Land,22 Twin Lakes Dr,Berkeley Springs,WV,25411,28900,,,TWIN LAKES EAST,,115434,,1206,,17,Active,,,https://www.redfin.com/WV/Berkeley-Springs/22-Twin-Lakes-Dr-25411/home/88385111,BRIGHT MLS,1002259962,N,Y,39.499471,-78.2612506
MLS Listing,,Vacant Land,Cielo Ln,Berkeley Springs,WV,25411,50900,,,CACAPON SOUTH,,46609,,1654,,25,Active,,,https://www.redfin.com/WV/1/Cielo-Ln-25411/home/145952889,BRIGHT MLS,1000168315,N,Y,39.49146168,-78.29150449
MLS Listing,,Vacant Land,Fairview Oaks Ln,Berkeley Springs,WV,25411,47900,,,FAIRVIEW OAKS,,64033,,1654,,25,Active,,,https://www.redfin.com/WV/Unknown/Fairview-Oaks-Ln-25411/home/145863013,BRIGHT MLS,1000168317,N,Y,39.65166587,-78.19334815
MLS Listing,,Vacant Land,Circling Hawk Ln,Berkeley Springs,WV,25411,17000,,,OAKLAND HILLS,,87120,,1787,,12,Active,,,https://www.redfin.com/WV/BERKELEY-SPRINGS/CIRCLING-HAWK-LN-25411/home/23324183,BRIGHT MLS,1000168039,N,Y,39.453739,-78.244231
MLS Listing,,Vacant Land,30 Cielo Ln,Berkeley Springs,WV,25411,29900,,,CACAPON SOUTH,,92073,,2075,,28,Active,,,https://www.redfin.com/WV/Berkeley-Springs/30-Cielo-Ln-25411/home/17528868,BRIGHT MLS,1000167681,N,Y,39.4913284,-78.2918197
MLS Listing,,Vacant Land,4 Cielo Ln,Berkeley Springs,WV,25411,21900,,,CACAPON SOUTH,,53143,,2075,,28,Active,,,https://www.redfin.com/WV/Berkeley-Springs/4-Cielo-Ln-25411/home/17528689,BRIGHT MLS,1000167661,N,Y,39.4913284,-78.2918197
MLS Listing,,Vacant Land,Little Creek Trl,Berkeley Springs,WV,25411,29900,,,LITTLE CREEK,,225641,,2451,,,Active,,,https://www.redfin.com/WV/3/Little-Creek-Trl-25411/home/40360134,BRIGHT MLS,1000167757,N,Y,39.65987345,-78.19626184
PAST SALE,,Single Family Residential,150 CROSSEN HILL LN,BERKELEY SPRINGS,WV,25411,140500,2,2.0,,1075,141134,1955,,131,,,,,https://www.redfin.com/WV/BERKELEY-SPRINGS/150-CROSSEN-HILL-LN-25411/home/15961075,,,N,Y,39.601714,-78.238896
PAST SALE,March-13-2020,Single Family Residential,393 Greenway Dr,Berkeley Springs,WV,25411,30000,3,1.0,STOTLER CROSSROADS,,,1970,632,,,Sold,,,https://www.redfin.com/WV/Berkeley-Springs/393-Greenway-Dr-25411/home/15960910,BRIGHT MLS,WVMO115898,N,Y,39.615608,-78.229391
PAST SALE,April-15-2021,Single Family Residential,4645 Cold Run Valley Rd,Berkeley Springs,WV,25411,189000,3,1.0,Berkeley Springs,1524,198198,1975,234,124,,Sold,,,https://www.redfin.com/WV/Berkeley-Springs/4645-Cold-Run-Valley-Rd-25411/home/174702638,BRIGHT MLS,WVMO118172,N,Y,39.5621455,-78.2716784
PAST SALE,October-16-2019,Single Family Residential,14421 Winchester Grade Rd,Berkeley Springs,WV,25411,175000,3,2.5,Berkeley Springs,1415,134164,1994,781,124,,Sold,,,https://www.redfin.com/WV/Berkeley-Springs/14421-Winchester-Grade-Rd-25411/home/15956547,BRIGHT MLS,WVMO115634,N,Y,39.4219619,-78.2584048
PAST SALE,January-11-2019,Single Family Residential,76 Coon Hollow Ln,Berkeley Springs,WV,25411,55000,3,1.5,HAWKS NEST,1224,128066,2002,1059,45,8,Sold,,,https://www.redfin.com/WV/Berkeley-Springs/76-COON-HOLLOW-Ln-25411/home/148380257,BRIGHT MLS,WVMO104828,N,Y,39.57111,-78.22498
PAST SALE,November-1-2019,Single Family Residential,6521 Timber Ridge Rd,Berkeley Springs,WV,25411,218500,3,2.5,Berkeley Springs,2000,89298,1994,765,109,,Sold,,,https://www.redfin.com/WV/Berkeley-Springs/6521-Timber-Ridge-Rd-25411/home/15956548,BRIGHT MLS,WVMO100020,N,Y,39.42938,-78.288012
PAST SALE,,Single Family Residential,OFF ROUTE 9/11,BERKELEY SPRINGS,WV,25411,160000,2,1.0,,1008,116741,1983,,159,,,,,https://www.redfin.com/WV/BERKELEY-SPRINGS/OFF-ROUTE-9-11-25411/home/15960324,,,N,Y,39.635225,-78.246842
PAST SALE,,Other,8 PENNY LN,BERKELEY SPRINGS,WV,25411,149000,,,,,13329,,,,,,,,https://www.redfin.com/WV/BERKELEY-SPRINGS/8-PENNY-LN-25411/home/15957652,,,N,Y,39.530943,-78.277558
PAST SALE,,Single Family Residential,85 Bluebird Ln,Berkeley Springs,WV,25411,216667,4,3.0,,960,23958,1986,,226,,,,,https://www.redfin.com/WV/Berkeley-Springs/85-Bluebird-Ln-25411/home/15955861,,,N,Y,39.5790956,-78.26866
PAST SALE,November-5-2019,Single Family Residential,176 Springbrook Dr,Berkeley Springs,WV,25411,162000,3,2.0,SPRING BROOK ESTATES,1116,87120,1998,761,145,,Sold,,,https://www.redfin.com/WV/Berkeley-Springs/176-Spring-Brook-Dr-25411/home/15959686,BRIGHT MLS,WVMO115340,N,Y,39.613463,-78.24465
PAST SALE,November-26-2019,Single Family Residential,6482 Timber Ridge Rd,Berkeley Springs,WV,25411,133000,1,1.0,Berkeley Springs,560,314067,1980,740,238,,Sold,,,https://www.redfin.com/WV/Berkeley-Springs/6482-Timber-Ridge-Rd-25411/home/15956550,BRIGHT MLS,WVMO115792,N,Y,39.4309714,-78.2899808
PAST SALE,November-15-2021,Single Family Residential,1234 Cacapon Rd,Berkeley Springs,WV,25411,350000,3,2.0,Berkeley Springs,2224,1045440,1994,20,157,,Sold,,,https://www.redfin.com/WV/Berkeley-Springs/1234-Cacapon-Rd-25411/home/176728269,BRIGHT MLS,WVMO2000021,N,Y,39.6178125,-78.2633152
PAST SALE,August-23-2021,Single Family Residential,96 George Ln,Berkeley Springs,WV,25411,164900,2,2.0,BERKELEY SPRINGS,820,9583,1947,104,201,,Sold,,,https://www.redfin.com/WV/Berkeley-Springs/96-George-Ln-25411/home/174640910,BRIGHT MLS,WVMO2000140,N,Y,39.6160485,-78.233921
PAST SALE,,Single Family Residential,2631 County Rte 17/1,Berkeley Springs,WV,25411,186000,2,2.0,,1680,109118,2006,,111,,,,,https://www.redfin.com/WV/Berkeley-Springs/2631-County-Rte-17-1-25411/home/15954756,,,N,Y,39.416886,-78.233558
PAST SALE,,Single Family Residential,2407 Spohrs Rd,Berkeley Springs,WV,25411,161025,2,1.0,,1760,290432,1973,,91,,,,,https://www.redfin.com/WV/Berkeley-Springs/2407-Spohrs-Rd-25411/home/15961564,,,N,Y,39.605861,-78.169074
PAST SALE,,Single Family Residential,PLUM TREE LN,BERKELEY SPRINGS,WV,25411,125000,2,1.0,,1176,98751,1989,,106,,,,,https://www.redfin.com/WV/BERKELEY-SPRINGS/PLUM-TREE-LN-25411/home/15956658,,,N,Y,39.464376,-78.285077
PAST SALE,March-19-2019,Vacant Land,2 Timber Rdg,Berkeley Springs,WV,25411,30000,,,Berkeley Springs,,220370,,992,,,Sold,,,https://www.redfin.com/WV/Berkeley-Springs/2-County-Rte-28-2-25411/home/143460391,BRIGHT MLS,1000253898,N,Y,39.5125354,-78.2441947
PAST SALE,,Single Family Residential,973 County Rte 8/5,Berkeley Springs,WV,25411,130000,,,,,401100,,,,,,,,https://www.redfin.com/WV/Berkeley-Springs/973-County-Rte-8-5-25411/home/15954120,,,N,Y,39.491311,-78.208887
PAST SALE,,Vacant Land,ROUTE 28/1,BERKELEY SPRINGS,WV,25411,30000,,,,,132422,,,,,,,,https://www.redfin.com/WV/BERKELEY-SPRINGS/ROUTE-28-1-25411/home/23312376,,,N,Y,39.525038,-78.269041
PAST SALE,December-21-2018,Single Family Residential,99 Happy Valley Ln,Berkeley Springs,WV,25411,220000,3,2.5,Berkeley Springs,1950,453895,1986,1080,113,,Sold,,,https://www.redfin.com/WV/Berkeley-Springs/99-Happy-Valley-Ln-25411/home/147295056,BRIGHT MLS,1007528678,N,Y,39.5622067,-78.2831294
PAST SALE,June-18-2021,Single Family Residential,1230 Mountainside Rd,Berkeley Springs,WV,25411,273800,3,2.0,COOLFONT MOUNTAINSIDE,2156,21780,2003,170,127,131,Sold,,,https://www.redfin.com/WV/Unknown/1230-Mountainside-Rd-25411/home/174944923,BRIGHT MLS,WVMO118328,N,Y,39.58442712,-78.26977778
PAST SALE,June-19-2020,Single Family Residential,19 Rachel Ln,Berkeley Springs,WV,25411,435000,3,2.5,PIOUS RIDGE,2848,156380,2007,534,153,25,Sold,,,https://www.redfin.com/WV/Berkeley-Springs/19-Rachel-Ln-25411/home/17461438,BRIGHT MLS,WVMO115644,N,Y,39.6566423,-78.1665747
PAST SALE,October-8-2020,Single Family Residential,49 Congress St,Berkeley Springs,WV,25411,42500,2,1.0,Berkeley Springs,,5445,1982,423,,,Sold,,,https://www.redfin.com/WV/Berkeley-Springs/49-Congress-St-25411/home/15959287,BRIGHT MLS,WVMO116182,N,Y,39.628178,-78.227535
PAST SALE,,Other,202 Congress St,Berkeley Springs,WV,25411,267500,11,3.0,,4453,5544,1900,,60,,,,,https://www.redfin.com/WV/Berkeley-Springs/202-Congress-St-25411/home/15959289,,,N,Y,39.6282721,-78.227852
PAST SALE,June-16-2021,Single Family Residential,14019 Winchester Grade Rd,Berkeley Springs,WV,25411,270000,4,3.0,SOUTH MORGAN HILLS,2320,195148,1977,172,116,,Sold,,,https://www.redfin.com/WV/Berkeley-Springs/14019-Winchester-Grade-Rd-25411/home/15956532,BRIGHT MLS,WVMO118144,N,Y,39.4258588,-78.2555127
PAST SALE,August-23-2021,Single Family Residential,46 Moose Valley Trl,Berkeley Springs,WV,25411,56000,1,1.0,ALLEN DISTRICT,,97762,,104,,,Sold,,,https://www.redfin.com/WV/Berkeley-Springs/46-Moose-Valley-Trl-25411/home/40116499,BRIGHT MLS,WVMO2000230,N,Y,39.669453,-78.114644
PAST SALE,May-10-2019,Single Family Residential,9 Sapphire Ln,Berkeley Springs,WV,25411,235000,4,3.0,PIOUS RIDGE,3100,217800,1993,940,76,,Sold,,,https://www.redfin.com/WV/Berkeley-Springs/9-Sapphire-Ln-25411/home/15961712,BRIGHT MLS,WVMO114384,N,Y,39.6655401,-78.1606963
PAST SALE,October-9-2019,Single Family Residential,500 Johnsons Mill Rd,Berkeley Springs,WV,25411,85000,2,1.0,Berkeley Springs,1392,27442,1920,788,61,,Sold,,,https://www.redfin.com/WV/Berkeley-Springs/500-Johnsons-Mill-Rd-25411/home/15959849,BRIGHT MLS,WVMO115090,N,Y,39.615767,-78.225948
PAST SALE,January-10-2020,Single Family Residential,42 Hummingbird Pl,Berkeley Springs,WV,25411,238000,4,3.0,FAIRVIEW SUBDIVISION,2977,50094,2008,695,80,40,Sold,,,https://www.redfin.com/WV/Berkeley-Springs/42-Hummingbird-Pl-25411/home/21971173,BRIGHT MLS,WVMO115972,N,Y,39.645777,-78.199531
PAST SALE,December-11-2020,Single Family Residential,165 Split Pine Dr,Berkeley Springs,WV,25411,207000,2,3.0,SLEEPY CREEK FARMS,2252,98010,1992,359,92,19,Sold,,,https://www.redfin.com/WV/1/165-Split-Pine-Dr-25411/home/173328597,BRIGHT MLS,WVMO117406,N,Y,39.46997276,-78.26051118
PAST SALE,August-28-2020,Vacant Land,Top Mdw,Berkeley Springs,WV,25411,23500,,,TOP MEADOW,,192971,,464,,8,Sold,,,https://www.redfin.com/WV/Berkeley-Springs/522-Meadow-Ln-25411/home/146879946,BRIGHT MLS,1001534332,N,Y,39.433017,-78.276452
PAST SALE,August-20-2021,Vacant Land,0 Seneca Trl,Berkeley Springs,WV,25411,21500,,,THUNDERBIRD HILLS,,87120,,107,,17,Sold,,,https://www.redfin.com/WV/Berkeley-Springs/Seneca-TRL-25411/home/170014463,BRIGHT MLS,WVMO117984,N,Y,39.52219174,-78.29076528
PAST SALE,June-30-2020,Single Family Residential,31 Bluebird,Berkeley Springs,WV,25411,168000,3,2.0,COOLFONT MOUNTAINSIDE,1279,24829,1973,523,131,127,Sold,,,https://www.redfin.com/WV/Berkeley-Springs/31-Bluebird-Ln-25411/home/15955871,BRIGHT MLS,WVMO116806,N,Y,39.5809057,-78.2691243
PAST SALE,,Vacant Land,WV HWY 38/8,BERKELEY SPRINGS,WV,25411,57000,,,,,351965,,,,,,,,https://www.redfin.com/WV/BERKELEY-SPRINGS/WV-HWY-38-8-25411/home/23320900,,,N,Y,39.519999,-78.252256
PAST SALE,May-15-2020,Single Family Residential,314 Shirley Dr,Berkeley Springs,WV,25411,272500,5,4.0,SHIRLEY FARMS,3850,84506,1981,569,71,8,Sold,,,https://www.redfin.com/WV/Berkeley-Springs/314-Shirley-Dr-25411/home/15956902,BRIGHT MLS,WVMO108624,N,Y,39.5717686,-78.2536439
PAST SALE,September-16-2020,Vacant Land,Mdg Way,Berkeley Springs,WV,25411,12000,,,CACAPON SOUTH,,26920,,445,,25,Sold,,,https://www.redfin.com/WV/1/MDG-Way-25411/home/52934717,BRIGHT MLS,WVMO115204,N,Y,39.4979,-78.29187
PAST SALE,June-25-2020,Single Family Residential,801 South Washington St,Berkeley Springs,WV,25411,141000,2,2.5,Berkeley Springs,2600,6969,1940,528,54,,Sold,,,https://www.redfin.com/WV/Berkeley-Springs/801-S-Washington-St-25411/home/21960181,BRIGHT MLS,WVMO116980,N,Y,39.61571,-78.2316712
PAST SALE,May-28-2021,Single Family Residential,278 Wintergreen Way,Berkeley Springs,WV,25411,295000,3,4.0,COOLFONT,1856,56628,1998,191,159,131,Sold,,,https://www.redfin.com/WV/Berkeley-Springs/278-Wintergreen-Way-25411/home/15960636,BRIGHT MLS,WVMO118400,N,Y,39.589639,-78.268107
PAST SALE,May-27-2021,Single Family Residential,103 Wineberry Ln #9,Berkeley Springs,WV,25411,115000,1,1.0,Berkeley Springs,675,52708,1976,192,170,,Sold,,,https://www.redfin.com/WV/Berkeley-Springs/103-Wineberry-Ln-25411/unit-9/home/174922664,BRIGHT MLS,WVMO118266,N,Y,39.6348095,-78.1181014
PAST SALE,,Vacant Land,ROUTE 13/9,BERKELEY SPRINGS,WV,25411,37000,,,,,314939,,,,,,,,https://www.redfin.com/WV/BERKELEY-SPRINGS/ROUTE-13-9-25411/home/23324692,,,N,Y,39.527149,-78.212018
PAST SALE,November-18-2021,Single Family Residential,395-397 Wilkes St,Berkeley Springs,WV,25411,110000,4,2.0,Berkeley Springs,1948,7405,1925,17,56,,Sold,,,https://www.redfin.com/WV/Berkeley-Springs/395-Wilkes-St-25411/home/87927839,BRIGHT MLS,WVMO2000574,N,Y,39.6302369,-78.2268122
PAST SALE,July-31-2019,Single Family Residential,354 Hope Acres Dr,Berkeley Springs,WV,25411,172000,3,2.0,NEW HOPE ACRES,1160,130680,1986,858,148,17,Sold,,,https://www.redfin.com/WV/Berkeley-Springs/354-Hope-Acres-Dr-25411/home/15961119,BRIGHT MLS,WVMO115558,N,Y,39.5914296,-78.1595829
PAST SALE,,Vacant Land,U S ROUTE 522,BERKELEY SPRINGS,WV,25411,85000,,,,,299257,,,,,,,,https://www.redfin.com/WV/BERKELEY-SPRINGS/U-S-ROUTE-522-25411/home/23323484,,,N,Y,39.497437,-78.295449
PAST SALE,,Single Family Residential,316 United Morgan Cir,Berkeley Springs,WV,25411,160000,2,2.0,,1476,4792,2007,,108,,,,,https://www.redfin.com/WV/Berkeley-Springs/316-United-Morgan-Cir-25411/home/17461399,,,N,Y,39.598579,-78.2451894
PAST SALE,September-21-2020,Vacant Land,31 Megans Ter,Berkeley Springs,WV,25411,26000,,,CACAPON SOUTH,,65976,,440,,28,Sold,,,https://www.redfin.com/WV/Berkeley-Springs/31-Megans-Ter-25411/home/17528869,BRIGHT MLS,1000167691,N,Y,39.4914361,-78.2897329
PAST SALE,,Vacant Land,BOULDER SPRING PL,BERKELEY SPRINGS,WV,25411,13333,,,,,218279,,,,,,,,https://www.redfin.com/WV/BERKELEY-SPRINGS/BOULDER-SPRING-PL-25411/home/23319565,,,N,Y,39.522967,-78.304816
PAST SALE,December-19-2019,Single Family Residential,99 Brookview Ln,Berkeley Springs,WV,25411,199900,3,2.5,BROOKVIEW ACRES,1702,87120,1998,717,117,16,Sold,,,https://www.redfin.com/WV/Berkeley-Springs/99-Brookview-Ln-25411/home/15959857,BRIGHT MLS,WVMO116218,N,Y,39.58185,-78.215442
PAST SALE,,Vacant Land,TABOR RD,BERKELEY SPRINGS,WV,25411,25000,,,,,153767,,,,,,,,https://www.redfin.com/WV/BERKELEY-SPRINGS/TABOR-RD-25411/home/23320889,,,N,Y,39.523721,-78.2475
PAST SALE,August-18-2020,Vacant Land,Lot 39 Amulet Cir,Berkeley Springs,WV,25411,19400,,,HORSESHOE RUN,,87991,,474,,21,Sold,,,https://www.redfin.com/WV/Berkeley-Springs/39-Amulet-Cir-25411/home/172652109,BRIGHT MLS,WVMO117202,N,Y,39.6647052,-78.0934408
PAST SALE,June-21-2021,Single Family Residential,365 Prado Way,Berkeley Springs,WV,25411,412900,4,3.5,CACAPON SOUTH,3445,44867,2018,167,120,42,Sold,,,https://www.redfin.com/WV/Berkeley-Springs/365-Prado-Way-25411/home/23324758,BRIGHT MLS,WVMO118318,N,Y,39.4955485,-78.2880554
PAST SALE,,Vacant Land,ORCHARD DR,PAW PAW,WV,25434,64900,,,,,218358,,,,,,,,https://www.redfin.com/WV/PAW-PAW/ORCHARD-DR-25434/home/23325503,,,N,Y,39.547534,-78.255412
PAST SALE,November-15-2019,Single Family Residential,32 Stephanie St,Berkeley Springs,WV,25411,102275,3,1.0,CROSFIELD ADDITION,1008,10890,1975,751,101,,Sold,,,https://www.redfin.com/WV/Berkeley-Springs/32-Stephanie-St-25411/home/15959683,BRIGHT MLS,WVMO115986,N,Y,39.6279732,-78.2212907
PAST SALE,September-30-2020,Single Family Residential,24 Greenoak Ln,Berkeley Springs,WV,25411,290100,3,3.5,GREENWOOD ACRES,2116,217800,2004,431,137,2,Sold,,,https://www.redfin.com/WV/Berkeley-Springs/24-Greenoak-Ln-25411/home/15956559,BRIGHT MLS,WVMO117400,N,Y,39.441136,-78.283278
PAST SALE,,Single Family Residential,450 HARDWOOD DR,BERKELEY SPRINGS,WV,25411,233520,3,1.5,,1488,491792,1982,,157,,,,,https://www.redfin.com/WV/BERKELEY-SPRINGS/450-HARDWOOD-DR-25411/home/15956880,,,N,Y,39.566402,-78.252787
PAST SALE,,Single Family Residential,10 Potomac Ridge Ln,Berkeley Springs,WV,25411,164900,2,2.0,,1818,87120,1998,,91,,,,,https://www.redfin.com/WV/Berkeley-Springs/10-Potomac-Ridge-Ln-25411/home/15954666,,,N,Y,39.677829,-78.109483
PAST SALE,October-27-2020,Vacant Land,Lot 70 Parkside Dr,Berkeley Springs,WV,25411,46400,,,CACAPON EAST,,179032,,404,,29,Sold,,,https://www.redfin.com/WV/2/Lot-70-Parkside-Dr-25411/home/172968591,BRIGHT MLS,WVMO116942,N,Y,39.53252025,-78.30152645
PAST SALE,July-20-2021,Single Family Residential,310 Weber Ln,Berkeley Springs,WV,25411,266000,3,2.0,WEBER HERITAGE,1344,157687,1999,138,198,13,Sold,,,https://www.redfin.com/WV/Berkeley-Springs/310-Weber-Ln-25411/home/15961256,BRIGHT MLS,WVMO118650,N,Y,39.6347129,-78.1846088
PAST SALE,April-27-2021,Single Family Residential,333 Concord Ave,Berkeley Springs,WV,25411,110000,4,1.0,BERKELEY SPRINGS,1021,13939,1949,222,108,,Sold,,,https://www.redfin.com/WV/Berkeley-Springs/333-Concord-Ave-25411/home/23317984,BRIGHT MLS,WVMO117904,N,Y,39.6157366,-78.2332224
PAST SALE,September-23-2021,Single Family Residential,415 Grove Heights Rd,Berkeley Springs,WV,25411,230000,3,2.0,GROVE HEIGHTS,1310,32234,1972,73,176,,Sold,,,https://www.redfin.com/WV/Berkeley-Springs/415-Grove-Heights-Rd-25411/home/173207307,BRIGHT MLS,WVMO2000302,N,Y,39.622852,-78.2027733
PAST SALE,December-16-2019,Single Family Residential,1751 Martinsburg Rd,Berkeley Springs,WV,25411,380000,4,2.0,Berkeley Springs,3299,424710,1930,720,115,,Sold,,,https://www.redfin.com/WV/Berkeley-Springs/1751-Martinsburg-Rd-25411/home/15961654,BRIGHT MLS,WVMO116076,N,Y,39.6255996,-78.2010513
PAST SALE,September-14-2019,Single Family Residential,234 Fairfax St,Berkeley Springs,WV,25411,385000,5,3.5,Berkeley Springs,3118,10454,1874,813,123,,Sold,,,https://www.redfin.com/WV/Berkeley-Springs/234-Fairfax-St-25411/home/23317670,BRIGHT MLS,WVMO114348,N,Y,39.6253269,-78.2247846
PAST SALE,June-12-2020,Vacant Land,5 Cielo Ln,Berkeley Springs,WV,25411,19500,,,CACAPON SOUTH,,44039,,541,,28,Sold,,,https://www.redfin.com/WV/Berkeley-Springs/5-Cielo-Ln-25411/home/17528690,BRIGHT MLS,1000167675,N,Y,39.4913284,-78.2918197
PAST SALE,,Single Family Residential,1446 County Rte 1/1,Berkeley Springs,WV,25411,55000,4,2.5,,2263,111949,2004,,24,,,,,https://www.redfin.com/WV/Berkeley-Springs/1446-County-Rte-1-1-25411/home/15961774,,,N,Y,39.6685607,-78.1468006
PAST SALE,April-12-2021,Single Family Residential,237 Cielo Ln,Berkeley Springs,WV,25411,280000,3,2.0,CACAPON SOUTH SECTION V,1500,43560,2015,237,187,25,Sold,,,https://www.redfin.com/WV/Berkeley-Springs/237-Cielo-Ln-25411/home/23312354,BRIGHT MLS,WVMO118040,N,Y,39.4929317,-78.2911468
PAST SALE,January-31-2020,Single Family Residential,341 Cubby Hole Ln,Berkeley Springs,WV,25411,385000,3,3.0,TREELAND HILLS,2754,118919,2007,674,140,,Sold,,,https://www.redfin.com/WV/Berkeley-Springs/341-Cubby-Hole-Ln-25411/home/17461580,BRIGHT MLS,1002044802,N,Y,39.621499,-78.24448
PAST SALE,,Other,175 Wilkes St,Berkeley Springs,WV,25411,85000,,,,3643,8250,1820,,23,,,,,https://www.redfin.com/WV/Berkeley-Springs/175-Wilkes-St-25411/home/15960971,,,N,Y,39.6286569,-78.2279669
PAST SALE,,Single Family Residential,288 HUNGARIA RD,BERKELEY SPRINGS,WV,25411,315000,4,4.5,,3196,88427,2009,,99,,,,,https://www.redfin.com/WV/BERKELEY-SPRINGS/288-HUNGARIA-RD-25411/home/23319670,,,N,Y,39.537573,-78.249993
PAST SALE,,Vacant Land,SIR JOHNS VLY,BERKELEY SPRINGS,WV,25411,300000,,,,,2177172,,,,,,,,https://www.redfin.com/WV/BERKELEY-SPRINGS/SIR-JOHNS-VLY-25411/home/23319656,,,N,Y,39.568013,-78.280464
PAST SALE,April-30-2021,Vacant Land,200 Shakedown Ln,Berkeley Springs,WV,25411,40000,,,MALLARD CREEK,,222592,,219,,,Sold,,,https://www.redfin.com/WV/Berkeley-Springs/200-Shakedown-Ln-25411/home/174943224,BRIGHT MLS,WVMO118216,N,Y,39.5605972,-78.1928807
PAST SALE,,Vacant Land,WESTVIEW DR,KEARNEYSVILLE,WV,25430,12000,,,,,87556,,,,,,,,https://www.redfin.com/WV/KEARNEYSVILLE/WESTVIEW-DR-25430/home/23319617,,,N,Y,39.562256,-78.285426
PAST SALE,,Vacant Land,WESTVIEW DR,KEARNEYSVILLE,WV,25430,18000,,,,,157687,,,,,,,,https://www.redfin.com/WV/KEARNEYSVILLE/WESTVIEW-DR-25430/home/23319620,,,N,Y,39.56097,-78.28559
PAST SALE,,Vacant Land,ROUTE 38/6,BERKELEY SPRINGS,WV,25411,10250,,,,,88950,,,,,,,,https://www.redfin.com/WV/BERKELEY-SPRINGS/ROUTE-38-6-25411/home/23319550,,,N,Y,39.534511,-78.298414
PAST SALE,,Vacant Land,ROCK GAP SPRINGS S/D,BERKELEY SPRINGS,WV,25411,75000,,,,,871636,,,,,,,,https://www.redfin.com/WV/BERKELEY-SPRINGS/ROCK-GAP-SPRINGS-S-D-25411/home/23319568,,,N,Y,39.526087,-78.297493
PAST SALE,December-17-2019,Single Family Residential,652 Cherry Ln,Berkeley Springs,WV,25411,150000,5,2.0,SLEEPY CREEK MOUNTAIN ESTATES,1714,1489752,1975,719,88,,Sold,,,https://www.redfin.com/WV/BERKELEY-SPRINGS/652-WILD-CHERRY-LN-25411/home/23319353,BRIGHT MLS,WVMO115674,N,Y,39.544032,-78.171795
PAST SALE,December-18-2020,Vacant Land,Off Highland Ridge Rd,Berkeley Springs,WV,25411,199900,,,SLEEPY CREEK FOREST,,1738044,,352,,,Sold,,,https://www.redfin.com/WV/Unknown/Highland-Ridge-Rd-25411/home/23319348,BRIGHT MLS,1000167637,N,Y,39.556842,-78.186688
PAST SALE,November-12-2020,Single Family Residential,136 Lawyer Ln,Berkeley Springs,WV,25411,251500,2,2.0,OAKWOOD ESTATES,1826,89733,2005,388,138,25,Sold,,,https://www.redfin.com/WV/Berkeley-Springs/136-Lawyer-Ln-25411/home/15954060,BRIGHT MLS,WVMO117548,N,Y,39.622637,-78.199761
PAST SALE,,Single Family Residential,5 Co Rte 38/6,Berkeley Springs,WV,25411,38000,2,2.0,,768,339768,2020,,49,,,,,https://www.redfin.com/WV/Berkeley-Springs/5-Co-Rte-38-6-25411/home/23319487,,,N,Y,39.552128,-78.247538
PAST SALE,,Vacant Land,WV HWY 28/2,BERKELEY SPRINGS,WV,25411,50000,,,,,304920,,,,,,,,https://www.redfin.com/WV/BERKELEY-SPRINGS/WV-HWY-28-2-25411/home/23319780,,,N,Y,39.503211,-78.250736
PAST SALE,,Vacant Land,N MOUNTAINSIDE RD,BERKELEY SPRINGS,WV,25411,10000,,,,,23522,,,,,,,,https://www.redfin.com/WV/BERKELEY-SPRINGS/N-MOUNTAINSIDE-RD-25411/home/23319827,,,N,Y,39.585553,-78.267754
PAST SALE,,Vacant Land,ROUTE 38/8,BERKELEY SPRINGS,WV,25411,7550,,,,,113256,,,,,,,,https://www.redfin.com/WV/BERKELEY-SPRINGS/ROUTE-38-8-25411/home/23320956,,,N,Y,39.524227,-78.276232
PAST SALE,,Vacant Land,OFF ROUTE 28/1,BERKELEY SPRINGS,WV,25411,5000,,,,,39204,,,,,,,,https://www.redfin.com/WV/BERKELEY-SPRINGS/OFF-ROUTE-28-1-25411/home/23322268,,,N,Y,39.496797,-78.280156
PAST SALE,,Vacant Land,ROUTE 28/1,BERKELEY SPRINGS,WV,25411,15900,,,,,78408,,,,,,,,https://www.redfin.com/WV/BERKELEY-SPRINGS/ROUTE-28-1-25411/home/23322299,,,N,Y,39.495968,-78.277118
PAST SALE,,Vacant Land,ROUTE 28/1,BERKELEY SPRINGS,WV,25411,5600,,,,,56628,,,,,,,,https://www.redfin.com/WV/BERKELEY-SPRINGS/ROUTE-28-1-25411/home/23322302,,,N,Y,39.49726,-78.277751
PAST SALE,,Mobile/Manufactured Home,357 Packing House Rd,Berkeley Springs,WV,25411,189000,,,,,306227,,,,,,,,https://www.redfin.com/WV/Berkeley-Springs/357-Packing-House-Rd-25411/home/23322388,,,N,Y,39.47322,-78.229844
PAST SALE,,Vacant Land,WHITE PINE DR,WINCHESTER,WV,25411,9600,,,,,132858,,,,,,,,https://www.redfin.com/WV/WINCHESTER/WHITE-PINE-DR-25411/home/23324041,,,N,Y,39.398392,-78.23303
PAST SALE,,Single Family Residential,315 Blueberry Ln,Berkeley Springs,WV,25411,250000,3,2.0,,1560,1507176,2009,,160,,,,,https://www.redfin.com/WV/Berkeley-Springs/315-Blueberry-Ln-25411/home/23324099,,,N,Y,39.4527951,-78.2684362
PAST SALE,April-8-2021,Vacant Land,Fish Hatchery Rd,Berkeley Springs,WV,25411,450000,,,Berkeley Springs,,4138200,,241,,,Sold,,,https://www.redfin.com/WV/Unknown/Fish-Hatchery-Rd-25411/home/146959822,BRIGHT MLS,WVMO117550,N,Y,39.4505,-78.28108
PAST SALE,March-12-2021,Single Family Residential,298 Deerwood Ln,Berkeley Springs,WV,25411,269000,3,2.0,DEER SPRING WOODS,1440,133729,2018,268,187,18,Sold,,,https://www.redfin.com/WV/Berkeley-Springs/298-Deerwood-Ln-25411/home/23324166,BRIGHT MLS,WVMO117748,N,Y,39.423828,-78.243443
PAST SALE,,Vacant Land,OFF BUTTERNUT LN,BERKELEY SPRINGS,WV,25411,33000,,,,,273557,,,,,,,,https://www.redfin.com/WV/BERKELEY-SPRINGS/OFF-BUTTERNUT-LN-25411/home/23323421,,,N,Y,39.454568,-78.285539
PAST SALE,,Vacant Land,HORIZON LN,BERKELEY SPRINGS,WV,25411,15000,,,,,105415,,,,,,,,https://www.redfin.com/WV/BERKELEY-SPRINGS/HORIZON-LN-25411/home/23323460,,,N,Y,39.472348,-78.293596
PAST SALE,,Vacant Land,PLUM TREE LN,BERKELEY SPRINGS,WV,25411,15500,,,,,220631,,,,,,,,https://www.redfin.com/WV/BERKELEY-SPRINGS/PLUM-TREE-LN-25411/home/23323499,,,N,Y,39.468012,-78.281813
PAST SALE,,Single Family Residential,54 Weber Ln,Berkeley Springs,WV,25411,225000,3,2.0,,2168,91476,2008,,104,,,,,https://www.redfin.com/WV/Berkeley-Springs/54-Weber-Ln-25411/home/21971153,,,N,Y,39.636941,-78.184742
PAST SALE,,Vacant Land,SUMMIT LN,BERKELEY SPRINGS,WV,25411,6000,,,,,100188,,,,,,,,https://www.redfin.com/WV/BERKELEY-SPRINGS/SUMMIT-LN-25411/home/23323500,,,N,Y,39.459118,-78.295617
PAST SALE,,Vacant Land,SILVERCREEK LN,BERKELEY SPRINGS,WV,25411,30000,,,,,122404,,,,,,,,https://www.redfin.com/WV/BERKELEY-SPRINGS/SILVERCREEK-LN-25411/home/23323502,,,N,Y,39.458111,-78.29816
PAST SALE,,Single Family Residential,OFF OAK KNOLL DR,BERKELEY SPRINGS,WV,25411,215000,3,1.0,,1080,426888,1955,,199,,,,,https://www.redfin.com/WV/BERKELEY-SPRINGS/OFF-OAK-KNOLL-DR-25411/home/15956881,,,N,Y,39.567748,-78.252255
PAST SALE,September-24-2021,Vacant Land,Shades Ln,Berkeley Springs,WV,25411,60000,,,Berkeley Springs,,259182,,72,,,Sold,,,https://www.redfin.com/WV/3/Shade-Ln-25411/home/114103974,BRIGHT MLS,WVMO2000272,N,Y,39.59701379,-78.16352942
PAST SALE,August-24-2020,Vacant Land,Spook Hollow Ln,Berkeley Springs,WV,25411,19000,,,HIGHLAND HILLS,,88862,,468,,25,Sold,,,https://www.redfin.com/WV/BERKELEY-SPRINGS/SPOOK-HOLLOW-LN-25411/home/23324703,BRIGHT MLS,1008348332,N,Y,39.54865,-78.176904
PAST SALE,August-21-2020,Vacant Land,Hollybush Ln,Berkeley Springs,WV,25411,15000,,,Berkeley Springs,,217800,,471,,,Sold,,,https://www.redfin.com/WV/BERKELEY-SPRINGS/HOLLYBUSH-LN-25411/home/23324699,BRIGHT MLS,WVMO116390,N,Y,39.416031,-78.246208
PAST SALE,April-12-2019,Single Family Residential,412 Tanglewood Ln,Berkeley Springs,WV,25411,163000,1,2.0,Berkeley Springs,864,305356,2010,968,189,,Sold,,,https://www.redfin.com/WV/Berkeley-Springs/412-Tanglewood-Ln-25411/home/23324714,BRIGHT MLS,1010004902,N,Y,39.501895,-78.251994
PAST SALE,,Vacant Land,MOUNTAIN VIEW RD,BERKELEY SPRINGS,WV,25411,10000,,,,,40162,,,,,,,,https://www.redfin.com/WV/BERKELEY-SPRINGS/MOUNTAIN-VIEW-RD-25411/home/23324742,,,N,Y,39.497761,-78.284133
PAST SALE,,Vacant Land,WV ROUTE 136,BERKELEY SPRINGS,WV,25411,485000,,,,,1126897,,,,,,,,https://www.redfin.com/WV/BERKELEY-SPRINGS/WV-ROUTE-136-25411/home/23324812,,,N,Y,39.431335,-78.247288
PAST SALE,,Vacant Land,222 FARSIDE LN,BERKELEY SPRINGS,WV,25411,32000,,,,,130724,,,,,,,,https://www.redfin.com/WV/BERKELEY-SPRINGS/222-FARSIDE-LN-25411/home/23324825,,,N,Y,39.495384,-78.278394
PAST SALE,,Vacant Land,WHITE PINE DR,WINCHESTER,WV,25411,8000,,,,,109771,,,,,,,,https://www.redfin.com/WV/WINCHESTER/WHITE-PINE-DR-25411/home/23324038,,,N,Y,39.397835,-78.234114
PAST SALE,,Vacant Land,178 Lawyer Ln,Berkeley Springs,WV,25411,26500,,,,,90169,,,,,,,,https://www.redfin.com/WV/Berkeley-Springs/178-Lawyer-Ln-25411/home/23325389,,,N,Y,39.62215,-78.200166
PAST SALE,December-8-2020,Single Family Residential,321 Southridge Dr,Berkeley Springs,WV,25411,234000,3,3.0,SOUTHRIDGE,2544,19166,2009,362,92,13,Sold,,,https://www.redfin.com/WV/Berkeley-Springs/321-Southridge-Dr-25411/home/23325430,BRIGHT MLS,WVMO117620,N,Y,39.6062084,-78.2419409
PAST SALE,,Vacant Land,OFF ROUTE 9/10,BERKELEY SPRINGS,WV,25411,83000,,,,,838094,,,,,,,,https://www.redfin.com/WV/BERKELEY-SPRINGS/OFF-ROUTE-9-10-25411/home/23325501,,,N,Y,39.563839,-78.269494
PAST SALE,,Vacant Land,ROUTE 38/6,BERKELEY SPRINGS,WV,25411,10000,,,,,65514,,,,,,,,https://www.redfin.com/WV/BERKELEY-SPRINGS/ROUTE-38-6-25411/home/23325502,,,N,Y,39.545588,-78.294531
PAST SALE,,Vacant Land,ROUTE 38/6,BERKELEY SPRINGS,WV,25411,20000,,,,,119877,,,,,,,,https://www.redfin.com/WV/BERKELEY-SPRINGS/ROUTE-38-6-25411/home/23325505,,,N,Y,39.539747,-78.297853
PAST SALE,November-27-2020,Vacant Land,Hollybush Ln,Berkeley Springs,WV,25411,18000,,,HOLLY BUSH ESTATES,,108900,,373,,21,Sold,,,https://www.redfin.com/WV/BERKELEY-SPRINGS/HOLLYBUSH-LN-25411/home/23325554,BRIGHT MLS,WVMO117728,N,Y,39.415943,-78.241483
PAST SALE,May-21-2021,Vacant Land,Hollybush,Berkeley Springs,WV,25411,18500,,,HOLLY BUSH ESTATES,,108900,,198,,,Sold,,,https://www.redfin.com/WV/BERKELEY-SPRINGS/HOLLYBUSH-LN-25411/home/23325548,BRIGHT MLS,WVMO117750,N,Y,39.414864,-78.241976
PAST SALE,,Vacant Land,OFF ROUTE 1,HEDGESVILLE,WV,25427,34900,,,,,148888,,,,,,,,https://www.redfin.com/WV/HEDGESVILLE/OFF-ROUTE-1-25427/home/23325559,,,N,Y,39.662353,-78.097736
PAST SALE,,Vacant Land,OFF ROUTE 1,HEDGESVILLE,WV,25427,16800,,,,,93523,,,,,,,,https://www.redfin.com/WV/HEDGESVILLE/OFF-ROUTE-1-25427/home/23325563,,,N,Y,39.665443,-78.093369
PAST SALE,,Vacant Land,OFF ROUTE 28,BERKELEY SPRINGS,WV,25411,22000,,,,,46701,,,,,,,,https://www.redfin.com/WV/BERKELEY-SPRINGS/OFF-ROUTE-28-25411/home/23326621,,,N,Y,39.49208,-78.288306
PAST SALE,,Vacant Land,OFF RTE #28,BERKELEY SPRINGS,WV,25411,26000,,,,,65976,,,,,,,,https://www.redfin.com/WV/BERKELEY-SPRINGS/OFF-RTE-25411/unit-28/home/23326627,,,N,Y,39.49058,-78.289273
PAST SALE,,Vacant Land,ROUTE 8/5,BERKELEY SPRINGS,WV,25411,80000,,,,,677358,,,,,,,,https://www.redfin.com/WV/BERKELEY-SPRINGS/ROUTE-8-5-25411/home/23326641,,,N,Y,39.480865,-78.20866
PAST SALE,,Single Family Residential,681 McCoy Rd,Berkeley Springs,WV,25411,142000,3,2.0,,1952,93306,2008,,73,,,,,https://www.redfin.com/WV/Berkeley-Springs/681-McCoy-Rd-25411/home/23326656,,,N,Y,39.5446243,-78.2516069
PAST SALE,,Vacant Land,OFF ROUTE 38/3,BERKELEY SPRINGS,WV,25411,11500,,,,,93393,,,,,,,,https://www.redfin.com/WV/BERKELEY-SPRINGS/OFF-ROUTE-38-3-25411/home/23326766,,,N,Y,39.586286,-78.207028
PAST SALE,March-15-2021,Vacant Land,Shearer,Berkeley Springs,WV,25411,30000,,,Berkeley Springs,,147232,,265,,25,Sold,,,https://www.redfin.com/WV/BERKELEY-SPRINGS/98-SHEARER-DR-25411/home/23326784,BRIGHT MLS,WVMO118092,N,Y,39.685246,-78.185331
PAST SALE,July-14-2021,Single Family Residential,946 Fairfax St,Berkeley Springs,WV,25411,373000,4,2.0,Berkeley Springs,3170,566280,1920,144,118,,Sold,,,https://www.redfin.com/WV/Berkeley-Springs/946-Fairfax-St-25411/home/45356520,BRIGHT MLS,WVMO118402,N,Y,39.6241399,-78.2227286
PAST SALE,March-20-2020,Single Family Residential,156 S Green St,Berkeley Springs,WV,25411,279000,5,3.0,BERKELEY SPRINGS,2362,15246,1872,625,118,,Sold,,,https://www.redfin.com/WV/Berkeley-Springs/156-S-Green-St-25411/home/143750582,BRIGHT MLS,WVMO116272,N,Y,39.6242356,-78.2279224
PAST SALE,May-6-2021,Single Family Residential,1735 Holly Hill Ln,Berkeley Springs,WV,25411,269900,3,2.0,SLEEPY CREEK FARMS,1174,146361,2020,213,230,21,Sold,,,https://www.redfin.com/WV/Unknown/1735-Holly-Hill-Ln-25411/home/175247372,BRIGHT MLS,WVMO118208,N,Y,39.47173135,-78.26140295
PAST SALE,October-21-2019,Vacant Land,1 Deerwood Ln,Berkeley Springs,WV,25411,55000,,,DEER SPRING WOODS,,270943,,776,,25,Sold,,,https://www.redfin.com/WV/Berkeley-Springs/1-Deerwood-Ln-25411/home/146883754,BRIGHT MLS,1002303414,N,Y,39.4273454,-78.2425098
PAST SALE,August-10-2021,Vacant Land,27 Bear Paw Dr,Berkeley Springs,WV,25411,28000,,,TWIN LAKES EAST,,90605,,117,,17,Sold,,,https://www.redfin.com/WV/1/27-Bear-Paw-Dr-25411/home/171696952,BRIGHT MLS,1002271782,N,Y,39.50055865,-78.2597307
PAST SALE,March-2-2020,Single Family Residential,1002 Upland Trl,Berkeley Springs,WV,25411,317500,3,2.0,Berkeley Springs,1456,883832,2007,643,218,,Sold,,,https://www.redfin.com/WV/BERKELEY-SPRINGS/1002-UPLAND-TRL-25411/home/17461429,BRIGHT MLS,WVMO115520,N,Y,39.495565,-78.191234
PAST SALE,May-22-2020,Single Family Residential,4762 Cold Run Valley Rd,Berkeley Springs,WV,25411,185000,3,2.0,HAPPY VALLEY RETREAT,2300,89298,1976,562,80,,Sold,,,https://www.redfin.com/WV/Berkeley-Springs/4762-Cold-Run-Valley-Rd-25411/home/101687815,BRIGHT MLS,WVMO116538,N,Y,39.5630569,-78.2775313
PAST SALE,April-1-2020,Single Family Residential,133 Bobcat Dr,Berkeley Springs,WV,25411,220000,3,2.5,COOLFONT MOUNTAINSIDE,1350,23958,2011,613,163,117,Sold,,,https://www.redfin.com/WV/Berkeley-Springs/133-Bobcat-Dr-25411/home/23319935,BRIGHT MLS,WVMO115580,N,Y,39.5877798,-78.2716185
PAST SALE,May-13-2021,Single Family Residential,404 Sugar Hollow Rd,Berkeley Springs,WV,25411,269900,4,3.0,MICHAEL MANOR,2620,86684,1975,206,103,,Sold,,,https://www.redfin.com/WV/Berkeley-Springs/404-Sugar-Hollow-Rd-25411/home/15960953,BRIGHT MLS,WVMO118194,N,Y,39.6016816,-78.2334855
PAST SALE,February-13-2020,Single Family Residential,20 Lady Slipper Ln,Berkeley Springs,WV,25411,179900,3,2.5,OAKLAND HILLS,1776,191664,1983,661,101,,Sold,,,https://www.redfin.com/WV/Berkeley-Springs/20-Ladyslipper-Ln-25411/home/15954941,BRIGHT MLS,WVMO116300,N,Y,39.4497526,-78.2488191
PAST SALE,July-9-2019,Single Family Residential,55 Highland Ridge Rd,Berkeley Springs,WV,25411,220000,3,2.0,Berkeley Springs,1352,213880,1967,880,163,,Sold,,,https://www.redfin.com/WV/Berkeley-Springs/55-Highland-Ridge-Rd-25411/home/15961032,BRIGHT MLS,WVMO115242,N,Y,39.589398,-78.206117
PAST SALE,November-30-2020,Single Family Residential,26 Old Mill Manor Pl,Berkeley Springs,WV,25411,270000,4,2.0,BERKELEY SPRINGS,1978,145926,2002,370,137,25,Sold,,,https://www.redfin.com/WV/Berkeley-Springs/26-Old-Mill-Manor-Pl-25411/home/173135125,BRIGHT MLS,WVMO117206,N,Y,39.5667686,-78.2078426
PAST SALE,,Vacant Land,WV 28/2,BERKELEY SPRINGS,WV,25411,80000,,,,,871200,,,,,,,,https://www.redfin.com/WV/BERKELEY-SPRINGS/WV-28-2-25411/home/109670222,,,N,Y,39.430533,-78.276535
PAST SALE,May-22-2020,Single Family Residential,2261 Culp Rd,Berkeley Springs,WV,25411,310000,2,2.0,Berkeley Springs,1440,87120,2015,562,215,,Sold,,,https://www.redfin.com/WV/Berkeley-Springs/2261-County-Rte-1-1-25411/home/23415984,BRIGHT MLS,WVMO116338,N,Y,39.665853,-78.1490721
PAST SALE,,Vacant Land,PIOUS RDG,BERKELEY SPRINGS,WV,25411,50000,,,,,229518,,,,,,,,https://www.redfin.com/WV/BERKELEY-SPRINGS/PIOUS-RDG-25411/home/23415970,,,N,Y,39.63484,-78.189862
PAST SALE,,Vacant Land,38/6 Rock Gap Rd,Berkeley Springs,WV,25411,56000,,,,,397703,,,,,,,,https://www.redfin.com/WV/Berkeley-Springs/38-6-Rock-Gap-Rd-25411/home/23416031,,,N,Y,39.5341721,-78.2866339
PAST SALE,July-6-2021,Single Family Residential,18 Bobcat Ct,Berkeley Springs,WV,25411,220000,4,2.0,COOLFONT MOUNTAINSIDE,1476,43560,1981,152,149,117,Sold,,,https://www.redfin.com/WV/Berkeley-Springs/18-Bobcat-Dr-25411/home/165856155,BRIGHT MLS,WVMO118534,N,Y,39.5873696,-78.2705755
PAST SALE,,Single Family Residential,30 BLACKWOOD ST,BERKELEY SPRINGS,WV,25411,194700,3,2.0,,1350,8973,2017,,144,,,,,https://www.redfin.com/WV/BERKELEY-SPRINGS/30-BLACKWOOD-ST-25411/home/23317635,,,N,Y,39.621741,-78.226312
PAST SALE,August-13-2021,Single Family Residential,406 Apple Orchard Cir,Berkeley Springs,WV,25411,246000,3,2.0,APPLE ORCHARD ACRES,1930,54450,2003,114,127,,Sold,,,https://www.redfin.com/WV/Berkeley-Springs/406-Apple-Orchard-Cir-25411/home/15956773,BRIGHT MLS,WVMO118656,N,Y,39.5460499,-78.2631655
PAST SALE,August-6-2021,Single Family Residential,236 John St,Berkeley Springs,WV,25411,202500,5,2.0,BERKELEY SPRINGS,,14375,2020,121,,,Sold,,,https://www.redfin.com/WV/Berkeley-Springs/236-John-St-25411/home/15959888,BRIGHT MLS,WVMO118412,N,Y,39.6176857,-78.2354292
PAST SALE,August-9-2021,Single Family Residential,819 Cannon Dr,Berkeley Springs,WV,25411,491000,4,3.0,HARDWOOD HILLS,2303,218235,2008,118,213,13,Sold,,,https://www.redfin.com/WV/PAW-PAW/819-CANNON-DR-25434/home/21971035,BRIGHT MLS,WVMO118590,N,Y,39.548331,-78.255033
PAST SALE,,Vacant Land,S MTNSIDE RD,BERKELEY SPRINGS,WV,25411,137500,,,,,26928,,,,,,,,https://www.redfin.com/WV/BERKELEY-SPRINGS/S-MTNSIDE-RD-25411/home/23319916,,,N,Y,39.579873,-78.273807
PAST SALE,,Vacant Land,OFF ROUTE 9,BERKELEY SPRINGS,WV,25411,16000,,,,,202990,,,,,,,,https://www.redfin.com/WV/BERKELEY-SPRINGS/OFF-ROUTE-9-25411/home/23316579,,,N,Y,39.619003,-78.238447
PAST SALE,November-12-2021,Single Family Residential,9988 Winchester Grade Rd,Berkeley Springs,WV,25411,175000,4,1.0,Berkeley Springs,1656,541886,1745,23,106,,Sold,,,https://www.redfin.com/WV/Berkeley-Springs/9988-Winchester-Grade-Rd-25411/home/15956165,BRIGHT MLS,WVMO2000558,N,Y,39.468799,-78.226709
PAST SALE,October-26-2020,Vacant Land,35 Montevideo,Berkeley Springs,WV,25411,65000,,,CACAPON SOUTH,,176418,,405,,25,Sold,,,https://www.redfin.com/WV/1/35-Montevideo-Rd-25411/home/172769752,BRIGHT MLS,WVMO117286,N,Y,39.49591892,-78.28391782
PAST SALE,,Other,264 Cold Run Valley Rd,Berkeley Springs,WV,25411,6250,,,,,116305,,,,,,,,https://www.redfin.com/WV/Berkeley-Springs/264-Cold-Run-Valley-Rd-25411/home/23316575,,,N,Y,39.621094,-78.240844
PAST SALE,,Vacant Land,OFF ROUTE 9,BERKELEY SPRINGS,WV,25411,48800,,,,,425146,,,,,,,,https://www.redfin.com/WV/BERKELEY-SPRINGS/OFF-ROUTE-9-25411/home/23317146,,,N,Y,39.615287,-78.207229
PAST SALE,June-12-2020,Vacant Land,US 522 Valley Rd,Berkeley Springs,WV,25411,4000,,,Berkeley Springs,,30492,,541,,,Sold,,,https://www.redfin.com/WV/Berkeley-Springs/US-522-Valley-RD-25411/home/164806475,BRIGHT MLS,WVMO108546,N,Y,39.56470517,-78.26357698
PAST SALE,,Vacant Land,ROUTE 522,BERKELEY SPRINGS,WV,25411,240000,,,,,129103,,,,,,,,https://www.redfin.com/WV/BERKELEY-SPRINGS/ROUTE-522-25411/home/23316497,,,N,Y,39.596675,-78.242672
PAST SALE,October-22-2019,Single Family Residential,325 Fairfax St,Berkeley Springs,WV,25411,149000,3,1.5,DENT HILL,2120,79279,1953,775,70,,Sold,,,https://www.redfin.com/WV/Berkeley-Springs/325-Fairfax-St-25411/home/23315567,BRIGHT MLS,WVMO115604,N,Y,39.62446,-78.223098
PAST SALE,March-29-2019,Single Family Residential,397 Treeline Rd,Berkeley Springs,WV,25411,174900,3,2.5,MONTE VISTA,3071,233482,1990,982,57,17,Sold,,,https://www.redfin.com/WV/Berkeley-Springs/23-Treeline-Ln-25411/home/15959900,BRIGHT MLS,WVMO100004,N,Y,39.5812645,-78.2382952
PAST SALE,July-8-2020,Single Family Residential,257 Cold Run Valley Rd,Berkeley Springs,WV,25411,280000,3,3.5,BERKELEY SPRINGS,3424,496584,1975,515,82,,Sold,,,https://www.redfin.com/WV/Berkeley-Springs/257-Cold-Run-Valley-Rd-25411/home/15960300,BRIGHT MLS,WVMO116022,N,Y,39.621041,-78.238621
PAST SALE,March-4-2019,Single Family Residential,4035 Spohrs Rd,Berkeley Springs,WV,25411,35500,1,1.0,Berkeley Springs,792,43560,1976,1007,45,,Sold,,,https://www.redfin.com/WV/Berkeley-Springs/4035-Spohrs-Rd-25411/home/15961099,BRIGHT MLS,WVMO108566,N,Y,39.59027,-78.183858
PAST SALE,October-12-2020,Vacant Land,Lot 30 Parkside Dr,Berkeley Springs,WV,25411,22400,,,CACAPON EAST,,132858,,419,,31,Sold,,,https://www.redfin.com/WV/2/Lot-30-Parkside-Dr-25411/home/172968598,BRIGHT MLS,WVMO117046,N,Y,39.53435679,-78.30060377
PAST SALE,,Vacant Land,ROUTE 9,BERKELEY SPRINGS,WV,25411,248400,,,,,73616,,,,,,,,https://www.redfin.com/WV/BERKELEY-SPRINGS/ROUTE-9-25411/home/23314037,,,N,Y,39.634199,-78.139822
PAST SALE,,Vacant Land,640 Mallard Creek Ln,Berkeley Springs,WV,25411,14000,,,,,210830,,,,,,,,https://www.redfin.com/WV/Berkeley-Springs/640-Mallard-Creek-Ln-25411/home/23314884,,,N,Y,39.562576,-78.191754
PAST SALE,October-26-2021,Single Family Residential,405 Hope Acres Dr,Berkeley Springs,WV,25411,218044,2,2.0,NEW HOPE ACRES,1344,136342,1988,40,162,17,Sold,,,https://www.redfin.com/WV/Berkeley-Springs/405-Hope-Acres-Dr-25411/home/176155791,BRIGHT MLS,WVMO2000356,N,Y,39.5919056,-78.1593686
PAST SALE,,Single Family Residential,RUSH LN Unit MORE,BERKELEY SPRINGS,WV,25411,181667,2,1.0,,960,26160,1987,,189,,,,,https://www.redfin.com/WV/BERKELEY-SPRINGS/RUSH-LN-25411/unit-MORE/home/15955977,,,N,Y,39.580063,-78.271313
PAST SALE,October-23-2020,Single Family Residential,199 Hull Dr,Berkeley Springs,WV,25411,200000,4,2.5,SPRING VALLEY,2640,83635,1987,408,76,27,Sold,,,https://www.redfin.com/WV/Berkeley-Springs/2-Hull-Dr-25411/home/148339294,BRIGHT MLS,WVMO117104,N,Y,39.5859432,-78.2256924
PAST SALE,May-11-2021,Vacant Land,269 Mountain Laurel Dr,Berkeley Springs,WV,25411,115000,,,Berkeley Springs,,162914,,208,,19,Sold,,,https://www.redfin.com/WV/Berkeley-Springs/269-Mountain-Laurel-Dr-25411/home/174918029,BRIGHT MLS,WVMO118306,N,Y,39.4704368,-78.2444885
PAST SALE,,Single Family Residential,OFF ROUTE 15/1,BERKELEY SPRINGS,WV,25411,200000,4,2.5,,2440,83635,1987,,82,,,,,https://www.redfin.com/WV/BERKELEY-SPRINGS/OFF-ROUTE-15-1-25411/home/15959351,,,N,Y,39.58901,-78.224596
PAST SALE,,Vacant Land,3D FAIRVIEW DR,BERKELEY SPRINGS,WV,25411,26000,,,,,44431,,,,,,,,https://www.redfin.com/WV/BERKELEY-SPRINGS/3D-FAIRVIEW-DR-25411/home/23313621,,,N,Y,39.645288,-78.193503
PAST SALE,May-26-2021,Vacant Land,Allemong Rd,Berkeley Springs,WV,25411,15000,,,SLEEPY CREEK HIDE-A-WAY,,56628,,193,,8,Sold,,,https://www.redfin.com/WV/Berkeley-Springs/Allemong-Rd-25411/home/145976229,BRIGHT MLS,WVMO117162,N,Y,39.50086,-78.27984
PAST SALE,,Vacant Land,PHOEBE LN,BERKELEY SPRINGS,WV,25411,39000,,,,,118745,,,,,,,,https://www.redfin.com/WV/BERKELEY-SPRINGS/PHOEBE-LN-25411/home/23313522,,,N,Y,39.496354,-78.281254
PAST SALE,,Vacant Land,OFF ROUTE 522,BERKELEY SPRINGS,WV,25411,80000,,,,,1055459,,,,,,,,https://www.redfin.com/WV/BERKELEY-SPRINGS/OFF-ROUTE-522-25411/home/23313504,,,N,Y,39.45973,-78.332059
PAST SALE,,Single Family Residential,56 Rumsey Ln,Berkeley Springs,WV,25411,116667,3,1.5,,1396,17860,1955,,84,,,,,https://www.redfin.com/WV/Berkeley-Springs/56-Rumsey-Ln-25411/home/15960263,,,N,Y,39.599745,-78.2429644
PAST SALE,,Vacant Land,MAHNES CHURCH LN,BERKELEY SPRINGS,WV,25411,17500,,,,,100188,,,,,,,,https://www.redfin.com/WV/BERKELEY-SPRINGS/MAHNES-CHURCH-LN-25411/home/23313949,,,N,Y,39.665277,-78.14845
PAST SALE,,Vacant Land,OFF ROUTE 1,HEDGESVILLE,WV,25427,16000,,,,,94046,,,,,,,,https://www.redfin.com/WV/HEDGESVILLE/OFF-ROUTE-1-25427/home/23325565,,,N,Y,39.664061,-78.091338
PAST SALE,November-12-2021,Single Family Residential,62 Johnsons Mill Rd,Berkeley Springs,WV,25411,110000,4,3.0,Berkeley Springs,1849,8276,1907,23,59,,Sold,,,https://www.redfin.com/WV/Berkeley-Springs/62-Johnsons-Mill-Rd-25411/home/147270193,BRIGHT MLS,WVMO118584,N,Y,39.6206488,-78.229035
PAST SALE,,Vacant Land,DEERWOOD DR,BERKELEY SPRINGS,WV,25411,31250,,,,,152068,,,,,,,,https://www.redfin.com/WV/BERKELEY-SPRINGS/DEERWOOD-DR-25411/home/23312498,,,N,Y,39.422912,-78.243012
PAST SALE,,Vacant Land,HOLLYBUSH LN,BERKELEY SPRINGS,WV,25411,15000,,,,,109336,,,,,,,,https://www.redfin.com/WV/BERKELEY-SPRINGS/HOLLYBUSH-LN-25411/home/23312492,,,N,Y,39.417184,-78.244922
PAST SALE,,Vacant Land,OFF ROUTE 1,HEDGESVILLE,WV,25427,27500,,,,,298473,,,,,,,,https://www.redfin.com/WV/HEDGESVILLE/OFF-ROUTE-1-25427/home/23325569,,,N,Y,39.661597,-78.091398
PAST SALE,,Vacant Land,UPLAND TRL,BERKELEY SPRINGS,WV,25411,25500,,,,,291852,,,,,,,,https://www.redfin.com/WV/BERKELEY-SPRINGS/UPLAND-TRL-25411/home/23312489,,,N,Y,39.494954,-78.203611
PAST SALE,,Vacant Land,ARDELL ACRES,BERKELEY SPRINGS,WV,25411,41667,,,,,88209,,,,,,,,https://www.redfin.com/WV/BERKELEY-SPRINGS/ARDELL-ACRES-25411/home/23312480,,,N,Y,39.526579,-78.213718
PAST SALE,,Single Family Residential,208 N Washington St,Berkeley Springs,WV,25411,235000,5,3.0,,2995,,1902,,78,,,,,https://www.redfin.com/WV/Berkeley-Springs/208-N-Washington-St-25411/home/15959285,,,N,Y,39.6281282,-78.2265219
PAST SALE,,Vacant Land,KESECKER KNL,BERKELEY SPRINGS,WV,25411,25000,,,,,100232,,,,,,,,https://www.redfin.com/WV/BERKELEY-SPRINGS/KESECKER-KNL-25411/home/143750523,,,N,Y,39.599414,-78.202059
PAST SALE,,Vacant Land,OFF ROUTE 522,BERKELEY SPRINGS,WV,25411,68000,,,,,871200,,,,,,,,https://www.redfin.com/WV/BERKELEY-SPRINGS/OFF-ROUTE-522-25411/home/23312451,,,N,Y,39.457813,-78.319995
PAST SALE,,Vacant Land,TIMBER RIDGE RD,BERKELEY SPRINGS,WV,25411,35000,,,,,216685,,,,,,,,https://www.redfin.com/WV/BERKELEY-SPRINGS/TIMBER-RIDGE-RD-25411/home/23312443,,,N,Y,39.450048,-78.280482
PAST SALE,November-18-2019,Single Family Residential,168 Tall Pines Ln,Berkeley Springs,WV,25411,272000,4,2.0,TALL PINES,2840,131115,1994,748,96,6,Sold,,,https://www.redfin.com/WV/Berkeley-Springs/168-Tall-Pines-Ln-25411/home/15961081,BRIGHT MLS,WVMO115386,N,Y,39.5877155,-78.1623664
PAST SALE,May-17-2021,Vacant Land,Big Sky Ln,Berkeley Springs,WV,25411,20000,,,Berkeley Springs,,130680,,202,,,Sold,,,https://www.redfin.com/WV/BERKELEY-SPRINGS/WV-ROUTE-28-1-25411/home/23312369,BRIGHT MLS,WVMO116644,N,Y,39.525079,-78.270203
PAST SALE,December-30-2020,Vacant Land,Barnes Ln,Berkeley Springs,WV,25411,78000,,,Berkeley Springs,,250906,,340,,,Sold,,,https://www.redfin.com/WV/2/Barnes-Ln-25411/home/53107800,BRIGHT MLS,WVMO117734,N,Y,39.50449639,-78.20483196
PAST SALE,,Vacant Land,WHITE PINE DR,BERKELEY SPRINGS,WV,25411,12800,,,,,172062,,,,,,,,https://www.redfin.com/WV/BERKELEY-SPRINGS/WHITE-PINE-DR-25411/home/23312332,,,N,Y,39.399217,-78.23227
PAST SALE,June-11-2021,Single Family Residential,780 Shanghai Rd,Berkeley Springs,WV,25411,650000,3,2.5,Berkeley Springs,2284,609840,2007,177,285,,Sold,,,https://www.redfin.com/WV/Berkeley-Springs/780-Shanghai-Rd-25411/home/109669477,BRIGHT MLS,WVMO118370,N,Y,39.4399797,-78.2212722
PAST SALE,August-23-2021,Single Family Residential,346 Over The Hill Ln,Berkeley Springs,WV,25411,100000,2,1.0,SLEEPY RIDGE,650,220849,1979,104,154,,Sold,,,https://www.redfin.com/WV/Berkeley-Springs/346-Over-The-Hill-Ln-25411/home/175744974,BRIGHT MLS,WVMO2000190,N,Y,39.476349,-78.205473
PAST SALE,October-13-2021,Single Family Residential,155 Park Place Ln,Berkeley Springs,WV,25411,329000,3,2.0,THE PINES,2592,81457,1987,53,127,,Sold,,,https://www.redfin.com/WV/Berkeley-Springs/155-Park-Pl-Ln-25411/home/15956998,BRIGHT MLS,WVMO2000048,N,Y,39.502396,-78.2889228
PAST SALE,October-29-2021,Single Family Residential,4581 Spohrs Rd,Berkeley Springs,WV,25411,805000,5,4.0,KENTISH DOWNS,4368,583704,2007,37,184,,Sold,,,https://www.redfin.com/WV/Berkeley-Springs/4581-Spohrs-Rd-25411/home/175596937,BRIGHT MLS,WVMO2000060,N,Y,39.5831154,-78.1857903
PAST SALE,,Vacant Land,OFF ROUTE 28,BERKELEY SPRINGS,WV,25411,35568,,,,,44261,,,,,,,,https://www.redfin.com/WV/BERKELEY-SPRINGS/OFF-ROUTE-28-25411/home/23312342,,,N,Y,39.493225,-78.288598
PAST SALE,,Single Family Residential,71 KAYALA ALEXA LN,BERKELEY SPRINGS,WV,25411,234000,3,2.0,,1452,98010,2019,,161,,,,,https://www.redfin.com/WV/BERKELEY-SPRINGS/71-KAYALA-ALEXA-LN-25411/home/23311708,,,N,Y,39.551248,-78.272795
PAST SALE,September-16-2021,Vacant Land,466 Dominion Trl,Berkeley Springs,WV,25411,99000,,,Berkeley Springs,,700445,,80,,8,Sold,,,https://www.redfin.com/WV/Unknown/466-Dominion-Trl-25411/home/175831232,BRIGHT MLS,WVMO2000008,N,Y,39.53632359,-78.28345076
PAST SALE,September-18-2020,Single Family Residential,11600 Valley Rd,Berkeley Springs,WV,25411,729000,3,3.5,Berkeley Springs,5700,1416571,2005,443,128,,Sold,,,https://www.redfin.com/WV/Berkeley-Springs/11600-Valley-Rd-25411/home/23309772,BRIGHT MLS,WVMO116764,N,Y,39.4700153,-78.3077561
PAST SALE,,Vacant Land,CONCORD AVE,BERKELEY SPRINGS,WV,25411,11000,,,,,6299,,,,,,,,https://www.redfin.com/WV/BERKELEY-SPRINGS/CONCORD-AVE-25411/home/23310531,,,N,Y,39.615423,-78.234492
PAST SALE,October-14-2021,Single Family Residential,928 Ruppenthal Rd,Berkeley Springs,WV,25411,215000,3,2.5,Berkeley Springs,1152,136342,1983,52,187,,Sold,,,https://www.redfin.com/WV/Berkeley-Springs/928-Ruppenthal-Rd-25411/home/55727626,BRIGHT MLS,WVMO2000310,N,Y,39.5434651,-78.1838917
PAST SALE,October-1-2021,Single Family Residential,46 Sherrill Ln,Berkeley Springs,WV,25411,460000,4,3.5,Berkeley Springs,2324,102802,1920,65,198,,Sold,,,https://www.redfin.com/WV/BERKELEY-SPRINGS/46-SHERRILL-LN-25411/home/15960380,BRIGHT MLS,WVMO2000094,N,Y,39.638821,-78.214091
PAST SALE,,Single Family Residential,90 Skywood Ct,Berkeley Springs,WV,25411,237500,3,2.0,,1668,165310,2000,,142,,,,,https://www.redfin.com/WV/Berkeley-Springs/90-Skywood-Ct-25411/home/15960400,,,N,Y,39.6481316,-78.1886159
PAST SALE,August-18-2021,Single Family Residential,299 Whissen Ln,Berkeley Springs,WV,25411,285000,3,3.0,DRY RUN ACRES,2254,148540,2005,109,126,17,Sold,,,https://www.redfin.com/WV/BERKELEY-SPRINGS/299-WHISSEN-LN-25411/home/15960389,BRIGHT MLS,WVMO118616,N,Y,39.645285,-78.187598
PAST SALE,,Vacant Land,PARKSIDE DR,BERKELEY SPRINGS,WV,25411,22400,,,,,132858,,,,,,,,https://www.redfin.com/WV/BERKELEY-SPRINGS/PARKSIDE-DR-25411/home/23319570,,,N,Y,39.535944,-78.29873
PAST SALE,,Vacant Land,DRY RUN LN,BERKELEY SPRINGS,WV,25411,237500,,,,,98663,,,,,,,,https://www.redfin.com/WV/BERKELEY-SPRINGS/DRY-RUN-LN-25411/home/23314762,,,N,Y,39.649123,-78.189153
PAST SALE,,Vacant Land,WHISSEN LN,BERKELEY SPRINGS,WV,25411,237500,,,,,146274,,,,,,,,https://www.redfin.com/WV/BERKELEY-SPRINGS/WHISSEN-LN-25411/home/23315521,,,N,Y,39.646891,-78.188832
PAST SALE,,Single Family Residential,MOUNTAIN SIDE RD,BERKELEY SPRINGS,WV,25411,141667,3,2.0,,1680,34412,1988,,84,,,,,https://www.redfin.com/WV/BERKELEY-SPRINGS/MOUNTAIN-SIDE-RD-25411/home/15956426,,,N,Y,39.587725,-78.26627
PAST SALE,,Single Family Residential,103 Skywood Ct,Berkeley Springs,WV,25411,237500,3,3.0,,1752,88862,2002,,136,,,,,https://www.redfin.com/WV/Berkeley-Springs/103-Skywood-Ct-25411/home/15960402,,,N,Y,39.6488025,-78.188371
PAST SALE,August-23-2019,Single Family Residential,56 Kesecker Knoll Ln,Berkeley Springs,WV,25411,234900,3,2.0,KESECKER KNOLL,1620,90604,2012,835,145,25,Sold,,,https://www.redfin.com/WV/BERKELEY-SPRINGS/56-KESECKER-KNLS-25411/home/23310575,BRIGHT MLS,WVMO115722,N,Y,39.597038,-78.204379
PAST SALE,,Single Family Residential,83 Christmas Tree Ln,Berkeley Springs,WV,25411,90700,4,1.5,,2272,196456,1886,,40,,,,,https://www.redfin.com/WV/Berkeley-Springs/83-Christmas-Tree-Ln-25411/home/15957408,,,N,Y,39.5422166,-78.1960955
PAST SALE,,Single Family Residential,141 Dry Run Ln,Berkeley Springs,WV,25411,237500,4,2.0,,1827,149106,1992,,130,,,,,https://www.redfin.com/WV/Berkeley-Springs/141-Dry-Run-Ln-25411/home/15960404,,,N,Y,39.6496426,-78.1897735
PAST SALE,August-14-2020,Vacant Land,Happy Valley Ln,Berkeley Springs,WV,25411,18000,,,Berkeley Springs,,157687,,478,,,Sold,,,https://www.redfin.com/WV/2/Happy-Valley-Ln-25411/home/45445743,BRIGHT MLS,WVMO115656,N,Y,39.56130118,-78.28592588
PAST SALE,June-21-2019,Single Family Residential,185 Grape Hl,Berkeley Springs,WV,25411,284000,3,3.0,Berkeley Springs,3337,131551,2006,898,85,,Sold,,,https://www.redfin.com/WV/Berkeley-Springs/105-Grape-Hill-Dr-25411/home/15953885,BRIGHT MLS,WVMO115280,N,Y,39.664287,-78.125215
PAST SALE,July-16-2021,Vacant Land,Haven Pl,Berkeley Springs,WV,25411,28000,,,NEW HOPE ACRES,,141134,,142,,17,Sold,,,https://www.redfin.com/WV/BERKELEY-SPRINGS/OFF-WV-ROUTE-8-1-25411/home/23309700,BRIGHT MLS,WVMO118522,N,Y,39.591489,-78.150406
PAST SALE,,Mobile/Manufactured Home,OFF ROUTE 9,BERKELEY SPRINGS,WV,25411,170000,3,2.0,,1440,87120,1987,,118,,,,,https://www.redfin.com/WV/BERKELEY-SPRINGS/OFF-ROUTE-9-25411/home/15961946,,,N,Y,39.646204,-78.133013
PAST SALE,March-29-2019,Single Family Residential,104 Tabor Rd,Berkeley Springs,WV,25411,200000,3,2.5,APPLE ORCHARD ACRES,2760,119354,1974,982,72,,Sold,,,https://www.redfin.com/WV/Berkeley-Springs/104-Tabor-Rd-25411/home/15957720,BRIGHT MLS,1007236808,N,Y,39.5416672,-78.2705953
PAST SALE,July-15-2019,Single Family Residential,173 Duckpond Dr,Berkeley Springs,WV,25411,92000,3,1.5,Berkeley Springs,1104,119354,1973,874,83,,Sold,,,https://www.redfin.com/WV/Berkeley-Springs/173-Duckpond-Dr-25411/home/15955542,BRIGHT MLS,WVMO115450,N,Y,39.477924,-78.2992826
PAST SALE,July-17-2020,Vacant Land,Winchester Grade,Berkeley Springs,WV,25411,26500,,,DERBYFIELD,,87120,,506,,,Sold,,,https://www.redfin.com/WV/2/Winchester-Grade-Rd-25411/home/113161974,BRIGHT MLS,WVMO116856,N,Y,39.58152,-78.22567
PAST SALE,,Single Family Residential,65 DEHAVEN RD,BERKELEY SPRINGS,WV,25411,237500,3,2.0,,1597,133294,2006,,149,,,,,https://www.redfin.com/WV/BERKELEY-SPRINGS/65-DEHAVEN-RD-25411/home/15960407,,,N,Y,39.647914,-78.193107
PAST SALE,July-16-2019,Single Family Residential,358 Ridge View Dr,Berkeley Springs,WV,25411,310000,3,3.0,RIDGE VIEW,3404,75358,2001,873,91,56,Sold,,,https://www.redfin.com/WV/Berkeley-Springs/358-Ridge-View-Dr-25411/home/15954978,BRIGHT MLS,WVMO115256,N,Y,39.6432178,-78.1913095
PAST SALE,,Single Family Residential,3933 Highland Ridge Rd,Berkeley Springs,WV,25411,54167,4,2.0,,1532,365468,1980,,35,,,,,https://www.redfin.com/WV/Berkeley-Springs/3933-Highland-Ridge-Rd-25411/home/39741777,,,N,Y,39.5450685,-78.1933876
PAST SALE,,Vacant Land,ROUTE 8/5,BERKELEY SPRINGS,WV,25411,29900,,,,,331056,,,,,,,,https://www.redfin.com/WV/BERKELEY-SPRINGS/ROUTE-8-5-25411/home/109670076,,,N,Y,39.460225,-78.219287
PAST SALE,,Vacant Land,ROCKCLIFF DR,BERKELEY SPRINGS,WV,25411,10200,,,,,98881,,,,,,,,https://www.redfin.com/WV/BERKELEY-SPRINGS/ROCKCLIFF-DR-25411/home/23323400,,,N,Y,39.472643,-78.288403
PAST SALE,October-30-2020,Vacant Land,Waugh Rd,Berkeley Springs,WV,25411,50000,,,Berkeley Springs,,268329,,401,,,Sold,,,https://www.redfin.com/WV/2/Waugh-Rd-25411/home/143219323,BRIGHT MLS,WVMO115606,N,Y,39.58152,-78.22567
PAST SALE,November-8-2019,Single Family Residential,7225 Martinsburg Rd,Berkeley Springs,WV,25411,155900,3,1.0,Berkeley Springs,1120,16117,1970,758,139,,Sold,,,https://www.redfin.com/WV/Berkeley-Springs/7225-Martinsburg-Rd-25411/home/15954564,BRIGHT MLS,WVMO115284,N,Y,39.6373058,-78.1206074
PAST SALE,February-16-2021,Single Family Residential,835 Fairview Dr,Berkeley Springs,WV,25411,210000,3,2.0,Berkeley Springs,1100,20473,2020,292,191,,Sold,,,https://www.redfin.com/WV/Berkeley-Springs/835-Fairview-Dr-25411/home/23318016,BRIGHT MLS,WVMO117726,N,Y,39.635235,-78.204877
PAST SALE,July-1-2021,Single Family Residential,130 Turkey Ridge Ln,Berkeley Springs,WV,25411,205000,2,1.0,TURKEY RIDGE,1176,217800,1978,157,174,4,Sold,,,https://www.redfin.com/WV/Berkeley-Springs/130-Turkey-Ridge-Ln-25411/home/15957282,BRIGHT MLS,WVMO118538,N,Y,39.4827355,-78.2558101
PAST SALE,,Single Family Residential,384 BENNETT LN,BERKELEY SPRINGS,WV,25411,185000,3,2.0,,1512,136430,1998,,122,,,,,https://www.redfin.com/WV/BERKELEY-SPRINGS/384-BENNETT-LN-25411/home/15960145,,,N,Y,39.635849,-78.243567
PAST SALE,,Single Family Residential,2 N Laurel Ave Unit ABE,Berkeley Springs,WV,25411,90000,3,2.0,,2157,35589,1947,,42,,,,,https://www.redfin.com/WV/Berkeley-Springs/2-N-Laurel-Ave-25411/unit-ABE/home/15960550,,,N,Y,39.6324095,-78.2191543
PAST SALE,,Single Family Residential,MEDFORD LN,BERKELEY SPRINGS,WV,25411,499167,3,3.5,,2520,219891,2001,,198,,,,,https://www.redfin.com/WV/BERKELEY-SPRINGS/MEDFORD-LN-25411/home/15954490,,,N,Y,39.491528,-78.27731
PAST SALE,,Vacant Land,ROUTE 9/10,BERKELEY SPRINGS,WV,25411,7256,,,,,92173,,,,,,,,https://www.redfin.com/WV/BERKELEY-SPRINGS/ROUTE-9-10-25411/home/23316566,,,N,Y,39.618565,-78.242352
PAST SALE,October-22-2019,Vacant Land,10 Silage Ln,Berkeley Springs,WV,25411,10000,,,SILO ACRES,,87556,,775,,,Sold,,,https://www.redfin.com/WV/Berkeley-Springs/10-Silage-Ln-25411/home/54782717,BRIGHT MLS,1000167709,N,Y,39.5853699,-78.207249
PAST SALE,January-9-2020,Vacant Land,0 Mccoy Rd,Berkeley Springs,WV,25411,36000,,,MORGAN COUNTY,,435600,,696,,,Sold,,,https://www.redfin.com/WV/2/McCoy-Rd-25411/home/22017791,BRIGHT MLS,WVMO116328,N,Y,39.541415,-78.25274
PAST SALE,,Vacant Land,ROUTE 38/3,BERKELEY SPRINGS,WV,25411,13000,,,,,20038,,,,,,,,https://www.redfin.com/WV/BERKELEY-SPRINGS/ROUTE-38-3-25411/home/23309805,,,N,Y,39.612366,-78.224382
PAST SALE,March-18-2021,Single Family Residential,179 Old Farm Ln,Berkeley Springs,WV,25411,205500,3,1.0,DOGWOOD RIDGE,1170,349787,2001,262,176,,Sold,,,https://www.redfin.com/WV/Berkeley-Springs/179-Old-Farm-Ln-25411/home/15961814,BRIGHT MLS,WVMO117558,N,Y,39.669345,-78.142569
PAST SALE,June-18-2019,Vacant Land,Harmison Dr,Berkeley Springs,WV,25411,49900,,,Berkeley Springs,,327135,,901,,,Sold,,,https://www.redfin.com/WV/Berkeley-Springs/16-Camp-Harmison-Dr-25411/home/170501370,BRIGHT MLS,WVMO115418,N,Y,39.6330268,-78.1468446
PAST SALE,,Vacant Land,WINCHESTER GRADE RD,BERKELEY SPRINGS,WV,25411,26500,,,,,87120,,,,,,,,https://www.redfin.com/WV/BERKELEY-SPRINGS/WINCHESTER-GRADE-RD-25411/home/23325537,,,N,Y,39.49712,-78.21834
PAST SALE,,Vacant Land,2 S Washington St,Berkeley Springs,WV,25411,24167,,,,,213444,,,,,,,,https://www.redfin.com/WV/Berkeley-Springs/2-S-Washington-St-25411/home/23323492,,,N,Y,39.6268388,-78.2282304
PAST SALE,,Mobile/Manufactured Home,ROUTE 28/2,BERKELEY SPRINGS,WV,25411,70833,,,,,218236,,,,,,,,https://www.redfin.com/WV/BERKELEY-SPRINGS/ROUTE-28-2-25411/home/15956132,,,N,Y,39.469156,-78.275453
PAST SALE,August-14-2020,Vacant Land,0 Breakthrough Way,Berkeley Springs,WV,25411,68000,,,MORGANS RIDGE,,871200,,478,,30,Sold,,,https://www.redfin.com/WV/1/Breakthrough-Way-25411/home/145955567,BRIGHT MLS,WVMO115750,N,Y,39.45934552,-78.32006503
PAST SALE,August-31-2021,Single Family Residential,42 Indian Run Ln,Berkeley Springs,WV,25411,230000,3,2.0,CACAPON SOUTH,1204,33541,2007,96,191,27,Sold,,,https://www.redfin.com/WV/1/Indian-Run-Ln-25411/home/147066320,BRIGHT MLS,WVMO2000020,N,Y,39.4976433,-78.2897396
PAST SALE,,Single Family Residential,34 Garden Dr,Berkeley Springs,WV,25411,197000,2,2.0,,1228,4225,1999,,160,,,,,https://www.redfin.com/WV/Berkeley-Springs/34-Garden-Dr-25411/home/15955061,,,N,Y,39.6078809,-78.2389448
PAST SALE,,Vacant Land,WV HWY 38/9,BERKELEY SPRINGS,WV,25411,98000,,,,,871636,,,,,,,,https://www.redfin.com/WV/BERKELEY-SPRINGS/WV-HWY-38-9-25411/home/168396169,,,N,Y,39.508553,-78.280141
PAST SALE,,Vacant Land,ROUTE 4,BERKELEY SPRINGS,WV,25411,31500,,,,,435600,,,,,,,,https://www.redfin.com/WV/BERKELEY-SPRINGS/ROUTE-4-25411/home/23309769,,,N,Y,39.640997,-78.186203
PAST SALE,September-16-2019,Single Family Residential,4144 Cold Run Valley Rd,Berkeley Springs,WV,25411,154000,4,2.0,COOLFONT,1550,43560,1950,811,99,,Sold,,,https://www.redfin.com/WV/Berkeley-Springs/4144-Cold-Run-Valley-Rd-25411/home/15956933,BRIGHT MLS,WVMO114288,N,Y,39.572791,-78.272946
