SALE TYPE,SOLD DATE,PROPERTY TYPE,ADDRESS,CITY,STATE OR PROVINCE,ZIP OR POSTAL CODE,PRICE,BEDS,BATHS,LOCATION,SQUARE FEET,LOT SIZE,YEAR BUILT,DAYS ON MARKET,$/SQUARE FEET,HOA/MONTH,STATUS,NEXT OPEN HOUSE START TIME,NEXT OPEN HOUSE END TIME,URL (SEE https://www.redfin.com/buy-a-home/comparative-market-analysis FOR INFO ON PRICING),SOURCE,MLS#,FAVORITE,INTERESTED,LATITUDE,LONGITUDE
PAST SALE,March-3-2021,Single Family Residential,18995 Hodges Ln,Leonardtown,MD,20650,400000,4,2.0,HERRING CREEK ESTATES,1500,23600,1973,277,267,,Sold,,,https://www.redfin.com/MD/Leonardtown/18995-Hodges-Ln-20650/home/15325658,BRIGHT MLS,MDSM172910,N,Y,38.1892006,-76.542343
PAST SALE,May-27-2021,Single Family Residential,22626 Chickadee Ln,Leonardtown,MD,20650,560000,4,3.5,AVENMAR,2950,87120,2002,192,190,150,Sold,,,https://www.redfin.com/MD/Leonardtown/22626-Chickadee-Ln-20650/home/15320302,BRIGHT MLS,MDSM175592,N,Y,38.2888262,-76.6646959
PAST SALE,March-6-2020,Single Family Residential,43005 Heritage Dr,Leonardtown,MD,20650,432500,5,3.5,LEONARDTOWN FARM,3668,37255,2011,639,118,25,Sold,,,https://www.redfin.com/MD/Leonardtown/43005-Heritage-Dr-20650/home/16850193,BRIGHT MLS,MDSM165060,N,Y,38.253272,-76.5873883
PAST SALE,August-25-2021,Single Family Residential,21435 Little Saint Annes Ln,Leonardtown,MD,20650,450000,4,3.5,LITTLE ST ANNES,2754,128938,1980,102,163,,Sold,,,https://www.redfin.com/MD/Leonardtown/21435-Little-St-Annes-Ln-20650/home/15321368,BRIGHT MLS,MDSM2000650,N,Y,38.2558915,-76.6229533
PAST SALE,April-30-2020,Single Family Residential,21130 Someday Farm Ln,Leonardtown,MD,20650,625000,4,2.5,SCHUMACHER SUBD.,3194,482645,2011,584,196,,Sold,,,https://www.redfin.com/MD/Leonardtown/21130-Someday-Farm-Ln-20650/home/44643638,BRIGHT MLS,MDSM165956,N,Y,38.2479261,-76.5449286
PAST SALE,January-18-2019,Single Family Residential,41660 Matthew Ct,Leonardtown,MD,20650,320000,4,2.5,ESTATES AT SINGLETREE,1972,13432,2005,1052,162,27,Sold,,,https://www.redfin.com/MD/Leonardtown/41660-Matthew-Ct-20650/home/15297167,BRIGHT MLS,1009991700,N,Y,38.3048417,-76.6352695
PAST SALE,April-30-2019,Single Family Residential,22093 Philip Dr,Leonardtown,MD,20650,499000,4,3.5,PROSPECT HILL,3831,50094,1990,950,130,,Sold,,,https://www.redfin.com/MD/Leonardtown/22093-Philip-Dr-20650/home/15320996,BRIGHT MLS,MDSM157760,N,Y,38.2747112,-76.6500663
PAST SALE,October-8-2021,Single Family Residential,23689 Belmar Dr,Leonardtown,MD,20650,525000,5,3.5,LEONARD'S GRANT,3683,9100,2013,58,143,75,Sold,,,https://www.redfin.com/MD/Leonardtown/23689-Belmar-Dr-20650/home/23446804,BRIGHT MLS,MDSM2001090,N,Y,38.3169148,-76.643457
PAST SALE,January-10-2020,Single Family Residential,23630 Hansel Ct,Leonardtown,MD,20650,460000,5,3.5,LEONARD'S GRANT,4765,16756,2010,695,97,55,Sold,,,https://www.redfin.com/MD/Leonardtown/23630-Hansel-Ct-20650/home/23450891,BRIGHT MLS,MDSM165860,N,Y,38.31682,-76.6416353
PAST SALE,October-30-2020,Single Family Residential,21145 Autumn Ct,Leonardtown,MD,20650,301000,3,3.0,REDGATE,1722,28314,1993,401,175,,Sold,,,https://www.redfin.com/MD/Leonardtown/21145-Autumn-Ct-20650/home/15320082,BRIGHT MLS,MDSM171834,N,Y,38.2489328,-76.6078574
PAST SALE,July-24-2019,Single Family Residential,41475 Charismatic Way,Leonardtown,MD,20650,442500,4,3.5,LEONARD'S GRANT,3536,7150,2015,865,125,56,Sold,,,https://www.redfin.com/MD/Leonardtown/41475-Charismatic-Way-20650/home/52920663,BRIGHT MLS,MDSM162764,N,Y,38.3126144,-76.6428785
PAST SALE,September-26-2019,Single Family Residential,42525 Medleys Neck Rd,Leonardtown,MD,20650,380000,3,3.0,Leonardtown,1380,239580,1920,801,275,,Sold,,,https://www.redfin.com/MD/Leonardtown/42525-Medleys-Neck-Rd-20650/home/78681882,BRIGHT MLS,MDSM164144,N,Y,38.2385605,-76.6075363
PAST SALE,July-31-2020,Single Family Residential,21302 Bennett Estate Ln,Leonardtown,MD,20650,368900,5,3.0,ST MARYS,2576,208652,2004,492,143,,Sold,,,https://www.redfin.com/MD/Leonardtown/21302-Bennett-Estate-Ln-20650/home/15299318,BRIGHT MLS,MDSM165876,N,Y,38.2544525,-76.5944461
MLS Listing,,Single Family Residential,41481 Charismatic Way,Leonardtown,MD,20650,570000,6,4.5,LEONARD'S GRANT,4473,7150,2014,1,127,56,Active,December-5-2021 11:00 AM,December-5-2021 01:00 PM,https://www.redfin.com/MD/Leonardtown/41481-Charismatic-Way-20650/home/52920664,BRIGHT MLS,MDSM2003176,N,Y,38.3125474,-76.6426686
MLS Listing,,Single Family Residential,23085 Town Run Dr,Leonardtown,MD,20650,451900,3,2.5,THE MEADOWS AT TOWN RUN,2245,9290,,6,201,38,Active,,,https://www.redfin.com/MD/Leonardtown/23085-Town-Run-Dr-20650/home/174392520,BRIGHT MLS,MDSM2003074,N,Y,38.3116838,-76.6262054
MLS Listing,,Single Family Residential,23086 Town Run Dr,Leonardtown,MD,20650,470900,4,2.5,THE MEADOWS AT TOWN RUN,2593,9226,,6,182,38,Active,,,https://www.redfin.com/MD/Leonardtown/23086-Town-Run-Dr-20650/home/174392514,BRIGHT MLS,MDSM2003072,N,Y,38.3121789,-76.6271131
MLS Listing,,Single Family Residential,23080 Town Run Dr,Leonardtown,MD,20650,495900,4,2.5,THE MEADOWS AT TOWN RUN,3055,9226,,6,162,75,Active,,,https://www.redfin.com/MD/Leonardtown/23080-Town-Run-Dr-20650/home/174392515,BRIGHT MLS,MDSM2003070,N,Y,38.3121789,-76.6271131
MLS Listing,,Single Family Residential,23074 Town Run Dr,Leonardtown,MD,20650,504900,3,2.0,THE MEADOWS AT TOWN RUN,2339,9226,,6,216,38,Active,,,https://www.redfin.com/MD/Leonardtown/23074-Town-Run-Dr-20650/home/174392516,BRIGHT MLS,MDSM2003066,N,Y,38.3121789,-76.6271131
MLS Listing,,Single Family Residential,44047 Blake Creek Rd,Valley Lee,MD,20692,589900,3,3.5,Valley Lee,4352,496148,1980,12,136,,Active,,,https://www.redfin.com/MD/Valley-Lee/44047-Blake-Creek-Rd-20692/home/177322073,BRIGHT MLS,MDSM2003020,N,Y,38.194794,-76.55405
MLS Listing,,Single Family Residential,40761 S 40 Dr,Leonardtown,MD,20650,349900,3,2.0,BRETON BAY ESTS,1626,27007,1970,16,215,,Active,,,https://www.redfin.com/MD/Leonardtown/40761-S-40-Dr-20650/home/15322179,BRIGHT MLS,MDSM2002880,N,Y,38.2622582,-76.6671402
MLS Listing,,Single Family Residential,23262 Clarks Rest Rd,Leonardtown,MD,20650,469900,4,3.5,CLARK'S REST   PHASE 1,3040,9569,2016,16,155,42,Active,,,https://www.redfin.com/MD/Leonardtown/23262-Clarks-Rest-Rd-20650/home/44643770,BRIGHT MLS,MDSM2002916,N,Y,38.3059732,-76.6470233
MLS Listing,,Single Family Residential,22545 Calvert St,Leonardtown,MD,20650,399900,3,1.5,TUDOR HALL ESTATES,1873,11761,1960,17,214,,Active,,,https://www.redfin.com/MD/Leonardtown/22545-Calvert-St-20650/home/23453805,BRIGHT MLS,MDSM2002418,N,Y,38.2873065,-76.6335767
MLS Listing,,Vacant Land,22553 Point Lookout,Leonardtown,MD,20650,92000,,,Leonardtown,,52708,,19,,,Active,,,https://www.redfin.com/MD/Leonardtown/22553-Point-Lookout-Rd-20650/home/17411889,BRIGHT MLS,MDSM2002828,N,Y,38.2423519,-76.577445
MLS Listing,,Single Family Residential,40751 Merlin Way,Leonardtown,MD,20650,529900,5,2.5,AVENMAR,2601,139828,2002,23,204,150,Active,,,https://www.redfin.com/MD/Leonardtown/40751-Merlin-Way-20650/home/15320345,BRIGHT MLS,MDSM2002706,N,Y,38.294687,-76.6675429
MLS Listing,,Townhouse,23380 Marview Ct,Leonardtown,MD,20650,399900,3,3.5,CLARK'S REST   PHASE 1,2306,3638,2018,27,173,42,Active,,,https://www.redfin.com/MD/Leonardtown/23380-Marview-Ct-20650/home/144150775,BRIGHT MLS,MDSM2002778,N,Y,38.3079132,-76.647876
MLS Listing,,Single Family Residential,39628 Lady Baltimore Ave,Leonardtown,MD,20650,250000,2,1.0,ST CLEMENTS SHORES,1040,14000,1966,33,240,,Active,,,https://www.redfin.com/MD/Leonardtown/39628-Lady-Baltimore-Ave-20650/home/15321917,BRIGHT MLS,MDSM2001650,N,Y,38.2809042,-76.706135
MLS Listing,,Townhouse,41524 Briarwood Cir,Leonardtown,MD,20650,399900,3,3.5,CLARK'S REST   PHASE 1,2449,2280,2022,36,163,42,Active,,,https://www.redfin.com/MD/Leonardtown/41524-Briarwood-CIR-20650/home/177010638,BRIGHT MLS,MDSM2002640,N,Y,38.30866648,-76.6424724
MLS Listing,,Townhouse,41518 Briarwood Cir,Leonardtown,MD,20650,399900,3,3.5,CLARK'S REST   PHASE 1,2445,2280,2022,36,164,42,Active,,,https://www.redfin.com/MD/Leonardtown/41518-Briarwood-CIR-20650/home/177009862,BRIGHT MLS,MDSM2002638,N,Y,38.30856714,-76.64234045
MLS Listing,,Townhouse,41512 Briarwood Cir,Leonardtown,MD,20650,399900,3,3.5,CLARK'S REST   PHASE 1,2451,2280,2022,36,163,42,Active,,,https://www.redfin.com/MD/Leonardtown/41512-Briarwood-CIR-20650/home/177009814,BRIGHT MLS,MDSM2002636,N,Y,38.3084678,-76.64221386
MLS Listing,,Townhouse,41506 Briarwood Cir,Leonardtown,MD,20650,399900,3,3.5,CLARK'S REST   PHASE 1,2444,2280,2022,36,164,42,Active,,,https://www.redfin.com/MD/Leonardtown/41506-Briarwood-CIR-20650/home/177009566,BRIGHT MLS,MDSM2002634,N,Y,38.30842234,-76.64212911
MLS Listing,,Townhouse,41500 Briarwood Cir,Leonardtown,MD,20650,419900,4,3.5,CLARK'S REST,2849,4962,2022,36,147,42,Active,,,https://www.redfin.com/MD/Leonardtown/41500-Briarwood-CIR-20650/home/177009312,BRIGHT MLS,MDSM2002626,N,Y,38.30850909,-76.64259176
MLS Listing,,Single Family Residential,18849 Mckays Beach Rd,Leonardtown,MD,20650,415900,2,1.0,MCKAYS BEACH,850,7150,1940,47,489,,Active,,,https://www.redfin.com/MD/Leonardtown/18849-McKays-Beach-Rd-20650/home/15324507,BRIGHT MLS,MDSM2002442,N,Y,38.1854136,-76.551239
MLS Listing,,Single Family Residential,44505 Blake Crk,Leonardtown,MD,20650,3000000,3,2.0,Leonardtown,2532,7623000,1800,52,1185,,Active,,,https://www.redfin.com/MD/Leonardtown/44505-Blake-Creek-Rd-20650/home/17419008,BRIGHT MLS,MDSM2000167,N,Y,38.188828,-76.536165
MLS Listing,,Vacant Land,44265 Richey Rd,Leonardtown,MD,20650,140000,,,Leonardtown,,657756,,62,,,Active,,,https://www.redfin.com/MD/Leonardtown/44265-Richey-Rd-20650/home/176620368,BRIGHT MLS,MDSM2002352,N,Y,38.2045299,-76.548571
MLS Listing,,Single Family Residential,43307 Medleys Neck Rd,Leonardtown,MD,20650,399900,4,3.0,BEAUVUE,2304,44866,1989,63,174,,Active,,,https://www.redfin.com/MD/Leonardtown/43307-Medleys-Neck-Rd-20650/home/15320677,BRIGHT MLS,MDSM2002184,N,Y,38.2246444,-76.5786332
MLS Listing,,Single Family Residential,40787 Magee Dr,Leonardtown,MD,20650,359900,3,2.0,BRETON BAY ESTS,1872,21780,1973,66,192,,Active,,,https://www.redfin.com/MD/Leonardtown/40787-Magee-Dr-20650/home/15323193,BRIGHT MLS,MDSM2002260,N,Y,38.2803455,-76.665637
MLS Listing,,Single Family Residential,19469 Wible Rd,Leonardtown,MD,20650,599000,0,,Leonardtown,1092,267023,1943,76,549,,Active,,,https://www.redfin.com/MD/Leonardtown/19469-Wible-Rd-20650/home/15323581,BRIGHT MLS,MDSM2002088,N,Y,38.2029852,-76.569205
MLS Listing,,Single Family Residential,20798 Waterside Dr,Leonardtown,MD,20650,425000,2,1.0,BRUBACHERS SUBDIVISION,1018,7965,1950,101,417,,Active,,,https://www.redfin.com/MD/Leonardtown/20798-Waterside-Dr-20650/home/15321705,BRIGHT MLS,MDSM2001640,N,Y,38.2388495,-76.6868048
MLS Listing,,Single Family Residential,23282 Lindsay Dr,Leonardtown,MD,20650,498900,5,3.5,CLARK'S REST   PHASE 1,3261,7050,2021,113,153,42,Active,,,https://www.redfin.com/MD/Leonardtown/23282-Lindsay-Dr-20650/home/171379757,BRIGHT MLS,MDSM2001428,N,Y,38.307007,-76.646941
MLS Listing,,Vacant Land,41708 Fenwick St,Leonardtown,MD,20650,215000,,,Leonardtown,,65776,,116,,,Active,,,https://www.redfin.com/MD/Leonardtown/41708-Fenwick-St-20650/home/15319059,BRIGHT MLS,MDSM2001346,N,Y,38.2912876,-76.6331201
MLS Listing,,Townhouse,22538 Landing Way,Leonardtown,MD,20650,475000,4,3.5,LEONARDTOWN LANDING,2764,2394,2005,123,172,67,Active,,,https://www.redfin.com/MD/Leonardtown/22538-Landing-Way-20650/home/15297590,BRIGHT MLS,MDSM2001200,N,Y,38.287476,-76.638888
MLS Listing,,Vacant Land,41818 Carly Elizabeth,Leonardtown,MD,20650,89900,,,MADEL PROPERTY,,15397,,135,,,Active,,,https://www.redfin.com/MD/Leonardtown/41818-Carly-Elizabeth-20650/home/175827662,BRIGHT MLS,MDSM2000928,N,Y,38.31928563,-76.62805785
MLS Listing,,Vacant Land,41830 Carly Elizabeth,Leonardtown,MD,20650,89900,,,MADEL PROPERTY,,30165,,135,,,Active,,,https://www.redfin.com/MD/Leonardtown/41830-Carly-Elizabeth-Ln-20650/home/17411995,BRIGHT MLS,MDSM2000926,N,Y,38.3189429,-76.627363
MLS Listing,,Vacant Land,41835 Carly Elizabeth Ln,Leonardtown,MD,20650,89900,,,MADEL PROPERTY,,30756,,135,,,Active,,,https://www.redfin.com/MD/LEONARDTOWN/41835-CARLY-ELIZABETH-LN-20650/home/15322578,BRIGHT MLS,MDSM2000420,N,Y,38.318893,-76.62804
MLS Listing,,Vacant Land,41825 Chelsey Faye,Leonardtown,MD,20650,89900,,,MADEL PROPERTY,,25456,,135,,,Active,,,https://www.redfin.com/MD/Leonardtown/41825-Chelsey-Faye-20650/home/175825232,BRIGHT MLS,MDSM2000418,N,Y,38.31797293,-76.62825633
MLS Listing,,Vacant Land,41845 Carly Elizabeth,Leonardtown,MD,20650,89900,,,Leonardtown,,100798,,135,,,Active,,,https://www.redfin.com/MD/Leonardtown/41845-Carly-Elizabeth-Ln-20650/home/44643711,BRIGHT MLS,MDSM2000416,N,Y,38.3181189,-76.6273479
MLS Listing,,Vacant Land,41921 Newman Way,Leonardtown,MD,20650,89900,,,Leonardtown,,150718,,135,,,Active,,,https://www.redfin.com/MD/Leonardtown/41921-Newman-Way-20650/home/145127818,BRIGHT MLS,MDSM2000414,N,Y,38.31836067,-76.62658119
MLS Listing,,Vacant Land,41931 Newman Way,Leonardtown,MD,20650,119900,,,Leonardtown,,186001,,135,,,Active,,,https://www.redfin.com/MD/Leonardtown/41931-Newman-Way-20650/home/23436841,BRIGHT MLS,MDSM2000412,N,Y,38.3220202,-76.6279282
MLS Listing,,Single Family Residential,41416 Heritage Ln,Leonardtown,MD,20650,539900,4,2.5,CLARK'S REST   PHASE 1,2678,7050,2021,187,202,42,Active,,,https://www.redfin.com/MD/Leonardtown/41416-Heritage-Ln-20650/home/170270227,BRIGHT MLS,MDSM176776,N,Y,38.306576,-76.646229
MLS Listing,,Single Family Residential,42520 Riverwinds Dr,Leonardtown,MD,20650,1850000,4,2.0,Leonardtown,2744,9397199,1940,198,674,,Active,,,https://www.redfin.com/MD/Leonardtown/42520-Riverwinds-Dr-20650/home/17418333,BRIGHT MLS,MDSM176502,N,Y,38.2212119,-76.6050571
MLS Listing,,Single Family Residential,42704 Waverly Way,Leonardtown,MD,20650,829900,5,2.5,WAVERLY,2800,90605,,201,296,,Active,,,https://www.redfin.com/MD/Leonardtown/42704-Waverly-Way-20650/home/23454845,BRIGHT MLS,MDSM176414,N,Y,38.218777,-76.599382
MLS Listing,,Vacant Land,21755 Joe Hazel Rd,Leonardtown,MD,20650,450000,,,Leonardtown,,792792,,242,,,Active,,,https://www.redfin.com/MD/Leonardtown/21755-Joe-Hazel-Rd-20650/home/174895076,BRIGHT MLS,MDSM175490,N,Y,38.2648431,-76.6960629
MLS Listing,,Vacant Land,Breton Beach Rd,Leonardtown,MD,20650,99000,,,Leonardtown,,127195,,368,,,Active,,,https://www.redfin.com/MD/LEONARDTOWN/BRETON-BEACH-RD-20650/home/23451321,BRIGHT MLS,MDSM173362,N,Y,38.240758,-76.685448
MLS Listing,,Vacant Land,22532 Washington St,Leonardtown,MD,20650,785000,,,RAR ASSOCIATES DEVELOPME,,16978,,465,,,Active,,,https://www.redfin.com/MD/Leonardtown/22532-Washington-St-20650/home/172969618,BRIGHT MLS,MDSM171496,N,Y,38.2867005,-76.6375929
MLS Listing,,Vacant Land,21765 Point Lookout Rd,Leonardtown,MD,20650,120000,,,Leonardtown,,43560,,699,,,Active,,,https://www.redfin.com/MD/Leonardtown/21765-Point-Lookout-Rd-20650/home/15324873,BRIGHT MLS,MDSM166828,N,Y,38.2385133,-76.5514724
MLS Listing,,Vacant Land,Long Leaf Ln,Leonardtown,MD,20650,24900,,,ST CLEMENTS WOODS,,8000,,852,,,Active,,,https://www.redfin.com/MD/LEONARDTOWN/LONG-LEAF-LN-20650/home/23447022,BRIGHT MLS,MDSM164096,N,Y,38.279161,-76.700358
For-Sale-by-Owner Listing,,Single Family Residential,23558 Belmar Dr,Leonardtown,MD,20650,585000,6,3.5,Leonardtown,4858,8499,2008,15,120,,Active,,,https://www.redfin.com/MD/Leonardtown/23558-Belmar-Dr-20650/home/21470318,Fizber.com,11456844,N,Y,38.3145543,-76.6389989
PAST SALE,June-28-2019,Single Family Residential,21639 Rosalie Way,Leonardtown,MD,20650,400000,3,2.0,Leonardtown,1504,54014,1940,891,266,,Sold,,,https://www.redfin.com/MD/Leonardtown/21639-Rosalie-Way-20650/home/15323374,BRIGHT MLS,MDSM160990,N,Y,38.2609944,-76.6868612
PAST SALE,March-5-2021,Single Family Residential,41441 Challedon Way,Leonardtown,MD,20650,460000,4,3.5,LEONARD'S GRANT,3376,7150,2010,275,136,58,Sold,,,https://www.redfin.com/MD/Leonardtown/41441-Challedon-Way-20650/home/23436386,BRIGHT MLS,MDSM174250,N,Y,38.3143177,-76.6424751
PAST SALE,December-7-2020,Single Family Residential,20308 Hermitage Ln,Leonardtown,MD,20650,373000,3,3.0,MULBERRY EAST,2676,271814,1989,363,139,,Sold,,,https://www.redfin.com/MD/Leonardtown/20308-Hermitage-Rd-20650/home/15323108,BRIGHT MLS,MDSM172450,N,Y,38.2248197,-76.5470844
PAST SALE,November-30-2021,Single Family Residential,41313 Chestnut Hill St,Leonardtown,MD,20650,550000,6,5.0,CLARK'S REST   PHASE 1,3638,7456,2018,5,151,42,Sold,,,https://www.redfin.com/MD/Leonardtown/41313-Chestnut-Hill-St-20650/home/110111244,BRIGHT MLS,MDSM2002244,N,Y,38.3047274,-76.6451325
PAST SALE,,Single Family Residential,22335 Gore St,Leonardtown,MD,20650,285000,,2.5,,2400,4000,2008,,119,,,,,https://www.redfin.com/MD/Leonardtown/22335-Gore-St-20650/home/21470710,,,N,Y,38.2816901,-76.7070229
PAST SALE,,Single Family Residential,41438 Culpepper Way,Leonardtown,MD,20650,477500,,3.5,,3400,7150,2010,,140,,,,,https://www.redfin.com/MD/Leonardtown/41438-Culpepper-Way-20650/home/23436382,,,N,Y,38.3139395,-76.6429079
PAST SALE,,Single Family Residential,41419 Doctors Crossing Rd,Leonardtown,MD,20650,505000,,3.5,,3408,9931,2014,,148,,,,,https://www.redfin.com/MD/Leonardtown/41419-Doctors-Crossing-Rd-20650/home/44643687,,,N,Y,38.3030679,-76.6439117
PAST SALE,July-31-2019,Single Family Residential,43669 Potomac Shores Rd,Leonardtown,MD,20650,280000,1,1.0,GOSNELL POT SHORES,625,27900,1952,858,448,,Sold,,,https://www.redfin.com/MD/Leonardtown/43669-Potomac-Shores-Rd-20650/home/15324332,BRIGHT MLS,MDSM161670,N,Y,38.1991231,-76.5659395
PAST SALE,,Single Family Residential,19352 Gosnell Rd,Leonardtown,MD,20650,269000,,2.5,,2316,33825,1964,,116,,,,,https://www.redfin.com/MD/Leonardtown/19352-Gosnell-Rd-20650/home/15324315,,,N,Y,38.1993359,-76.5626477
PAST SALE,August-12-2019,Vacant Land,14505 Finally Our Way,Leonardtown,MD,20650,80000,,,Leonardtown,,364597,,846,,,Sold,,,https://www.redfin.com/MD/LEONARDTOWN/14505-FINALLY-OUR-WAY-20650/home/23435774,BRIGHT MLS,MDSM164236,N,Y,38.222694,-76.532266
PAST SALE,,Multi-Family (5+ Unit),43660 Pump House Ln,Leonardtown,MD,20650,50000,,1.0,,825,682150,1940,,61,,,,,https://www.redfin.com/MD/Leonardtown/43660-Pump-House-Ln-20650/home/15324752,,,N,Y,38.2446,-76.562917
PAST SALE,August-28-2020,Vacant Land,19220 Eliff Ln,Valley Lee,MD,20692,73000,,,Valley Lee,,194713,,464,,,Sold,,,https://www.redfin.com/MD/Valley-Lee/19220-Eliff-Ln-20692/home/17419240,BRIGHT MLS,MDSM170032,N,Y,38.1955069,-76.5149379
PAST SALE,,Other,24106 S R G Way,Leonardtown,MD,20650,120000,,,,,188615,,,,,,,,https://www.redfin.com/MD/Leonardtown/24106-S-R-G-Way-20650/home/40026302,,,N,Y,38.3271979,-76.648041
PAST SALE,October-13-2021,Condo/Co-op,41820 Eastwick Ln #3201,Leonardtown,MD,20650,249000,2,2.0,FOXWELL CONDOMINIUMS,1113,,2010,53,224,140,Sold,,,https://www.redfin.com/MD/Leonardtown/41820-Eastwick-Ln-20650/unit-3201/home/40024199,BRIGHT MLS,MDSM2000252,N,Y,38.2906607,-76.6283486
PAST SALE,,Single Family Residential,41474 Whimsical Ct,Leonardtown,MD,20650,555000,,3.5,,3424,14080,2010,,162,,,,,https://www.redfin.com/MD/Leonardtown/41474-Whimsical-Ct-20650/home/23441547,,,N,Y,38.3194393,-76.6435942
PAST SALE,,Single Family Residential,22795 Washington St,Leonardtown,MD,20650,485000,,2.0,,3200,14602,1940,,152,,,,,https://www.redfin.com/MD/Leonardtown/22795-Washington-St-20650/home/166832527,,,N,Y,38.2933267,-76.6359239
PAST SALE,,Single Family Residential,39990 Lady Baltimore Ave,Leonardtown,MD,20650,244233,,2.0,,1650,10000,1993,,148,,,,,https://www.redfin.com/MD/Leonardtown/39990-Lady-Baltimore-Ave-20650/home/15319465,,,N,Y,38.2794767,-76.6934017
PAST SALE,May-3-2021,Townhouse,41468 Marwood Cir,Leonardtown,MD,20650,374900,3,3.5,CLARK'S REST   PHASE 1,2454,2280,2021,216,153,42,Sold,,,https://www.redfin.com/MD/Leonardtown/41468-Marwood-Cir-20650/home/171379780,BRIGHT MLS,MDSM172792,N,Y,38.308015,-76.644776
PAST SALE,December-20-2018,Single Family Residential,23220 Dairy Barn Dr,Leonardtown,MD,20650,477426,5,3.5,CLARK'S REST   PHASE 1,3650,9324,2018,1081,131,42,Sold,,,https://www.redfin.com/MD/Leonardtown/23220-Dairy-Barn-Dr-20650/home/110111303,BRIGHT MLS,1002053992,N,Y,38.3040649,-76.6430315
PAST SALE,,Single Family Residential,41372 Holiday Ct,Leonardtown,MD,20650,565000,5,4.0,,5200,26132,2011,,109,,,,,https://www.redfin.com/MD/Leonardtown/41372-Holiday-Ct-20650/home/40026300,,,N,Y,38.3161937,-76.6470573
PAST SALE,,Multi-Family (5+ Unit),22760 Washington St,Leonardtown,MD,20650,565000,,5.0,,4499,3850,1856,,126,,,,,https://www.redfin.com/MD/Leonardtown/22760-Washington-St-20650/home/18554982,,,N,Y,38.2923107,-76.6353598
PAST SALE,,Single Family Residential,41995 White Point Beach Rd,Leonardtown,MD,20650,200000,,1.0,,904,9685,1930,,221,,,,,https://www.redfin.com/MD/Leonardtown/41995-White-Point-Beach-Rd-20650/home/15322515,,,N,Y,38.2240401,-76.6236427
PAST SALE,May-14-2021,Townhouse,22765 Pope St,Leonardtown,MD,20650,235500,3,2.5,WATCHER COMMONS,1384,1823,2007,205,170,,Sold,,,https://www.redfin.com/MD/Leonardtown/22765-Pope-St-20650/home/21656600,BRIGHT MLS,MDSM175570,N,Y,38.293272,-76.63697
PAST SALE,July-31-2020,Single Family Residential,41480 Charles St,Leonardtown,MD,20650,294900,3,2.0,TUDOR PARK,1528,20873,1962,492,193,,Sold,,,https://www.redfin.com/MD/Leonardtown/41480-Charles-St-20650/home/15322907,BRIGHT MLS,MDSM170142,N,Y,38.2983153,-76.6409328
PAST SALE,April-30-2019,Single Family Residential,22925 Downs Cir,Leonardtown,MD,20650,260000,3,2.5,TUDOR HALL FARM,1788,14220,1977,950,145,,Sold,,,https://www.redfin.com/MD/Leonardtown/22925-Downs-Cir-20650/home/15321743,BRIGHT MLS,MDSM157752,N,Y,38.2975417,-76.642449
PAST SALE,,Single Family Residential,41481 Miss June Ct,Leonardtown,MD,20650,300000,,2.5,,1849,10253,1997,,162,,,,,https://www.redfin.com/MD/Leonardtown/41481-Miss-June-Ct-20650/home/15319480,,,N,Y,38.3048827,-76.6412261
PAST SALE,September-30-2019,Single Family Residential,40863 Lark Way,Leonardtown,MD,20650,574500,5,4.0,BRETON BAY,6388,88427,1998,797,90,140,Sold,,,https://www.redfin.com/MD/Leonardtown/40863-Lark-Way-20650/home/15319781,BRIGHT MLS,MDSM162402,N,Y,38.2875773,-76.6637286
PAST SALE,October-29-2020,Single Family Residential,19137 Lake Dr,Leonardtown,MD,20650,287900,3,2.5,LANEDON,1308,6250,2005,402,220,,Sold,,,https://www.redfin.com/MD/Leonardtown/19137-Lake-Dr-20650/home/15325037,BRIGHT MLS,MDSM170996,N,Y,38.1928975,-76.557105
PAST SALE,December-31-2019,Single Family Residential,25075 Pond View Ln,Leonardtown,MD,20650,517011,3,2.0,MEADOWS AT TOWN RUN,2339,9000,2019,705,221,38,Sold,,,https://www.redfin.com/MD/Leonardtown/25075-Pond-View-Ln-20650/home/167790423,BRIGHT MLS,MDSM163224,N,Y,38.3098664,-76.6266312
PAST SALE,,Single Family Residential,21410 Redmar Pl,Leonardtown,MD,20650,421000,,2.5,,3048,34850,2008,,138,,,,,https://www.redfin.com/MD/Leonardtown/21410-Redmar-Pl-20650/home/21470515,,,N,Y,38.255232,-76.5912185
PAST SALE,September-30-2019,Townhouse,22533 Landing Way,Leonardtown,MD,20650,385000,4,3.5,LEONARDTOWN LANDING,2764,3104,2005,797,139,67,Sold,,,https://www.redfin.com/MD/Leonardtown/22533-Landing-Way-20650/home/23456126,BRIGHT MLS,MDSM164380,N,Y,38.287365,-76.639381
PAST SALE,June-1-2020,Vacant Land,Hickory  Hill Ln,Leonardtown,MD,20650,70000,,,Leonardtown,,107593,,552,,,Sold,,,https://www.redfin.com/MD/Leonardtown/Hickory-Hill-Rd-20650/home/102358855,BRIGHT MLS,1001768420,N,Y,38.27516,-76.63092
PAST SALE,,Other,22245 Budds Creek Rd,Leonardtown,MD,20650,150000,,,,,515315,,,,,,,,https://www.redfin.com/MD/Leonardtown/22245-Budds-Creek-Rd-20650/home/171379641,,,N,Y,38.315913,-76.6804299
PAST SALE,September-16-2019,Single Family Residential,41488 Pensive St,Leonardtown,MD,20650,438000,5,3.5,LEONARD'S GRANT,3292,10168,2008,811,133,50,Sold,,,https://www.redfin.com/MD/Leonardtown/41488-Pensive-St-20650/home/21470321,BRIGHT MLS,MDSM158316,N,Y,38.3145,-76.6403456
PAST SALE,October-18-2021,Vacant Land,20250 Hawks Way,Leonardtown,MD,20650,220000,,,HAWKS NEST,,239580,,48,,,Sold,,,https://www.redfin.com/MD/Leonardtown/20250-Hawks-WAY-20650/home/174173278,BRIGHT MLS,MDSM173948,N,Y,38.22409958,-76.54055723
PAST SALE,May-30-2019,Single Family Residential,22555 Washington St,Leonardtown,MD,20650,312000,4,2.5,Leonardtown,1792,5500,1915,920,174,,Sold,,,https://www.redfin.com/MD/Leonardtown/22555-Washington-St-20650/home/15322363,BRIGHT MLS,MDSM100152,N,Y,38.2877076,-76.6377104
PAST SALE,June-15-2020,Single Family Residential,25033 Meadowlark Ct,Leonardtown,MD,20650,481600,4,2.5,MEADOWS AT TOWN RUN,3046,9000,2019,538,158,38,Sold,,,https://www.redfin.com/MD/Leonardtown/25033-Meadowlark-Ct-20650/home/167790413,BRIGHT MLS,MDSM165180,N,Y,38.310294,-76.628347
PAST SALE,April-23-2021,Townhouse,41480 Marwood Cir,Leonardtown,MD,20650,397247,3,2.5,CLARK'S REST   PHASE 1,1987,2280,2021,226,200,42,Sold,,,https://www.redfin.com/MD/Leonardtown/41480-Marwood-Cir-20650/home/171379782,BRIGHT MLS,MDSM172694,N,Y,38.308024,-76.644608
PAST SALE,December-3-2021,Single Family Residential,23925 Susies Ln,Leonardtown,MD,20650,496121,4,2.5,LONG ESTATES,3950,67518,2021,2,126,,Sold,,,https://www.redfin.com/MD/Leonardtown/23925-Susies-LN-20650/home/173567714,BRIGHT MLS,MDSM174228,N,Y,38.32411417,-76.67420166
PAST SALE,June-20-2021,Single Family Residential,44071 Vibbert Ln,Leonardtown,MD,20650,475000,3,3.5,VIBBERT MINOR,2888,43560,1999,168,164,,Sold,,,https://www.redfin.com/MD/Leonardtown/44071-Vibbert-Ln-20650/home/15323086,BRIGHT MLS,MDSM175674,N,Y,38.234217,-76.551676
PAST SALE,February-14-2020,Single Family Residential,41575 Coach Ct,Leonardtown,MD,20650,425000,4,2.5,JORDAN AT SINGLETREE,2731,18905,1998,660,156,35,Sold,,,https://www.redfin.com/MD/Leonardtown/41575-Coach-Ct-20650/home/15319824,BRIGHT MLS,MDSM165698,N,Y,38.3071258,-76.6370069
PAST SALE,December-2-2021,Single Family Residential,20235 Big Oak Ln,Leonardtown,MD,20650,237000,3,1.0,BRETON BEACH,1036,24650,1934,3,229,,Sold,,,https://www.redfin.com/MD/Leonardtown/20235-Big-Oak-Ln-20650/home/15321287,BRIGHT MLS,MDSM2001896,N,Y,38.2237404,-76.6181368
PAST SALE,August-12-2019,Single Family Residential,23635 Belmar Dr,Leonardtown,MD,20650,445000,5,3.5,LEONARD'S GRANT,3221,8750,2011,846,138,56,Sold,,,https://www.redfin.com/MD/Leonardtown/23635-Belmar-Dr-20650/home/23450874,BRIGHT MLS,MDSM163162,N,Y,38.3161874,-76.6411952
PAST SALE,November-7-2019,Single Family Residential,22935 Downs Cir,Leonardtown,MD,20650,250000,3,1.5,TUDOR PARK,1688,11520,1977,759,148,,Sold,,,https://www.redfin.com/MD/Leonardtown/22935-Downs-Cir-20650/home/15321739,BRIGHT MLS,MDSM165674,N,Y,38.2977592,-76.6425538
PAST SALE,July-20-2021,Single Family Residential,20353 Scarlet Tanager Way,Leonardtown,MD,20650,390000,4,2.5,LITTLE HOLLY,2110,146797,1989,138,185,,Sold,,,https://www.redfin.com/MD/Leonardtown/20353-Scarlet-Tanager-Way-20650/home/15323039,BRIGHT MLS,MDSM176456,N,Y,38.2269241,-76.5500349
PAST SALE,,Single Family Residential,21005 Lightfoot Way,Leonardtown,MD,20650,477500,,3.5,,3880,81022,1981,,123,,,,,https://www.redfin.com/MD/Leonardtown/21005-Lightfoot-Way-20650/home/15323492,,,N,Y,38.2434168,-76.5583079
PAST SALE,April-1-2021,Single Family Residential,40559 Juniors Ct,Leonardtown,MD,20650,451000,4,3.5,LONG ESTATES,2576,180774,2005,248,175,,Sold,,,https://www.redfin.com/MD/Leonardtown/40559-Juniors-Ct-20650/home/15298937,BRIGHT MLS,MDSM174670,N,Y,38.3261809,-76.6731475
PAST SALE,March-8-2021,Single Family Residential,23959 Meredith Ct,Leonardtown,MD,20650,509000,5,3.5,ABELLS RIDGE,3885,90169,1998,272,131,,Sold,,,https://www.redfin.com/MD/Leonardtown/23959-Meredith-Ct-20650/home/146267289,BRIGHT MLS,MDSM173782,N,Y,38.27575,-76.63173
PAST SALE,,Single Family Residential,23255 Hollywood Rd,Leonardtown,MD,20650,245000,,1.5,,1584,30400,1930,,155,,,,,https://www.redfin.com/MD/Leonardtown/23255-Hollywood-Rd-20650/home/15322148,,,N,Y,38.307275,-76.6319978
PAST SALE,May-27-2021,Single Family Residential,22990 Hollywood Rd,Leonardtown,MD,20650,355000,3,2.0,Leonardtown,1558,52708,1988,192,228,,Sold,,,https://www.redfin.com/MD/Leonardtown/22990-Hollywood-Rd-20650/home/15320244,BRIGHT MLS,MDSM175694,N,Y,38.299902,-76.6333065
PAST SALE,March-19-2021,Single Family Residential,21533 Port View Cir,Leonardtown,MD,20650,945000,5,4.5,BRETON BAY ESTS,3224,31400,1981,261,293,,Sold,,,https://www.redfin.com/MD/Leonardtown/21533-Port-View-Cir-20650/home/15321741,BRIGHT MLS,MDSM172732,N,Y,38.2593853,-76.6736944
PAST SALE,October-1-2019,Single Family Residential,41730 Eldon Ct,Leonardtown,MD,20650,379900,4,3.0,ELDON,2412,12100,1983,796,158,,Sold,,,https://www.redfin.com/MD/Leonardtown/41730-Eldon-Ct-20650/home/15320887,BRIGHT MLS,MDSM164168,N,Y,38.3008495,-76.632404
PAST SALE,November-30-2020,Single Family Residential,41640 Camalier Dr,Leonardtown,MD,20650,415000,3,2.5,TUDOR HALL,1822,14400,1957,370,228,,Sold,,,https://www.redfin.com/MD/Leonardtown/41640-Camalier-Dr-20650/home/15320838,BRIGHT MLS,MDSM172230,N,Y,38.2873881,-76.6356531
PAST SALE,,Single Family Residential,23479 Lindsay Dr,Leonardtown,MD,20650,540000,,2.5,,3692,15328,2008,,146,,,,,https://www.redfin.com/MD/Leonardtown/23479-Lindsay-Dr-20650/home/21470334,,,N,Y,38.3117946,-76.6404789
PAST SALE,August-23-2019,Single Family Residential,22820 Longmore St,Leonardtown,MD,20650,269999,3,2.0,LEONARDTOWN,1328,5760,,835,203,,Sold,,,https://www.redfin.com/MD/Leonardtown/22820-Longmore-St-20650/home/110110953,BRIGHT MLS,MDSM158012,N,Y,38.2945493,-76.6390816
PAST SALE,November-13-2020,Single Family Residential,41448 Osborne Ln,Leonardtown,MD,20650,448290,3,3.0,CLARK'S REST   PHASE 1,778,6600,,387,576,42,Sold,,,https://www.redfin.com/MD/Leonardtown/41448-Osborne-Ln-20650/home/110111179,BRIGHT MLS,MDSM169946,N,Y,38.3043943,-76.6446584
PAST SALE,October-31-2019,Single Family Residential,25058 Meadowlark Ct,Leonardtown,MD,20650,517949,4,2.5,MEADOWS AT TOWN RUN,4713,7567,2019,766,110,38,Sold,,,https://www.redfin.com/MD/Leonardtown/25058-Meadowlark-Ct-20650/home/167790425,BRIGHT MLS,MDSM163602,N,Y,38.3103586,-76.6268468
PAST SALE,April-20-2020,Single Family Residential,39950 Sassafras,Leonardtown,MD,20650,242500,5,2.0,THE WOODS AT BAYSIDE,1514,9025,2002,594,160,,Sold,,,https://www.redfin.com/MD/Leonardtown/39950-Sassafras-Ln-20650/home/15319531,BRIGHT MLS,MDSM167986,N,Y,38.2801553,-76.6949916
PAST SALE,May-14-2019,Single Family Residential,41421 Silver Charm Ct,Leonardtown,MD,20650,431000,4,3.5,LEONARD'S GRANT,3345,13242,2011,936,129,54,Sold,,,https://www.redfin.com/MD/Leonardtown/41421-Silver-Charm-Ct-20650/home/23441552,BRIGHT MLS,MDSM160880,N,Y,38.3181016,-76.6435724
PAST SALE,,Single Family Residential,40145 Little Woods Ln,Leonardtown,MD,20650,396000,,2.0,,3408,196456,1967,,116,,,,,https://www.redfin.com/MD/Leonardtown/40145-Little-Woods-Ln-20650/home/15322476,,,N,Y,38.2649929,-76.6871318
PAST SALE,,Single Family Residential,23779 Coventry Dr,Leonardtown,MD,20650,525000,,3.5,,4240,12614,2013,,124,,,,,https://www.redfin.com/MD/Leonardtown/23779-Coventry-Dr-20650/home/44643819,,,N,Y,38.3200181,-76.6463682
PAST SALE,May-31-2019,Condo/Co-op,41810 Eastwick Ln #2201,Leonardtown,MD,20650,212000,2,2.0,FOXWELL CONDOMINIUMS,1104,1104,2009,919,192,130,Sold,,,https://www.redfin.com/MD/Leonardtown/41810-Eastwick-Ln-20650/unit-2201/home/28498828,BRIGHT MLS,MDSM160782,N,Y,38.290926,-76.6282413
PAST SALE,October-31-2019,Vacant Land,5 Archer St,Leonardtown,MD,20650,100000,,,ST CLEMENTS SHORES,,43560,,766,,,Sold,,,https://www.redfin.com/MD/3-Leonardtown/5-Archer-St-20650/home/171678117,BRIGHT MLS,1000269228,N,Y,38.28322389,-76.70073001
PAST SALE,May-22-2020,Single Family Residential,21114 Arbor Ct,Leonardtown,MD,20650,300000,3,2.0,REDGATE,1608,33976,1993,562,187,,Sold,,,https://www.redfin.com/MD/Leonardtown/21114-Arbor-Ct-20650/home/15320149,BRIGHT MLS,MDSM168776,N,Y,38.2481587,-76.60593
PAST SALE,September-25-2020,Single Family Residential,21726 Lake Cir,Leonardtown,MD,20650,325000,4,3.0,BRETON BAY ESTS,1956,48787,1980,436,166,,Sold,,,https://www.redfin.com/MD/Leonardtown/21726-Lake-Cir-20650/home/15321883,BRIGHT MLS,MDSM170718,N,Y,38.2639069,-76.6642043
PAST SALE,November-19-2021,Single Family Residential,23710 Hollywood Rd,Leonardtown,MD,20650,360000,3,2.0,Leonardtown,1360,43560,2011,16,265,,Sold,,,https://www.redfin.com/MD/Leonardtown/23710-Hollywood-Rd-20650/home/17418701,BRIGHT MLS,MDSM2002038,N,Y,38.31999076316381,-76.62715490871749
PAST SALE,June-11-2020,Single Family Residential,25069 Pond View Ln,Leonardtown,MD,20650,534565,5,3.5,MEADOWS AT TOWN RUN,1064,9175,2020,542,502,38,Sold,,,https://www.redfin.com/MD/Leonardtown/25069-Pond-View-Ln-20650/home/167790421,BRIGHT MLS,MDSM166892,N,Y,38.3099493,-76.626812
PAST SALE,April-28-2020,Single Family Residential,25045 Meadowlark Ct,Leonardtown,MD,20650,487663,4,3.0,MEADOWS AT TOWN RUN,3344,9000,2020,586,146,38,Sold,,,https://www.redfin.com/MD/Leonardtown/25045-Meadowlark-Ct-20650/home/167790416,BRIGHT MLS,MDSM165992,N,Y,38.3102573,-76.628136
PAST SALE,,Townhouse,40463 Breton View Dr,Leonardtown,MD,20650,255000,,2.5,,1800,1785,1989,,142,,,,,https://www.redfin.com/MD/Leonardtown/40463-Breton-View-Dr-20650/home/15320436,,,N,Y,38.2648217,-76.6773174
PAST SALE,December-1-2021,Vacant Land,44285 Richey Rd,Leonardtown,MD,20650,140000,,,Leonardtown,,657756,,4,,,Sold,,,https://www.redfin.com/MD/Leonardtown/44285-Richey-Rd-20650/home/176620928,BRIGHT MLS,MDSM2002356,N,Y,38.203235,-76.5459413
PAST SALE,,Single Family Residential,41878 Jenkins Ct,Leonardtown,MD,20650,393493,,2.5,,2142,17557,2005,,184,,,,,https://www.redfin.com/MD/Leonardtown/41878-Jenkins-Ct-20650/home/15298113,,,N,Y,38.2961167,-76.627378
PAST SALE,February-24-2020,Single Family Residential,22278 Orchard Ct,Leonardtown,MD,20650,439900,5,2.5,HANOVER AT BRETON BAY,2648,82328,2003,650,166,42,Sold,,,https://www.redfin.com/MD/Leonardtown/22278-Orchard-Ct-20650/home/15298090,BRIGHT MLS,MDSM167126,N,Y,38.28096,-76.617809
PAST SALE,January-6-2021,Vacant Land,97422 Swan's Ct,Leonardtown,MD,20650,199900,,,MEDLEYS NECK,,85377,,333,,,Sold,,,https://www.redfin.com/MD/3-Leonardtown/97422-Swans-Ct-20650/home/173427400,BRIGHT MLS,MDSM172452,N,Y,38.23224557,-76.62055235
PAST SALE,August-3-2021,Single Family Residential,23915 Susies,Leonardtown,MD,20650,523965,4,3.5,LONG ESTATES,3050,72745,2021,124,172,,Sold,,,https://www.redfin.com/MD/Leonardtown/23915-Susie-Ct-20650/home/175936690,BRIGHT MLS,MDSM2001128,N,Y,38.3079633,-76.6385635
PAST SALE,October-23-2020,Single Family Residential,43845 Tarrywyle Ln,Leonardtown,MD,20650,529999,3,2.5,LANEDON,1764,28900,2010,408,300,,Sold,,,https://www.redfin.com/MD/Leonardtown/43845-Tarrywyle-Way-20650/home/23445273,BRIGHT MLS,MDSM170980,N,Y,38.1940224,-76.5595862
PAST SALE,,Vacant Land,41650 Miss Bessie Dr,Leonardtown,MD,20650,92000,,,,,19166,,,,,,,,https://www.redfin.com/MD/Leonardtown/41650-Miss-Bessie-Dr-20650/home/17412631,,,N,Y,38.3035107,-76.6351208
PAST SALE,,Single Family Residential,20485 Chestnut Ridge Dr,Leonardtown,MD,20650,410000,,3.0,,2574,112385,1993,,159,,,,,https://www.redfin.com/MD/Leonardtown/20485-Chestnut-Ridge-Dr-20650/home/15319756,,,N,Y,38.2301009,-76.5747167
PAST SALE,November-30-2021,Townhouse,41438 Marwood Cir,Leonardtown,MD,20650,394900,3,3.5,CLARK'S REST   PHASE 1,2454,2280,2021,5,161,42,Sold,,,https://www.redfin.com/MD/Leonardtown/41438-Marwood-Cir-20650/home/171379776,BRIGHT MLS,MDSM174024,N,Y,38.307672,-76.645002
PAST SALE,May-17-2021,Single Family Residential,22455 Hood Ln,Leonardtown,MD,20650,815000,6,3.5,Leonardtown,2943,671695,2004,202,277,,Sold,,,https://www.redfin.com/MD/Leonardtown/22455-Hood-Ln-20650/home/17412108,BRIGHT MLS,MDSM175520,N,Y,38.280137,-76.570384
PAST SALE,,Single Family Residential,25370 Point Lookout Rd,Leonardtown,MD,20650,180000,,2.5,,2080,11905,1966,,87,,,,,https://www.redfin.com/MD/Leonardtown/25370-Point-Lookout-Rd-20650/home/18984158,,,N,Y,38.2977523,-76.6360592
PAST SALE,August-21-2020,Vacant Land,Molly Ct,Leonardtown,MD,20650,60000,,,PROSPECT HILL,,78844,,471,,,Sold,,,https://www.redfin.com/MD/LEONARDTOWN/MOLLY-CT-20650/home/23453906,BRIGHT MLS,MDSM167482,N,Y,38.271492,-76.649752
PAST SALE,,Single Family Residential,41478 Miss June Ct,Leonardtown,MD,20650,290000,,2.5,,1664,10105,1997,,174,,,,,https://www.redfin.com/MD/Leonardtown/41478-Miss-June-Ct-20650/home/15319459,,,N,Y,38.30528,-76.6413389
PAST SALE,,Mobile/Manufactured Home,22969 Point Lookout Rd,Leonardtown,MD,20650,85000,,1.0,,1152,175982,1970,,74,,,,,https://www.redfin.com/MD/Leonardtown/22969-Point-Lookout-Rd-20650/home/15319484,,,N,Y,38.2460628,-76.5896268
PAST SALE,,Single Family Residential,22770 Washington St,Leonardtown,MD,20650,1295000,,2.5,,3992,67082,1900,,324,,,,,https://www.redfin.com/MD/Leonardtown/22770-Washington-St-20650/home/143284929,,,N,Y,38.2926344,-76.6353598
PAST SALE,October-22-2021,Single Family Residential,23305 Joanne Dr,Leonardtown,MD,20650,500000,4,3.5,ESTATES AT SINGLETREE,3348,10064,2018,44,149,27,Sold,,,https://www.redfin.com/MD/Leonardtown/23305-Joanne-Dr-20650/home/17411882,BRIGHT MLS,MDSM2001774,N,Y,38.3080667,-76.6340336
PAST SALE,January-29-2021,Single Family Residential,23875 Mcintosh Rd,Hollywood,MD,20636,230000,3,1.0,BARNES ESTATES,1008,9281,1996,310,228,,Sold,,,https://www.redfin.com/MD/Hollywood/23875-McIntosh-Rd-20636/home/15319670,BRIGHT MLS,MDSM173214,N,Y,38.3237705,-76.6260833
PAST SALE,,Single Family Residential,23207 Moakley St,Leonardtown,MD,20650,433500,,2.5,,1926,43037,1996,,225,,,,,https://www.redfin.com/MD/Leonardtown/23207-Moakley-St-20650/home/15319498,,,N,Y,38.3066587,-76.6404273
PAST SALE,,Single Family Residential,39994 Ben Morgan Rd,Leonardtown,MD,20650,465000,,3.0,,2540,20473,2010,,183,,,,,https://www.redfin.com/MD/Leonardtown/39994-Ben-Morgan-Rd-20650/home/15321259,,,N,Y,38.2700334,-76.6930553
PAST SALE,,Single Family Residential,41430 Breton Beach Rd,Leonardtown,MD,20650,405000,,2.0,,3422,130680,1996,,118,,,,,https://www.redfin.com/MD/Leonardtown/41430-Breton-Beach-Rd-20650/home/15319669,,,N,Y,38.2510348,-76.6450136
PAST SALE,,Single Family Residential,43854 Avon Way,Leonardtown,MD,20650,313000,,1.0,,2236,6250,1957,,140,,,,,https://www.redfin.com/MD/Leonardtown/43854-Avon-Way-20650/home/15324747,,,N,Y,38.1930063,-76.5586318
PAST SALE,March-18-2020,Single Family Residential,42550 Woodbury Pl,Leonardtown,MD,20650,389900,4,2.5,REDGATE,2606,50965,1998,627,150,,Sold,,,https://www.redfin.com/MD/Leonardtown/42550-Woodbury-Pl-20650/home/15320070,BRIGHT MLS,MDSM167696,N,Y,38.2452008,-76.6040558
PAST SALE,February-28-2019,Single Family Residential,41453 Dauber Way,Leonardtown,MD,20650,440000,5,3.5,LEONARD'S GRANT,3400,7637,2012,1011,129,56,Sold,,,https://www.redfin.com/MD/Leonardtown/41453-Dauber-Way-20650/home/40026283,BRIGHT MLS,MDSM157780,N,Y,38.3155642,-76.64364
PAST SALE,December-2-2019,Single Family Residential,23235 Spalding Ln,Leonardtown,MD,20650,233000,3,2.0,Leonardtown,1600,14810,1990,734,146,,Sold,,,https://www.redfin.com/MD/Leonardtown/23235-Spalding-Ln-20650/home/15322862,BRIGHT MLS,MDSM164140,N,Y,38.3067699,-76.6335773
PAST SALE,August-16-2021,Single Family Residential,41191 Breton Beach Rd,Leonardtown,MD,20650,705000,4,3.5,SEPTEMBER POINT,3941,2738617,2008,111,179,,Sold,,,https://www.redfin.com/MD/Leonardtown/41191-Breton-Beach-Rd-20650/home/17418155,BRIGHT MLS,MDSM170964,N,Y,38.2394637,-76.6489138
PAST SALE,February-28-2020,Single Family Residential,19070 Russell Rd,Valley Lee,MD,20692,636000,3,3.5,Valley Lee,3979,103673,2007,646,160,,Sold,,,https://www.redfin.com/MD/Valley-Lee/19070-Russell-Rd-20692/home/15324179,BRIGHT MLS,MDSM165714,N,Y,38.1896666,-76.5253742
PAST SALE,April-22-2021,Single Family Residential,23667 Rocky Ridge Ct,Leonardtown,MD,20650,349900,3,2.0,VALLI VIEW ESTATES,1881,52272,1991,227,186,,Sold,,,https://www.redfin.com/MD/Leonardtown/23667-Rocky-Ridge-Ct-20650/home/15320074,BRIGHT MLS,MDSM174672,N,Y,38.3186159,-76.676147
PAST SALE,January-15-2019,Single Family Residential,18943 Hodges Ln,Leonardtown,MD,20650,470000,4,3.0,HERRING CREEK ESTATES,1872,48352,1970,1055,251,,Sold,,,https://www.redfin.com/MD/Leonardtown/18943-Hodges-Ln-20650/home/15325226,BRIGHT MLS,MDSM104140,N,Y,38.1877167,-76.5410785
PAST SALE,July-6-2020,Single Family Residential,19968 Tower Hill Rd,Leonardtown,MD,20650,515000,4,3.5,TOWER HILL,4488,133294,1991,517,115,29,Sold,,,https://www.redfin.com/MD/Leonardtown/19968-Tower-Hill-Rd-20650/home/15325245,BRIGHT MLS,MDSM167848,N,Y,38.2168229,-76.5744763
PAST SALE,,Single Family Residential,21117 Woodmere Dr,Leonardtown,MD,20650,600000,,3.0,,1696,26571,1994,,354,,,,,https://www.redfin.com/MD/Leonardtown/21117-Woodmere-Dr-20650/home/15320333,,,N,Y,38.2481994,-76.6048123
PAST SALE,September-2-2021,Single Family Residential,42147 Saint Johns,Leonardtown,MD,20650,400000,3,2.0,Leonardtown,1340,19500,2021,94,299,,Sold,,,https://www.redfin.com/MD/Leonardtown/42147-St-Johns-Rd-20650/home/148509860,BRIGHT MLS,MDSM2000724,N,Y,38.3216999,-76.618007
PAST SALE,May-14-2020,Single Family Residential,19110 Poplar Hill Ln,Valley Lee,MD,20692,410000,4,2.5,Valley Lee,2819,230868,1985,570,145,,Sold,,,https://www.redfin.com/MD/Valley-Lee/19110-Poplar-Hill-Ln-20692/home/15324771,BRIGHT MLS,MDSM167890,N,Y,38.1919244,-76.5202978
PAST SALE,December-21-2020,Single Family Residential,22395 Gore St,Leonardtown,MD,20650,304900,3,1.5,ST CLEMENTS SHORES,1456,10000,1982,349,209,,Sold,,,https://www.redfin.com/MD/Leonardtown/22395-Gore-St-20650/home/23443097,BRIGHT MLS,MDSM172820,N,Y,38.2833352,-76.7054894
PAST SALE,,Single Family Residential,22033 Point Lookout Rd,Leonardtown,MD,20650,165000,,1.5,,1296,40000,1964,,127,,,,,https://www.redfin.com/MD/Leonardtown/22033-Point-Lookout-Rd-20650/home/15324941,,,N,Y,38.2408505,-76.5602469
PAST SALE,February-14-2020,Single Family Residential,43900 Lanedon Dr,Leonardtown,MD,20650,228000,2,2.0,LANEDON,1092,20000,2007,660,209,,Sold,,,https://www.redfin.com/MD/Leonardtown/43900-Lanedon-Dr-20650/home/15324591,BRIGHT MLS,MDSM166060,N,Y,38.195168,-76.5577865
PAST SALE,October-15-2021,Single Family Residential,43823 Bardmore Way,Leonardtown,MD,20650,429000,2,2.0,LANEDON,1330,21300,1948,51,323,,Sold,,,https://www.redfin.com/MD/Leonardtown/43823-Bardmore-Way-20650/home/15324632,BRIGHT MLS,MDSM2000932,N,Y,38.1945575,-76.5605058
PAST SALE,April-10-2019,Single Family Residential,43938 Lanedon Dr,Leonardtown,MD,20650,273000,4,3.0,LANEDON,1458,31568,1965,970,187,,Sold,,,https://www.redfin.com/MD/Leonardtown/43938-Lanedon-Dr-20650/home/15324581,BRIGHT MLS,1009949706,N,Y,38.1959881,-76.556477
PAST SALE,,Vacant Land,HODGES LN,LEONARDTOWN,MD,20650,50000,,,,,37897,,,,,,,,https://www.redfin.com/MD/LEONARDTOWN/HODGES-LN-20650/home/23449108,,,N,Y,38.184715,-76.540821
PAST SALE,,Single Family Residential,44848 Uncle Do Ln,Leonardtown,MD,20650,230000,,2.0,,1560,58370,1988,,147,,,,,https://www.redfin.com/MD/Leonardtown/44848-Uncle-Do-Ln-20650/home/167788297,,,N,Y,38.2066781,-76.5250728
PAST SALE,,Single Family Residential,22011 Point Lookout Rd,Leonardtown,MD,20650,130000,,1.0,,1305,40000,1961,,100,,,,,https://www.redfin.com/MD/Leonardtown/22011-Point-Lookout-Rd-20650/home/15325008,,,N,Y,38.2406459,-76.5596086
PAST SALE,,Vacant Land,SUNSET DR,LEONARDTOWN,MD,20650,45000,,,,,36966,,,,,,,,https://www.redfin.com/MD/LEONARDTOWN/SUNSET-DR-20650/home/23438956,,,N,Y,38.199589,-76.565374
PAST SALE,January-15-2021,Single Family Residential,43655 Potomac Shores Rd,Leonardtown,MD,20650,600000,3,2.0,GOSNELL POT SHORES,1578,19822,1969,324,380,,Sold,,,https://www.redfin.com/MD/Leonardtown/43655-Potomac-Shores-Rd-20650/home/15325007,BRIGHT MLS,MDSM174004,N,Y,38.1993695,-76.5665124
PAST SALE,,Single Family Residential,42187 Blacksmith Shop Rd,Leonardtown,MD,20650,189900,,1.0,,840,33105,1955,,226,,,,,https://www.redfin.com/MD/Leonardtown/42187-Blacksmith-Shop-Rd-20650/home/15322428,,,N,Y,38.2888062,-76.6171522
PAST SALE,December-4-2020,Single Family Residential,41485 Garrett Ct,Leonardtown,MD,20650,335000,3,2.5,SINGLETREE PUD,1840,10105,1997,366,182,,Sold,,,https://www.redfin.com/MD/Leonardtown/41485-Garrett-Ct-20650/home/15319904,BRIGHT MLS,MDSM174916,N,Y,38.3055123,-76.6412487
PAST SALE,April-30-2020,Single Family Residential,19065 Poplar Hill Ln,Valley Lee,MD,20692,630000,4,3.5,Valley Lee,3122,279220,1973,584,202,,Sold,,,https://www.redfin.com/MD/Valley-Lee/19065-Poplar-Hill-Ln-20692/home/23449127,BRIGHT MLS,MDSM167222,N,Y,38.1908935,-76.5237381
PAST SALE,October-30-2020,Single Family Residential,18921 Hodges Ln,Leonardtown,MD,20650,755000,4,3.0,HERRING CREEK ESTATES,5108,76230,2001,401,148,,Sold,,,https://www.redfin.com/MD/Leonardtown/18921-Hodges-Ln-20650/home/15324975,BRIGHT MLS,MDSM171810,N,Y,38.1866904,-76.5402656
PAST SALE,,Single Family Residential,18881 Hodges Ln,Leonardtown,MD,20650,325000,,2.0,,1458,39450,1968,,223,,,,,https://www.redfin.com/MD/Leonardtown/18881-Hodges-Ln-20650/home/15324925,,,N,Y,38.1862699,-76.5409127
PAST SALE,,Single Family Residential,18986 McKays Cove Ln,Leonardtown,MD,20650,235000,,1.5,,1316,85378,1979,,179,,,,,https://www.redfin.com/MD/Leonardtown/18986-McKays-Cove-Ln-20650/home/15324897,,,N,Y,38.1896105,-76.5505737
PAST SALE,January-31-2019,Single Family Residential,43865 Tarrywyle Way,Leonardtown,MD,20650,256100,3,2.0,LANEDON,1384,18750,1965,1039,185,,Sold,,,https://www.redfin.com/MD/Leonardtown/43865-Tarrywyle-Way-20650/home/15325244,BRIGHT MLS,1009976226,N,Y,38.194547,-76.5586749
PAST SALE,April-18-2019,Single Family Residential,43616 Abell Farm Way,Leonardtown,MD,20650,658000,3,3.0,Leonardtown,2251,50965,1956,962,292,,Sold,,,https://www.redfin.com/MD/Leonardtown/43616-Abell-Farm-Way-20650/home/23451541,BRIGHT MLS,MDSM157584,N,Y,38.2042198,-76.5678444
PAST SALE,December-21-2018,Single Family Residential,43620 Potomac Shores Rd,Leonardtown,MD,20650,615000,4,2.5,GOSNELL POT SHORES,2709,63598,1966,1080,227,,Sold,,,https://www.redfin.com/MD/Leonardtown/43620-Potomac-Shores-Rd-20650/home/15324321,BRIGHT MLS,1009935606,N,Y,38.2006981,-76.5680911
PAST SALE,,Single Family Residential,18830 McKays Beach Rd,Leonardtown,MD,20650,288000,,1.0,,993,22659,1950,,290,,,,,https://www.redfin.com/MD/Leonardtown/18830-McKays-Beach-Rd-20650/home/15325181,,,N,Y,38.185587,-76.5502907
PAST SALE,November-2-2020,Single Family Residential,19356 Gosnell Rd,Leonardtown,MD,20650,287000,4,2.5,GOSNELL POT SHORES,2806,20000,1968,398,102,,Sold,,,https://www.redfin.com/MD/Leonardtown/19356-Gosnell-Rd-20650/home/15325185,BRIGHT MLS,MDSM171574,N,Y,38.1991688,-76.5621204
PAST SALE,February-10-2021,Single Family Residential,19073 Glen Ellen Ave,Leonardtown,MD,20650,429900,3,1.5,LANEDON,1536,6200,1954,298,280,,Sold,,,https://www.redfin.com/MD/Leonardtown/19073-Glen-Ellen-Ave-20650/home/15324437,BRIGHT MLS,MDSM168262,N,Y,38.1915573,-76.5570401
PAST SALE,July-16-2021,Single Family Residential,21920 Point Lookout Rd,Leonardtown,MD,20650,365000,3,2.0,CHINGVILLE,1928,84942,1952,142,189,,Sold,,,https://www.redfin.com/MD/Leonardtown/21920-Point-Lookout-Rd-20650/home/15324311,BRIGHT MLS,MDSM176118,N,Y,38.2408431,-76.5565911
PAST SALE,August-13-2021,Single Family Residential,43939 Lanedon Dr,Leonardtown,MD,20650,325000,3,2.0,LANEDON,1628,20524,1972,114,200,,Sold,,,https://www.redfin.com/MD/Leonardtown/43939-Lanedon-Dr-20650/home/15324411,BRIGHT MLS,MDSM2000176,N,Y,38.1955411,-76.5561158
PAST SALE,November-10-2021,Single Family Residential,43640 Potomac Shores Rd,Leonardtown,MD,20650,475000,4,3.0,GOSNELL POT SHORES,2995,23542,1966,25,159,,Sold,,,https://www.redfin.com/MD/Leonardtown/43640-Potomac-Shores-Rd-20650/home/15324389,BRIGHT MLS,MDSM2001344,N,Y,38.2001856,-76.5666728
PAST SALE,,Vacant Land,MCKAYS BEACH RD,LEONARDTOWN,MD,20650,25000,,,,,6750,,,,,,,,https://www.redfin.com/MD/LEONARDTOWN/MCKAYS-BEACH-RD-20650/home/23446888,,,N,Y,38.183883,-76.549106
PAST SALE,June-7-2019,Single Family Residential,44186 Blake Creek Rd,Leonardtown,MD,20650,220000,5,2.5,Leonardtown,2928,239580,1991,912,75,,Sold,,,https://www.redfin.com/MD/Leonardtown/44186-Blake-Creek-Rd-20650/home/15324130,BRIGHT MLS,1001805270,N,Y,38.1974944,-76.5477127
PAST SALE,February-4-2019,Single Family Residential,43888 River View Ln,Leonardtown,MD,20650,230000,2,1.0,LANEDON,1100,15625,1992,1035,209,,Sold,,,https://www.redfin.com/MD/Leonardtown/43888-River-View-Dr-20650/home/15324192,BRIGHT MLS,MDSM137522,N,Y,38.194349,-76.558161
PAST SALE,April-22-2020,Single Family Residential,19889 Tower Hill Rd,Leonardtown,MD,20650,255000,3,2.0,TOWER HILL,1993,317988,1976,592,128,29,Sold,,,https://www.redfin.com/MD/Leonardtown/19889-Tower-Hill-Rd-20650/home/15324138,BRIGHT MLS,MDSM168004,N,Y,38.214445,-76.578688
PAST SALE,June-14-2021,Vacant Land,18941 Mckays Beach Rd,Leonardtown,MD,20650,299900,,,MCKAYS BEACH,,15848,,174,,,Sold,,,https://www.redfin.com/MD/Leonardtown/18941-McKays-Beach-Rd-20650/home/15324161,BRIGHT MLS,MDSM174610,N,Y,38.1882609,-76.5532979
PAST SALE,,Single Family Residential,44550 Blake Creek Rd,Leonardtown,MD,20650,435000,,4.0,,2669,523591,1998,,163,,,,,https://www.redfin.com/MD/Leonardtown/44550-Blake-Creek-Rd-20650/home/15323918,,,N,Y,38.1951739,-76.5370445
PAST SALE,June-1-2021,Single Family Residential,22386 Colton St,Leonardtown,MD,20650,285000,3,2.0,ST CLEMENTS SHORES,1096,14000,1992,187,260,,Sold,,,https://www.redfin.com/MD/Leonardtown/22386-Colton-St-20650/home/14741480,BRIGHT MLS,MDSM173680,N,Y,38.283079,-76.704208
PAST SALE,,Mobile/Manufactured Home,44656 Deerfield Rd,Leonardtown,MD,20650,90000,,2.0,,1296,104544,1992,,69,,,,,https://www.redfin.com/MD/Leonardtown/44656-Deerfield-Rd-20650/home/17418976,,,N,Y,38.2249091,-76.5327185
PAST SALE,November-10-2020,Vacant Land,14455 Finally Our Way,Leonardtown,MD,20650,140000,,,Leonardtown,,365904,,390,,,Sold,,,https://www.redfin.com/MD/Leonardtown/14455-Finally-Our-Way-20650/home/23455918,BRIGHT MLS,MDSM162318,N,Y,38.222131,-76.5335979
PAST SALE,April-2-2021,Single Family Residential,43692 Redmond Rd,Leonardtown,MD,20650,310000,3,2.0,Leonardtown,1392,54886,1988,247,223,,Sold,,,https://www.redfin.com/MD/Leonardtown/43692-Redmond-Rd-20650/home/15323958,BRIGHT MLS,MDSM2000000,N,Y,38.237682,-76.5644204
PAST SALE,May-18-2021,Vacant Land,Hodges Ln,Leonardtown,MD,20650,20000,,,HERRING CREEK ESTATES,,20000,,201,,,Sold,,,https://www.redfin.com/MD/LEONARDTOWN/HODGES-LN-20650/home/23441074,BRIGHT MLS,MDSM175240,N,Y,38.184721,-76.539678
PAST SALE,February-26-2021,Single Family Residential,22261 Point Lookout Rd,Leonardtown,MD,20650,286000,3,2.0,REDGATE,2368,38600,1973,282,121,,Sold,,,https://www.redfin.com/MD/Leonardtown/22261-Point-Lookout-Rd-20650/home/15320069,BRIGHT MLS,MDSM168122,N,Y,38.2428035,-76.5675426
PAST SALE,,Single Family Residential,44245 Medleys Neck Rd,Leonardtown,MD,20650,384000,,2.5,,2058,305356,1987,,187,,,,,https://www.redfin.com/MD/Leonardtown/44245-Medleys-Neck-Rd-20650/home/166834428,,,N,Y,38.2251099,-76.5450823
PAST SALE,June-4-2019,Single Family Residential,18866 Hodges Ln,Leonardtown,MD,20650,650000,5,5.5,HERRING CREEK ESTATES,4080,232175,2013,915,159,,Sold,,,https://www.redfin.com/MD/Leonardtown/18866-Hodges-Ln-20650/home/17419048,BRIGHT MLS,MDSM162532,N,Y,38.183875,-76.5376459
PAST SALE,June-1-2021,Vacant Land,18918 Hodges Ln,Leonardtown,MD,20650,80000,,,HERRING CREEK ESTATES,,88427,,187,,,Sold,,,https://www.redfin.com/MD/Leonardtown/18918-Hodges-Ln-20650/home/23445262,BRIGHT MLS,MDSM174952,N,Y,38.1875944,-76.5395037
PAST SALE,June-1-2021,Vacant Land,18932 Hodges Ln,Leonardtown,MD,20650,80000,,,HERRING CREEK ESTATES,,64469,,187,,,Sold,,,https://www.redfin.com/MD/Leonardtown/18932-Hodges-Ln-20650/home/23445264,BRIGHT MLS,MDSM174954,N,Y,38.1875861,-76.5394972
PAST SALE,June-28-2019,Vacant Land,Puppy Paw Path Way,Leonardtown,MD,20650,92980,,,Leonardtown,,217364,,891,,,Sold,,,https://www.redfin.com/MD/LEONARDTOWN/PUPPY-PAW-PATH-WAY-20650/home/23447060,BRIGHT MLS,MDSM161160,N,Y,38.220811,-76.537744
PAST SALE,October-11-2021,Single Family Residential,44445 Medleys Neck Rd,Leonardtown,MD,20650,429900,3,2.0,Leonardtown,2251,217364,1989,55,191,,Sold,,,https://www.redfin.com/MD/Leonardtown/44445-Medleys-Neck-Rd-20650/home/15323064,BRIGHT MLS,MDSM2001888,N,Y,38.2231405,-76.53996
PAST SALE,June-30-2020,Single Family Residential,20355 Dale Ln,Leonardtown,MD,20650,385000,4,3.0,Leonardtown,2042,87120,1989,523,189,,Sold,,,https://www.redfin.com/MD/Leonardtown/20355-Dale-Ln-20650/home/15323897,BRIGHT MLS,MDSM169024,N,Y,38.2268753,-76.5469491
PAST SALE,,Mobile/Manufactured Home,44485 Watson Ln,Leonardtown,MD,20650,50000,,2.0,,1296,131116,1980,,39,,,,,https://www.redfin.com/MD/Leonardtown/44485-Watson-Ln-20650/home/15323891,,,N,Y,38.2247727,-76.5372578
PAST SALE,September-11-2020,Single Family Residential,44504 Watson Ln,Leonardtown,MD,20650,325000,3,2.0,COX'S ENDEAVOR,2304,97574,2003,450,141,,Sold,,,https://www.redfin.com/MD/Leonardtown/44504-Watson-Ln-20650/home/15323044,BRIGHT MLS,MDSM170860,N,Y,38.2254972,-76.5358863
PAST SALE,,Single Family Residential,19190 Valley Ln,Leonardtown,MD,20650,370000,,2.0,,1800,44431,2020,,206,,,,,https://www.redfin.com/MD/Leonardtown/19190-Valley-Ln-20650/home/15325283,,,N,Y,38.1948057,-76.5293699
PAST SALE,October-29-2019,Single Family Residential,44956 Medleys Neck Rd,Leonardtown,MD,20650,375000,3,2.0,Leonardtown,2316,216493,1960,768,162,,Sold,,,https://www.redfin.com/MD/Leonardtown/44956-Medleys-Neck-Rd-20650/home/15323847,BRIGHT MLS,MDSM164930,N,Y,38.2178168,-76.5272836
PAST SALE,July-20-2020,Single Family Residential,19192 Nick Mattingly Ln,Valley Lee,MD,20692,316575,3,2.0,Valley Lee,1520,91476,1972,503,208,,Sold,,,https://www.redfin.com/MD/VALLEY-LEE/19192-NICK-MATTINGLY-LN-20692/home/15325266,BRIGHT MLS,MDSM169270,N,Y,38.193799,-76.522089
PAST SALE,,Single Family Residential,44145 Medleys Neck Rd,Leonardtown,MD,20650,333000,,2.0,,1326,157687,1991,,251,,,,,https://www.redfin.com/MD/Leonardtown/44145-Medleys-Neck-Rd-20650/home/15323734,,,N,Y,38.2260623,-76.5491833
PAST SALE,February-25-2021,Single Family Residential,20850 Deer Wood Park Dr,Leonardtown,MD,20650,416000,3,2.5,CHESTNUT HILLS,2142,118048,1994,283,194,20,Sold,,,https://www.redfin.com/MD/Leonardtown/20850-Deer-Wood-Park-Dr-20650/home/15322010,BRIGHT MLS,MDSM173748,N,Y,38.2409562,-76.5665261
PAST SALE,June-4-2021,Single Family Residential,20789 Deer Wood Park Dr,Leonardtown,MD,20650,555000,4,3.5,CHESTNUT HILLS,3440,90605,1997,184,161,22,Sold,,,https://www.redfin.com/MD/Leonardtown/20789-Deer-Wood-Park-Dr-20650/home/15323006,BRIGHT MLS,MDSM2000064,N,Y,38.2383351,-76.5632453
PAST SALE,August-14-2020,Single Family Residential,20810 Deer Wood Park Dr,Leonardtown,MD,20650,500000,5,3.5,CHESTNUT HILLS,4624,160301,1996,478,108,22,Sold,,,https://www.redfin.com/MD/Leonardtown/20810-Deer-Wood-Park-Dr-20650/home/15323601,BRIGHT MLS,MDSM170158,N,Y,38.2394998,-76.5633501
PAST SALE,June-30-2020,Single Family Residential,20780 Deer Wood Park Dr,Leonardtown,MD,20650,490000,4,2.5,CHESTNUT HILLS,4183,170320,1996,523,117,22,Sold,,,https://www.redfin.com/MD/Leonardtown/20780-Deer-Wood-Park-Dr-20650/home/15323600,BRIGHT MLS,MDSM169244,N,Y,38.2393972,-76.5620508
PAST SALE,June-26-2020,Single Family Residential,20770 Deer Wood Park Dr,Leonardtown,MD,20650,485000,4,3.5,CHESTNUT HILLS,4106,206910,1995,527,118,22,Sold,,,https://www.redfin.com/MD/Leonardtown/20770-Deer-Wood-Park-Dr-20650/home/15323009,BRIGHT MLS,MDSM166852,N,Y,38.2389877,-76.5612582
PAST SALE,October-1-2020,Vacant Land,19218 Eliff Ln,Valley Lee,MD,20692,69000,,,Valley Lee,,196020,,430,,,Sold,,,https://www.redfin.com/MD/VALLEY-LEE/19218-ELIFF-LN-20692/home/17418902,BRIGHT MLS,MDSM169638,N,Y,38.195741,-76.516578
PAST SALE,October-15-2021,Single Family Residential,43945 Main Way Rd,Leonardtown,MD,20650,375000,3,3.0,LANEDON,1741,20154,2006,51,215,,Sold,,,https://www.redfin.com/MD/Leonardtown/43945-Main-Way-Rd-20650/home/15322855,BRIGHT MLS,MDSM2002080,N,Y,38.1947204,-76.5560255
PAST SALE,April-13-2020,Single Family Residential,43901 Lanedon Dr,Leonardtown,MD,20650,258000,3,2.0,LANEDON,1400,20000,2005,601,184,,Sold,,,https://www.redfin.com/MD/Leonardtown/43901-Lanedon-Dr-20650/home/15321997,BRIGHT MLS,MDSM164418,N,Y,38.1946414,-76.5577865
PAST SALE,September-25-2019,Single Family Residential,44240 Maidens Ct,Leonardtown,MD,20650,425000,4,2.5,PINE LAKE,2866,162479,1996,802,148,,Sold,,,https://www.redfin.com/MD/Leonardtown/44240-Maidens-Ct-20650/home/15322837,BRIGHT MLS,MDSM162926,N,Y,38.2422077,-76.5454425
PAST SALE,September-27-2021,Single Family Residential,23250 Greenbrier Rd,Leonardtown,MD,20650,360000,4,2.5,Leonardtown,2472,17424,1945,69,146,,Sold,,,https://www.redfin.com/MD/Leonardtown/23250-Greenbrier-Rd-20650/home/15323151,BRIGHT MLS,MDSM2001034,N,Y,38.3071967,-76.6327199
PAST SALE,June-14-2019,Single Family Residential,20530 Deer Wood Park Dr,Leonardtown,MD,20650,465000,4,3.5,CHESTNUT HILLS,3538,101930,1997,905,131,,Sold,,,https://www.redfin.com/MD/Leonardtown/20530-Deer-Wood-Park-Dr-20650/home/15322631,BRIGHT MLS,MDSM166846,N,Y,38.2316175,-76.5648534
PAST SALE,April-9-2021,Single Family Residential,43525 Deer Run Ct,Leonardtown,MD,20650,495000,4,3.5,CHESTNUT HILLS,4336,202554,1997,240,114,22,Sold,,,https://www.redfin.com/MD/Leonardtown/43525-Deer-Run-Ct-20650/home/15322635,BRIGHT MLS,MDSM174716,N,Y,38.2343006,-76.5713521
PAST SALE,November-19-2019,Vacant Land,42323 Saint Johns Rd,Hollywood,MD,20636,315000,,,Hollywood,,1929708,,747,,,Sold,,,https://www.redfin.com/MD/Hollywood/42323-Saint-Johns-Rd-20636/home/168043660,BRIGHT MLS,MDSM100013,N,Y,38.318987,-76.612107
PAST SALE,September-24-2021,Single Family Residential,20623 Laurel Ct,Leonardtown,MD,20650,540000,5,3.5,CHESTNUT HILLS,3466,98446,1998,72,156,22,Sold,,,https://www.redfin.com/MD/Leonardtown/20623-Laurel-Ct-20650/home/15322797,BRIGHT MLS,MDSM2001124,N,Y,38.2317651,-76.5612393
PAST SALE,June-30-2021,Single Family Residential,20504 Deer Wood Park Dr,Leonardtown,MD,20650,535000,4,3.5,CHESTNUT HILLS,3988,156816,1998,158,134,22,Sold,,,https://www.redfin.com/MD/Leonardtown/20504-Deer-Wood-Park-Dr-20650/home/15322814,BRIGHT MLS,MDSM175310,N,Y,38.2289574,-76.5664012
PAST SALE,September-18-2020,Single Family Residential,20626 Laurel Ct,Leonardtown,MD,20650,509000,6,3.5,CHESTNUT HILLS,3982,124146,1998,443,128,21,Sold,,,https://www.redfin.com/MD/Leonardtown/20626-Laurel-Ct-20650/home/15322624,BRIGHT MLS,MDSM170626,N,Y,38.2317972,-76.5600536
PAST SALE,July-28-2021,Single Family Residential,20632 Laurel Ct,Leonardtown,MD,20650,509000,3,2.5,CHESTNUT HILLS,2936,89734,1998,130,173,22,Sold,,,https://www.redfin.com/MD/Leonardtown/20632-Laurel-Ct-20650/home/15322788,BRIGHT MLS,MDSM176812,N,Y,38.2326698,-76.5594782
PAST SALE,July-15-2021,Single Family Residential,21033 Camp Cosoma Rd,Leonardtown,MD,20650,716000,5,4.0,Leonardtown,3885,130680,1998,143,184,,Sold,,,https://www.redfin.com/MD/Leonardtown/21033-Camp-Cosoma-Rd-20650/home/15322795,BRIGHT MLS,MDSM176702,N,Y,38.245572,-76.5433332
PAST SALE,,Single Family Residential,44136 Woodmont Dr,Leonardtown,MD,20650,407000,,3.5,,2932,198198,1998,,139,,,,,https://www.redfin.com/MD/Leonardtown/44136-Woodmont-Dr-20650/home/15322777,,,N,Y,38.2270044,-76.5603943
PAST SALE,November-22-2021,Single Family Residential,44072 Woodmont Dr,Leonardtown,MD,20650,560000,5,3.5,CHESTNUT HILLS,2922,87991,2002,13,192,22,Sold,,,https://www.redfin.com/MD/Leonardtown/44072-Woodmont-Dr-20650/home/15322766,BRIGHT MLS,MDSM2000099,N,Y,38.2293725,-76.5573295
PAST SALE,November-16-2020,Single Family Residential,44146 Woodmont Dr,Leonardtown,MD,20650,535000,4,3.5,CHESTNUT HILLS,3982,103237,1998,384,134,22,Sold,,,https://www.redfin.com/MD/Leonardtown/44146-Woodmont-Dr-20650/home/15322778,BRIGHT MLS,MDSM172204,N,Y,38.2264396,-76.5611291
PAST SALE,May-14-2021,Single Family Residential,44738 Medleys Neck Rd,Leonardtown,MD,20650,500000,5,3.0,HARRY RALEY BASIC SUBD,3014,130680,2006,205,166,,Sold,,,https://www.redfin.com/MD/Leonardtown/44738-Medleys-Neck-Rd-20650/home/15322758,BRIGHT MLS,MDSM175046,N,Y,38.2176761,-76.5321143
PAST SALE,June-4-2021,Vacant Land,19855 Drummer Farm Ln,Leonardtown,MD,20650,115000,,,DRUMMER FARM,,123710,,184,,,Sold,,,https://www.redfin.com/MD/LEONARDTOWN/19855-DRUMMER-FARM-LN-20650/home/23437572,BRIGHT MLS,MDSM175870,N,Y,38.213007,-76.527612
PAST SALE,,Vacant Land,44865 DOT BANAGAN LN,LEONARDTOWN,MD,20650,170000,,,,,871200,,,,,,,,https://www.redfin.com/MD/LEONARDTOWN/44865-DOT-BANAGAN-LN-20650/home/39684345,,,N,Y,38.197622,-76.526927
PAST SALE,,Single Family Residential,39627 Osprey Pl,Leonardtown,MD,20650,50000,,1.0,,1656,14000,1926,,30,,,,,https://www.redfin.com/MD/Leonardtown/39627-Osprey-Pl-20650/home/15323189,,,N,Y,38.2826275,-76.7063264
PAST SALE,August-14-2020,Single Family Residential,40026 Ben Morgan Rd,Leonardtown,MD,20650,490000,4,2.0,Leonardtown,1664,49223,1930,478,294,,Sold,,,https://www.redfin.com/MD/Leonardtown/40026-Ben-Morgan-Rd-20650/home/15323194,BRIGHT MLS,MDSM170828,N,Y,38.2699089,-76.691971
PAST SALE,September-20-2021,Single Family Residential,21082 Parker Ln,Leonardtown,MD,20650,745220,3,2.5,Leonardtown,672,20037,2021,76,1109,,Sold,,,https://www.redfin.com/MD/Leonardtown/21082-Parker-Ln-20650/home/15323200,BRIGHT MLS,MDSM168092,N,Y,38.2468179,-76.6772556
PAST SALE,,Single Family Residential,25545 Point Lookout Rd,Leonardtown,MD,20650,180000,,1.5,,1772,17124,1953,,102,,,,,https://www.redfin.com/MD/Leonardtown/25545-Point-Lookout-Rd-20650/home/15321702,,,N,Y,38.299354,-76.6415194
PAST SALE,March-19-2021,Single Family Residential,23538 Hollywood Rd,Leonardtown,MD,20650,372800,5,2.0,Leonardtown,2600,17157,1947,261,143,,Sold,,,https://www.redfin.com/MD/Leonardtown/23538-Hollywood-Rd-20650/home/15319054,BRIGHT MLS,MDSM172810,N,Y,38.3152216,-76.6299347
PAST SALE,,Mobile/Manufactured Home,44560 Montana Way,Leonardtown,MD,20650,250000,,2.0,,1040,653400,1998,,240,,,,,https://www.redfin.com/MD/Leonardtown/44560-Montana-Way-20650/home/17534444,,,N,Y,38.23026,-76.532441
PAST SALE,February-12-2021,Single Family Residential,20870 Redgate Ln,Leonardtown,MD,20650,219000,2,1.0,Leonardtown,840,87120,1955,296,261,,Sold,,,https://www.redfin.com/MD/Leonardtown/20870-Redgate-Ln-20650/home/15323362,BRIGHT MLS,MDSM172184,N,Y,38.2410687,-76.5830167
PAST SALE,July-15-2021,Single Family Residential,22383 Gore St,Leonardtown,MD,20650,300000,5,2.0,ST CLEMENTS SHORES,1504,12000,1947,143,199,,Sold,,,https://www.redfin.com/MD/Leonardtown/22383-Gore-St-20650/home/15321691,BRIGHT MLS,MDSM176192,N,Y,38.2830373,-76.7057149
PAST SALE,July-19-2021,Single Family Residential,22765 Lawrence Ave,Leonardtown,MD,20650,237000,3,1.0,WEST LEONARDTOWN,1188,5850,1945,139,199,,Sold,,,https://www.redfin.com/MD/Leonardtown/22765-Lawrence-Ave-20650/home/15323167,BRIGHT MLS,MDSM176448,N,Y,38.2936879,-76.6379997
PAST SALE,,Single Family Residential,40862 Spring House Ln,Leonardtown,MD,20650,300000,,1.5,,1797,21780,1962,,167,,,,,https://www.redfin.com/MD/Leonardtown/40862-Spring-House-Ln-20650/home/15323170,,,N,Y,38.2661358,-76.6634895
PAST SALE,June-17-2020,Single Family Residential,22264 Nomoni St,Leonardtown,MD,20650,194000,3,1.0,ST CLEMENTS SHORES,864,6000,1983,536,225,,Sold,,,https://www.redfin.com/MD/Leonardtown/22264-Nomoni-St-20650/home/15323350,BRIGHT MLS,MDSM168344,N,Y,38.2790886,-76.7048129
PAST SALE,March-22-2019,Single Family Residential,40829 Cooper Dr,Leonardtown,MD,20650,365000,3,3.0,BRETON BAY ESTS,2106,23700,1976,989,173,,Sold,,,https://www.redfin.com/MD/Leonardtown/40829-Cooper-Dr-20650/home/15323168,BRIGHT MLS,MDSM138226,N,Y,38.2854749,-76.6643051
PAST SALE,November-2-2021,Single Family Residential,40843 Cooper Dr,Leonardtown,MD,20650,490000,5,3.0,BRETON BAY ESTS,4126,20013,1984,33,119,,Sold,,,https://www.redfin.com/MD/Leonardtown/40843-Cooper-Dr-20650/home/15321692,BRIGHT MLS,MDSM2001008,N,Y,38.2858068,-76.6636735
PAST SALE,April-7-2021,Single Family Residential,39563 Potomac Ave,Leonardtown,MD,20650,479900,2,2.0,ST CLEMENTS SHORES,1494,8000,1977,242,321,,Sold,,,https://www.redfin.com/MD/Leonardtown/39563-Potomac-Ave-20650/home/15321681,BRIGHT MLS,MDSM173430,N,Y,38.2806831,-76.7088269
PAST SALE,,Single Family Residential,41705 Eldon Ct,Leonardtown,MD,20650,265000,,2.0,,1753,10000,1987,,151,,,,,https://www.redfin.com/MD/Leonardtown/41705-Eldon-Ct-20650/home/15320895,,,N,Y,38.3005741,-76.6331711
PAST SALE,November-13-2020,Single Family Residential,40846 Cooper Dr,Leonardtown,MD,20650,359900,3,2.5,BRETON BAY ESTS,2210,23360,1976,387,163,,Sold,,,https://www.redfin.com/MD/Leonardtown/40846-Cooper-Dr-20650/home/15323154,BRIGHT MLS,MDSM171624,N,Y,38.2863397,-76.6638443
PAST SALE,July-8-2021,Single Family Residential,22775 Longmore St,Leonardtown,MD,20650,280000,3,2.0,Leonardtown,1056,8042,1976,150,265,,Sold,,,https://www.redfin.com/MD/Leonardtown/22775-Longmore-St-20650/home/15323153,BRIGHT MLS,MDSM176228,N,Y,38.2938404,-76.6396693
PAST SALE,,Other,22445 Archer St,Leonardtown,MD,20650,100000,,2.0,,1344,44170,2020,,74,,,,,https://www.redfin.com/MD/Leonardtown/22445-Archer-St-20650/home/23451213,,,N,Y,38.2828633,-76.7006702
PAST SALE,,Single Family Residential,21383 Bogies Ln,Leonardtown,MD,20650,400000,,2.0,,1680,337154,1972,,238,,,,,https://www.redfin.com/MD/Leonardtown/21383-Bogies-Ln-20650/home/17418676,,,N,Y,38.256889,-76.616035
PAST SALE,January-15-2021,Single Family Residential,23335 Greenbrier Rd,Leonardtown,MD,20650,390000,3,2.0,Leonardtown,1880,18252,2020,324,207,,Sold,,,https://www.redfin.com/MD/Leonardtown/23335-Greenbrier-Rd-20650/home/15323135,BRIGHT MLS,MDSM173434,N,Y,38.3089342,-76.6359488
PAST SALE,October-2-2020,Single Family Residential,40827 Lake And Breton View Dr,Leonardtown,MD,20650,380000,4,2.0,BRETON BAY ESTS,2524,29185,1969,429,151,,Sold,,,https://www.redfin.com/MD/Leonardtown/40827-Lake-and-Breton-View-Dr-20650/home/15322735,BRIGHT MLS,MDSM170818,N,Y,38.2619913,-76.6638289
PAST SALE,October-28-2020,Single Family Residential,23051 Brown Rd,Leonardtown,MD,20650,105000,3,3.0,Leonardtown,1740,224770,1973,403,60,,Sold,,,https://www.redfin.com/MD/Leonardtown/23051-Brown-Rd-20650/home/15322742,BRIGHT MLS,MDSM170098,N,Y,38.3009142,-76.5934714
PAST SALE,July-12-2019,Single Family Residential,41392 Doctors Crossing Rd,Leonardtown,MD,20650,439000,4,2.5,CLARK'S REST   PHASE 1,2810,7841,2017,877,156,42,Sold,,,https://www.redfin.com/MD/Leonardtown/41392-Doctors-Crossing-Rd-20650/home/110110947,BRIGHT MLS,MDSM162198,N,Y,38.3033725,-76.6453772
PAST SALE,March-31-2021,Single Family Residential,22810 Longmore St,Leonardtown,MD,20650,301000,3,2.0,Leonardtown,1340,5760,2017,249,225,,Sold,,,https://www.redfin.com/MD/Leonardtown/22810-Longmore-St-20650/home/17418259,BRIGHT MLS,MDSM174492,N,Y,38.2943687,-76.6391348
PAST SALE,December-1-2020,Single Family Residential,44350 Richey Rd,Valley Lee,MD,20692,495000,3,3.0,Valley Lee,3272,87120,1978,369,151,,Sold,,,https://www.redfin.com/MD/Valley-Lee/44350-Richey-Rd-20692/home/15325300,BRIGHT MLS,MDSM172008,N,Y,38.2054643,-76.5421661
PAST SALE,August-26-2020,Single Family Residential,43935 Main Way Rd,Leonardtown,MD,20650,305000,3,3.0,LANEDON,1644,20154,2007,466,186,,Sold,,,https://www.redfin.com/MD/Leonardtown/43935-Main-Way-Rd-20650/home/15325302,BRIGHT MLS,MDSM170706,N,Y,38.1947109,-76.5560294
PAST SALE,August-23-2019,Townhouse,41704 Courthouse Dr,Leonardtown,MD,20650,195000,4,2.5,COURT PLAZA TOWNHOUSES,1920,1780,1985,835,102,,Sold,,,https://www.redfin.com/MD/Leonardtown/41704-Court-House-Dr-20650/home/15321485,BRIGHT MLS,MDSM163598,N,Y,38.2896477,-76.633848
PAST SALE,July-17-2019,Single Family Residential,19141 Lake Dr,Leonardtown,MD,20650,315000,4,2.5,LANEDON,2214,6250,2005,872,142,,Sold,,,https://www.redfin.com/MD/Leonardtown/19141-Lake-Dr-20650/home/15325328,BRIGHT MLS,MDSM162514,N,Y,38.1930641,-76.5573068
PAST SALE,,Single Family Residential,43919 Barnegate Way,Leonardtown,MD,20650,53500,,1.0,,950,12500,1961,,56,,,,,https://www.redfin.com/MD/Leonardtown/43919-Barnegate-Way-20650/home/15324848,,,N,Y,38.1922947,-76.5569203
PAST SALE,July-29-2020,Single Family Residential,22595 Bull Rd,Leonardtown,MD,20650,289900,3,2.0,Leonardtown,1488,41382,1989,494,195,,Sold,,,https://www.redfin.com/MD/Leonardtown/22595-Bull-Rd-20650/home/15322425,BRIGHT MLS,MDSM169816,N,Y,38.2878082,-76.6717252
PAST SALE,January-11-2019,Single Family Residential,21120 Someday Farm Ln,Leonardtown,MD,20650,400000,4,3.5,SCHUMACHER SUBD.,2816,47480,1990,1059,142,,Sold,,,https://www.redfin.com/MD/Leonardtown/21120-Someday-Farm-Ln-20650/home/17298123,BRIGHT MLS,MDSM100288,N,Y,38.2477433,-76.5432326
PAST SALE,September-10-2021,Single Family Residential,21966 Point Lookout Rd,Leonardtown,MD,20650,393000,3,2.0,Leonardtown,1680,68825,2016,86,234,,Sold,,,https://www.redfin.com/MD/Leonardtown/21966-Point-Lookout-Rd-20650/home/15325593,BRIGHT MLS,MDSM2001322,N,Y,38.2413104,-76.5585779
PAST SALE,,Single Family Residential,43858 Avon Way,Leonardtown,MD,20650,137000,,1.0,,684,6250,1956,,200,,,,,https://www.redfin.com/MD/Leonardtown/43858-Avon-Way-20650/home/15325914,,,N,Y,38.1931452,-76.5587327
PAST SALE,,Multi-Family (5+ Unit),22695 Washington St,Leonardtown,MD,20650,875000,,,,3450,14003,1946,,254,,,,,https://www.redfin.com/MD/Leonardtown/22695-Washington-St-20650/home/110111641,,,N,Y,38.2908103,-76.6365556
PAST SALE,,Single Family Residential,44444 Richey Rd,Leonardtown,MD,20650,335000,,2.5,,2824,217800,1969,,119,,,,,https://www.redfin.com/MD/Leonardtown/44444-Richey-Rd-20650/home/15325058,,,N,Y,38.2051792,-76.5392343
PAST SALE,May-3-2019,Single Family Residential,19183 Valley Ln,Leonardtown,MD,20650,207500,3,1.0,DUKES RETREAT,1352,99881,1973,947,153,,Sold,,,https://www.redfin.com/MD/Leonardtown/19183-Valley-Ln-20650/home/15325362,BRIGHT MLS,MDSM155880,N,Y,38.1944976,-76.5304204
PAST SALE,,Single Family Residential,23604 Gunnell Dr,Leonardtown,MD,20650,410000,,2.5,,2950,15811,2005,,139,,,,,https://www.redfin.com/MD/Leonardtown/23604-Gunnell-Dr-20650/home/15297919,,,N,Y,38.3168171,-76.6698091
PAST SALE,,Vacant Land,TOWER HILL RD,LEONARDTOWN,MD,20650,14700,,,,,221720,,,,,,,,https://www.redfin.com/MD/LEONARDTOWN/TOWER-HILL-RD-20650/home/23451552,,,N,Y,38.215967,-76.57673
PAST SALE,,Single Family Residential,21676 Potomac View Dr,Leonardtown,MD,20650,415000,,2.5,,3038,20037,1988,,137,,,,,https://www.redfin.com/MD/Leonardtown/21676-Potomac-View-Dr-20650/home/15321541,,,N,Y,38.2633776,-76.6608745
PAST SALE,June-21-2019,Single Family Residential,22229 Archer St,Leonardtown,MD,20650,230000,2,2.5,ST CLEMENTS SHORES,920,8428,1950,898,250,,Sold,,,https://www.redfin.com/MD/Leonardtown/22229-Archer-St-20650/home/15322672,BRIGHT MLS,MDSM162234,N,Y,38.2787646,-76.7065719
PAST SALE,,Single Family Residential,19754 Tower Hill Rd,Leonardtown,MD,20650,740000,,3.5,,3938,178596,1975,,188,,,,,https://www.redfin.com/MD/Leonardtown/19754-Tower-Hill-Rd-20650/home/15325670,,,N,Y,38.2087655,-76.5813478
PAST SALE,June-27-2019,Single Family Residential,18962 Mckays Cove Ln,Leonardtown,MD,20650,310000,3,2.0,MCKAYS BEACH,2078,16552,1967,892,149,,Sold,,,https://www.redfin.com/MD/Leonardtown/18962-McKays-Cove-Ln-20650/home/15325635,BRIGHT MLS,MDSM161750,N,Y,38.1884568,-76.5498843
PAST SALE,,Single Family Residential,23243 Clarks Rest Rd,Leonardtown,MD,20650,545000,5,3.5,,2985,13353,2014,,183,,,,,https://www.redfin.com/MD/Leonardtown/23243-Clarks-Rest-Rd-20650/home/44643762,,,N,Y,38.3050631,-76.6472632
PAST SALE,February-28-2019,Single Family Residential,40194 Folly Cove Ln,Leonardtown,MD,20650,387000,3,3.0,Leonardtown,3532,54886,1973,1011,110,,Sold,,,https://www.redfin.com/MD/Leonardtown/40194-Folly-Cove-Ln-20650/home/15322257,BRIGHT MLS,1007546714,N,Y,38.2701868,-76.6861845
PAST SALE,April-28-2021,Single Family Residential,41700 Mattingly St,Leonardtown,MD,20650,290000,3,2.0,LEONARDTOWN TOWN CENTER,1860,21693,1952,221,156,,Sold,,,https://www.redfin.com/MD/Leonardtown/41700-Mattingly-St-20650/home/15322250,BRIGHT MLS,MDSM174996,N,Y,38.3046664,-76.6335773
PAST SALE,June-26-2020,Single Family Residential,22745 Lawrence Ave,Leonardtown,MD,20650,178000,3,1.0,Leonardtown,1288,5850,1945,527,138,,Sold,,,https://www.redfin.com/MD/Leonardtown/22745-Lawrence-Ave-20650/home/15323278,BRIGHT MLS,MDSM168864,N,Y,38.2933695,-76.6380448
PAST SALE,July-12-2019,Single Family Residential,22359 Armstrong Dr,Leonardtown,MD,20650,310000,3,2.5,BRETON BAY ESTS,2027,25154,1974,877,153,,Sold,,,https://www.redfin.com/MD/Leonardtown/22359-Armstrong-Dr-20650/home/15322288,BRIGHT MLS,MDSM162074,N,Y,38.2821542,-76.6635832
PAST SALE,October-17-2019,Vacant Land,,Leonardtown,MD,20650,10000,,,HOLLYWOOD RD,,42688,,780,,,Sold,,,https://www.redfin.com/MD/Leonardtown/Unknown-20650/home/170061313,BRIGHT MLS,MDSM164560,N,Y,38.31972798,-76.62752141
PAST SALE,,Single Family Residential,22530 Washington St,Leonardtown,MD,20650,410000,,2.0,,2544,10022,1910,,161,,,,,https://www.redfin.com/MD/Leonardtown/22530-Washington-St-20650/home/44644076,,,N,Y,38.286841,-76.6379405
PAST SALE,,Vacant Land,POTOMAC SHORES DR,LEONARDTOWN,MD,20650,75000,,,,,19546,,,,,,,,https://www.redfin.com/MD/LEONARDTOWN/POTOMAC-SHORES-DR-20650/home/23449292,,,N,Y,38.199537,-76.565815
PAST SALE,March-27-2019,Single Family Residential,22373 Armstrong Dr,Leonardtown,MD,20650,190000,3,1.5,BRETON BAY ESTS,912,27319,1973,984,208,,Sold,,,https://www.redfin.com/MD/Leonardtown/22373-Armstrong-Dr-20650/home/15322165,BRIGHT MLS,1008353120,N,Y,38.2824936,-76.6637186
PAST SALE,August-30-2019,Vacant Land,40467 Old Breton Beach Rd,Leonardtown,MD,20650,93000,,,CHAPPELEARS SUBDIVISION,,14800,,828,,,Sold,,,https://www.redfin.com/MD/Leonardtown/40467-Old-Breton-Beach-Rd-20650/home/15322254,BRIGHT MLS,MDSM161536,N,Y,38.234615,-76.678022
PAST SALE,,Single Family Residential,22513 Armstrong Dr,Leonardtown,MD,20650,301100,,2.0,,1454,26615,2002,,207,,,,,https://www.redfin.com/MD/Leonardtown/22513-Armstrong-Dr-20650/home/15323282,,,N,Y,38.2861849,-76.6665593
PAST SALE,May-26-2021,Single Family Residential,22407 Enoch Rd,Leonardtown,MD,20650,430000,5,3.0,BRETON BAY ESTS,2483,22862,1973,193,173,,Sold,,,https://www.redfin.com/MD/Leonardtown/22407-Enoch-Rd-20650/home/15322180,BRIGHT MLS,MDSM175662,N,Y,38.2834967,-76.666934
PAST SALE,,Single Family Residential,22326 Enoch Rd,Leonardtown,MD,20650,310000,,2.0,,1664,21875,1973,,186,,,,,https://www.redfin.com/MD/Leonardtown/22326-Enoch-Rd-20650/home/15322265,,,N,Y,38.2814962,-76.6657768
PAST SALE,January-27-2020,Single Family Residential,22717 Point Lookout Rd,Leonardtown,MD,20650,195000,3,2.0,Leonardtown,1243,43560,1947,678,157,,Sold,,,https://www.redfin.com/MD/Leonardtown/22717-Point-Lookout-Rd-20650/home/15322905,BRIGHT MLS,MDSM166324,N,Y,38.2449583,-76.5830049
PAST SALE,,Single Family Residential,21616 Rosalie Way,Leonardtown,MD,20650,195000,,1.0,,920,27007,1950,,212,,,,,https://www.redfin.com/MD/Leonardtown/21616-Rosalie-Way-20650/home/15322155,,,N,Y,38.2613025,-76.6862462
PAST SALE,,Single Family Residential,20720 Waterside Dr,Leonardtown,MD,20650,385125,,1.0,,1180,23042,1930,,326,,,,,https://www.redfin.com/MD/Leonardtown/20720-Waterside-Dr-20650/home/17418811,,,N,Y,38.2371153,-76.686692
PAST SALE,September-23-2020,Single Family Residential,41211 Medleys Neck Rd,Leonardtown,MD,20650,261000,4,2.0,MEDLEYS NECK,2516,31517,1972,438,104,,Sold,,,https://www.redfin.com/MD/Leonardtown/41211-Medleys-Neck-Rd-20650/home/15323079,BRIGHT MLS,MDSM171000,N,Y,38.2656417,-76.6172525
PAST SALE,February-15-2019,Single Family Residential,42437 Riverwinds Dr,Leonardtown,MD,20650,679000,5,3.0,RIVERSIDE,3096,45302,1955,1024,219,,Sold,,,https://www.redfin.com/MD/Leonardtown/42437-Riverwinds-Dr-20650/home/15322146,BRIGHT MLS,MDSM137966,N,Y,38.2196081,-76.6082764
PAST SALE,August-24-2020,Single Family Residential,40435 Wathen Rd,Leonardtown,MD,20650,585000,5,4.0,Leonardtown,4000,27007,2019,468,146,,Sold,,,https://www.redfin.com/MD/Leonardtown/40435-Wathen-Rd-20650/home/15322899,BRIGHT MLS,MDSM170200,N,Y,38.2952342,-76.6772316
PAST SALE,March-12-2021,Single Family Residential,22148 Breton St,Leonardtown,MD,20650,369000,4,2.5,ST CLEMENTS SHORES,2102,18981,2006,268,176,,Sold,,,https://www.redfin.com/MD/Leonardtown/22148-Breton-St-20650/home/15322898,BRIGHT MLS,MDSM171820,N,Y,38.2774965,-76.7053992
PAST SALE,April-23-2021,Vacant Land,22183 Wicomico St,Leonardtown,MD,20650,60000,,,ST CLEMENTS SHORES,,12431,,226,,,Sold,,,https://www.redfin.com/MD/Leonardtown/22183-Wicomico-St-20650/home/17418595,BRIGHT MLS,MDSM171780,N,Y,38.277793,-76.705535
PAST SALE,May-15-2019,Mobile/Manufactured Home,40111 Heavens Way,Leonardtown,MD,20650,22500,2,1.0,Leonardtown,560,21780,1950,935,40,,Sold,,,https://www.redfin.com/MD/Leonardtown/40111-Heavens-Way-20650/home/15322897,BRIGHT MLS,1000072991,N,Y,38.3098162,-76.6852373
PAST SALE,June-27-2019,Single Family Residential,22367 Cedar St,Leonardtown,MD,20650,216900,3,2.0,ST CLEMENTS SHORES,1568,10000,1965,892,138,,Sold,,,https://www.redfin.com/MD/Leonardtown/22367-Cedar-St-20650/home/15322883,BRIGHT MLS,1010015254,N,Y,38.2822903,-76.7044972
PAST SALE,December-3-2019,Single Family Residential,23727 Hollywood Rd,Leonardtown,MD,20650,157500,3,1.0,LEONARDTOWN,1103,43560,1940,733,143,,Sold,,,https://www.redfin.com/MD/Leonardtown/23727-Hollywood-Rd-20650/home/15323074,BRIGHT MLS,MDSM164480,N,Y,38.3207182,-76.627342
PAST SALE,November-7-2019,Single Family Residential,40987 Lake And Breton View Dr,Leonardtown,MD,20650,299000,3,2.5,BRETON BAY ESTS,1364,23958,1970,759,219,,Sold,,,https://www.redfin.com/MD/Leonardtown/40987-Lake-and-Breton-View-Dr-20650/home/15322140,BRIGHT MLS,MDSM165526,N,Y,38.260346,-76.666978
PAST SALE,,Vacant Land,SAINT ANDREWS CHURCH RD,LEONARDTOWN,MD,20650,58000,,,,,178596,,,,,,,,https://www.redfin.com/MD/LEONARDTOWN/SAINT-ANDREWS-CHURCH-RD-20650/home/23445282,,,N,Y,38.285096,-76.589074
PAST SALE,October-12-2020,Single Family Residential,23633 Hollywood Rd,Leonardtown,MD,20650,350000,3,2.5,Leonardtown,2209,80586,1966,419,158,,Sold,,,https://www.redfin.com/MD/Leonardtown/23633-Hollywood-Rd-20650/home/15322128,BRIGHT MLS,MDSM169838,N,Y,38.3171906,-76.630125
PAST SALE,May-24-2021,Single Family Residential,23388 Maypole Rd,Leonardtown,MD,20650,426000,3,2.5,Leonardtown,2289,99752,1968,195,186,,Sold,,,https://www.redfin.com/MD/Leonardtown/23388-Maypole-Rd-20650/home/15322125,BRIGHT MLS,MDSM175138,N,Y,38.3103718,-76.6568346
PAST SALE,October-14-2021,Single Family Residential,22350 Colton St,Leonardtown,MD,20650,280000,4,3.0,ST CLEMENTS SHORES,2016,11400,1996,52,139,,Sold,,,https://www.redfin.com/MD/Leonardtown/22350-Colton-St-20650/home/23444190,BRIGHT MLS,MDSM2001268,N,Y,38.2820443,-76.7051737
PAST SALE,June-28-2019,Single Family Residential,41710 Mattingly St,Leonardtown,MD,20650,270000,3,2.0,Leonardtown,1728,14606,1952,891,156,,Sold,,,https://www.redfin.com/MD/Leonardtown/41710-Mattingly-St-20650/home/15321612,BRIGHT MLS,1009911776,N,Y,38.304549,-76.6332614
PAST SALE,October-15-2021,Single Family Residential,41318 Medleys Neck Rd,Leonardtown,MD,20650,335000,4,2.5,LEONARDTOWN,2442,69260,1965,51,137,,Sold,,,https://www.redfin.com/MD/Leonardtown/41318-Medleys-Neck-Rd-20650/home/15322890,BRIGHT MLS,MDSM2000430,N,Y,38.2619738,-76.6185576
PAST SALE,October-8-2021,Vacant Land,42210 Saint Andrews Church Rd,Leonardtown,MD,20650,40000,,,Leonardtown,,29620,,58,,,Sold,,,https://www.redfin.com/MD/Leonardtown/42210-St-Andrews-Church-Rd-20650/home/15322888,BRIGHT MLS,MDSM2000456,N,Y,38.287658,-76.6163995
PAST SALE,,Single Family Residential,40021 Ben Morgan Rd,Leonardtown,MD,20650,680000,,2.0,,2616,152896,1930,,260,,,,,https://www.redfin.com/MD/Leonardtown/40021-Ben-Morgan-Rd-20650/home/15323541,,,N,Y,38.269264,-76.692053
PAST SALE,May-28-2021,Single Family Residential,40813 Meadow Dr,Leonardtown,MD,20650,550000,5,4.0,BRETON BAY ESTS,3408,32670,1983,191,161,,Sold,,,https://www.redfin.com/MD/Leonardtown/40813-Meadow-Dr-20650/home/17418522,BRIGHT MLS,MDSM175456,N,Y,38.2653249,-76.665443
PAST SALE,June-17-2021,Single Family Residential,41620 Church St,Leonardtown,MD,20650,305500,3,2.0,DENT,1632,6534,1940,171,187,,Sold,,,https://www.redfin.com/MD/Leonardtown/41620-Church-St-20650/home/15323460,BRIGHT MLS,MDSM175718,N,Y,38.2952216,-76.6369166
PAST SALE,June-12-2020,Single Family Residential,40616 Eddie Nelson Rd,Leonardtown,MD,20650,268000,3,2.0,Leonardtown,2056,21780,1969,541,130,,Sold,,,https://www.redfin.com/MD/Leonardtown/40616-Eddie-Nelson-Rd-20650/home/15321585,BRIGHT MLS,MDSM168624,N,Y,38.3130456,-76.6709225
PAST SALE,August-14-2020,Single Family Residential,21689 Rose Bank Rd,Leonardtown,MD,20650,650000,3,1.0,Leonardtown,1448,223027,1958,478,449,,Sold,,,https://www.redfin.com/MD/Leonardtown/21689-Rosebank-Rd-20650/home/15322219,BRIGHT MLS,MDSM170412,N,Y,38.2642881,-76.6866356
PAST SALE,January-4-2021,Single Family Residential,22380 Enoch Rd,Leonardtown,MD,20650,380000,4,3.5,BRETON BAY ESTS,2543,21085,1975,335,149,,Sold,,,https://www.redfin.com/MD/Leonardtown/22380-Enoch-Rd-20650/home/15321579,BRIGHT MLS,MDSM172786,N,Y,38.2830225,-76.666278
PAST SALE,May-31-2019,Single Family Residential,39690 Compton St,Leonardtown,MD,20650,199000,3,2.0,ST CLEMENTS SHORES,2080,8000,1985,919,96,,Sold,,,https://www.redfin.com/MD/Leonardtown/39690-Compton-St-20650/home/15322677,BRIGHT MLS,MDSM158406,N,Y,38.2784235,-76.703956
PAST SALE,October-15-2020,Single Family Residential,21864 Joe Hazel Rd,Compton,MD,20627,312900,3,2.0,Compton,1624,60113,2012,416,193,,Sold,,,https://www.redfin.com/MD/COMPTON/21864-JOE-HAZEL-RD-20627/home/15321307,BRIGHT MLS,MDSM171490,N,Y,38.268569,-76.695242
PAST SALE,July-19-2019,Single Family Residential,42021 Medleys Neck Rd,Leonardtown,MD,20650,219900,3,2.0,Leonardtown,1776,46609,1977,870,124,,Sold,,,https://www.redfin.com/MD/Leonardtown/42021-Medleys-Neck-Rd-20650/home/15321957,BRIGHT MLS,MDSM162158,N,Y,38.2581878,-76.62304
PAST SALE,,Single Family Residential,23310 Hollywood Rd,Leonardtown,MD,20650,340000,,2.0,,1712,33541,1958,,199,,,,,https://www.redfin.com/MD/Leonardtown/23310-Hollywood-Rd-20650/home/15322688,,,N,Y,38.3083711,-76.6310194
PAST SALE,June-12-2020,Single Family Residential,40325 Drury Ln,Leonardtown,MD,20650,500000,3,2.0,ROSEBANK,2260,42688,1976,541,221,,Sold,,,https://www.redfin.com/MD/Leonardtown/40325-Drury-Ln-20650/home/15322552,BRIGHT MLS,MDSM167220,N,Y,38.2659821,-76.6812637
PAST SALE,January-29-2021,Single Family Residential,21854 Potomac View Dr,Leonardtown,MD,20650,325000,4,2.5,BRETON BAY ESTS,2056,44431,1973,310,158,,Sold,,,https://www.redfin.com/MD/Leonardtown/21854-Potomac-View-Dr-20650/home/15322575,BRIGHT MLS,MDSM173050,N,Y,38.2687547,-76.6631806
PAST SALE,,Single Family Residential,41275 Medleys Neck Rd,Leonardtown,MD,20650,136000,,3.0,,2042,231304,1940,,67,,,,,https://www.redfin.com/MD/Leonardtown/41275-Medleys-Neck-Rd-20650/home/15323284,,,N,Y,38.2653905,-76.6228277
PAST SALE,July-23-2021,Single Family Residential,23325 Greenbrier Rd,Leonardtown,MD,20650,395000,3,2.0,GREENBRIER,,21359,2021,135,,,Sold,,,https://www.redfin.com/MD/Leonardtown/23325-Greenbrier-Rd-20650/home/15322524,BRIGHT MLS,MDSM176916,N,Y,38.3082893,-76.6349988
PAST SALE,,Single Family Residential,25585 Point Lookout Rd,Leonardtown,MD,20650,250000,,1.5,,2072,16850,1951,,121,,,,,https://www.redfin.com/MD/Leonardtown/25585-Point-Lookout-Rd-20650/home/15322542,,,N,Y,38.2998184,-76.6427377
PAST SALE,,Vacant Land,MOAKLEY ST,LEONARDTOWN,MD,20650,200000,,,,,110642,,,,,,,,https://www.redfin.com/MD/LEONARDTOWN/MOAKLEY-ST-20650/home/23453362,,,N,Y,38.300564,-76.642071
PAST SALE,,Single Family Residential,22203 Wicomico St,Leonardtown,MD,20650,180500,,1.0,,1040,10000,1963,,174,,,,,https://www.redfin.com/MD/Leonardtown/22203-Wicomico-St-20650/home/15322684,,,N,Y,38.278058,-76.7053541
PAST SALE,October-11-2019,Single Family Residential,22780 Duke St,Leonardtown,MD,20650,193000,3,1.0,DOWNTOWN LEONARDTOWN,1225,7313,1947,786,158,,Sold,,,https://www.redfin.com/MD/Leonardtown/22780-Duke-St-20650/home/15322682,BRIGHT MLS,MDSM164442,N,Y,38.2940481,-76.6383155
PAST SALE,July-19-2019,Single Family Residential,22580 Breton Bay Dr,Leonardtown,MD,20650,340000,3,3.0,TUDOR HALL ESTATES,2981,9148,1961,870,114,,Sold,,,https://www.redfin.com/MD/Leonardtown/22580-Breton-Bay-Dr-20650/home/15322654,BRIGHT MLS,MDSM162670,N,Y,38.2884006,-76.6337352
PAST SALE,,Multi-Family (5+ Unit),22788 Lawrence Ave,Leonardtown,MD,20650,275000,,,,1780,8840,1942,,154,,,,,https://www.redfin.com/MD/Leonardtown/22788-Lawrence-Ave-20650/home/15322540,,,N,Y,38.2939086,-76.6374582
PAST SALE,March-31-2021,Single Family Residential,22325 Armstrong Dr,Leonardtown,MD,20650,393000,4,3.0,BRETON BAY ESTS,2294,25000,1983,249,171,,Sold,,,https://www.redfin.com/MD/Leonardtown/22325-Armstrong-Dr-20650/home/15322650,BRIGHT MLS,MDSM173620,N,Y,38.2812264,-76.6629065
PAST SALE,April-30-2019,Single Family Residential,22340 Gore St,Leonardtown,MD,20650,240000,3,2.5,ST CLEMENTS SHORES,1292,12000,1964,950,186,,Sold,,,https://www.redfin.com/MD/Leonardtown/22340-Gore-St-20650/home/15321295,BRIGHT MLS,MDSM138156,N,Y,38.2815926,-76.7065268
PAST SALE,July-24-2019,Single Family Residential,40315 Breton Beach Rd,Leonardtown,MD,20650,295000,2,2.0,Leonardtown,1200,65340,2015,865,246,,Sold,,,https://www.redfin.com/MD/Leonardtown/40315-Breton-Beach-Rd-20650/home/15321266,BRIGHT MLS,MDSM161858,N,Y,38.2387101,-76.6861908
PAST SALE,August-30-2019,Single Family Residential,23398 Hollywood Rd,Leonardtown,MD,20650,125800,1,1.0,Leonardtown,1308,9375,1950,828,96,,Sold,,,https://www.redfin.com/MD/Leonardtown/23398-Hollywood-Rd-20650/home/15322481,BRIGHT MLS,MDSM163924,N,Y,38.3106754,-76.630762
PAST SALE,June-8-2021,Single Family Residential,23410 Hollywood Rd,Leonardtown,MD,20650,210000,2,1.0,Leonardtown,931,9583,1945,180,226,,Sold,,,https://www.redfin.com/MD/Leonardtown/23410-Hollywood-Rd-20650/home/15322450,BRIGHT MLS,MDSM176956,N,Y,38.3110632,-76.6306427
PAST SALE,June-15-2021,Single Family Residential,22755 Point Lookout Rd,Leonardtown,MD,20650,110000,3,2.0,Leonardtown,1620,36533,1950,173,68,,Sold,,,https://www.redfin.com/MD/Leonardtown/22755-Point-Lookout-Rd-20650/home/15322493,BRIGHT MLS,MDSM174888,N,Y,38.2449611,-76.5836997
PAST SALE,January-20-2021,Single Family Residential,39680 Cecil Ave,Leonardtown,MD,20650,399000,3,2.0,ST CLEMENTS SHORES,1896,10000,1935,319,210,,Sold,,,https://www.redfin.com/MD/Leonardtown/39680-Cecil-Ave-20650/home/15322490,BRIGHT MLS,MDSM171154,N,Y,38.283544,-76.7041364
PAST SALE,September-11-2020,Single Family Residential,39677 Cecil Ave,Leonardtown,MD,20650,235000,3,2.0,ST CLEMENTS SHORES,1300,5400,1987,450,181,,Sold,,,https://www.redfin.com/MD/COMPTON/39677-CECIL-AVE-20627/home/15322473,BRIGHT MLS,MDSM168400,N,Y,38.283431,-76.704444
PAST SALE,March-9-2019,Single Family Residential,22266 Saint Clements Ave,Leonardtown,MD,20650,190000,3,1.0,ST CLEMENTS SHORES,1064,8421,1930,1002,179,,Sold,,,https://www.redfin.com/MD/Leonardtown/22266-St-Clements-Ave-20650/home/15321870,BRIGHT MLS,1001994420,N,Y,38.2813858,-76.7086014
PAST SALE,,Single Family Residential,23830 Hollywood Rd,Leonardtown,MD,20650,350000,,2.0,,1600,54450,1974,,219,,,,,https://www.redfin.com/MD/Leonardtown/23830-Hollywood-Rd-20650/home/15322471,,,N,Y,38.3221527,-76.6200071
PAST SALE,March-20-2020,Single Family Residential,22475 Armstrong Dr,Leonardtown,MD,20650,315000,3,2.0,BRETON BAY ESTS,2475,27731,1974,625,127,,Sold,,,https://www.redfin.com/MD/Leonardtown/22475-Armstrong-Dr-20650/home/15322469,BRIGHT MLS,MDSM167434,N,Y,38.2853368,-76.6658715
PAST SALE,August-27-2021,Single Family Residential,23305 Maypole Rd,Leonardtown,MD,20650,420000,3,2.0,Leonardtown,2132,27825,1967,100,197,,Sold,,,https://www.redfin.com/MD/Leonardtown/23305-Maypole-Rd-20650/home/15322465,BRIGHT MLS,MDSM2000350,N,Y,38.3080736,-76.6583384
PAST SALE,May-27-2021,Single Family Residential,23730 Hicks Dr,Leonardtown,MD,20650,60000,3,2.0,HOLLY OAKS,1308,26136,1975,192,46,,Sold,,,https://www.redfin.com/MD/Leonardtown/23730-Hicks-Dr-20650/home/15322185,BRIGHT MLS,MDSM176654,N,Y,38.3199117,-76.6861394
PAST SALE,May-29-2020,Single Family Residential,42120 White Point Beach Rd,Leonardtown,MD,20650,205000,4,1.0,BRETON BEACH,1680,20300,1948,555,122,,Sold,,,https://www.redfin.com/MD/Leonardtown/42120-White-Point-Beach-Rd-20650/home/15322454,BRIGHT MLS,MDSM168664,N,Y,38.2233694,-76.6189189
PAST SALE,April-2-2020,Single Family Residential,22935 Abell St,Leonardtown,MD,20650,299000,3,2.0,LEONARDTOWN,1773,29229,1969,612,169,,Sold,,,https://www.redfin.com/MD/Leonardtown/22935-Abell-St-20650/home/15321901,BRIGHT MLS,MDSM167374,N,Y,38.2983524,-76.6447813
PAST SALE,March-11-2019,Single Family Residential,20768 Waterside Dr,Leonardtown,MD,20650,340000,2,1.0,BRETON BEACH SUBDIVISION,624,5600,1964,1000,545,,Sold,,,https://www.redfin.com/MD/Leonardtown/20768-Waterside-Dr-20650/home/15322419,BRIGHT MLS,MDSM137702,N,Y,38.2381096,-76.6865341
PAST SALE,September-17-2021,Single Family Residential,22679 Point Lookout Rd,Leonardtown,MD,20650,285000,3,2.0,REDGATE,3038,397703,1977,79,94,,Sold,,,https://www.redfin.com/MD/Leonardtown/22679-Point-Lookout-Rd-20650/home/15321243,BRIGHT MLS,MDSM2000846,N,Y,38.2433369,-76.58232
PAST SALE,October-15-2021,Single Family Residential,22595 Point Lookout Rd,Leonardtown,MD,20650,309000,3,1.0,Leonardtown,1388,81893,1946,51,223,,Sold,,,https://www.redfin.com/MD/Leonardtown/22595-Point-Lookout-Rd-20650/home/15321911,BRIGHT MLS,MDSM2001814,N,Y,38.2437424,-76.5789142
PAST SALE,,Single Family Residential,20645 Waterside Dr,Leonardtown,MD,20650,350000,3,2.5,,1852,13847,2005,,189,,,,,https://www.redfin.com/MD/Leonardtown/20645-Waterside-Dr-20650/home/15321216,,,N,Y,38.2360484,-76.6857786
PAST SALE,January-5-2021,Single Family Residential,22560 Key Way,Leonardtown,MD,20650,410000,3,2.5,TUDOR HALL ESTATES,2607,14850,1957,334,157,,Sold,,,https://www.redfin.com/MD/Leonardtown/22560-Key-Way-20650/home/15321203,BRIGHT MLS,MDSM172554,N,Y,38.2877105,-76.6356748
PAST SALE,August-10-2020,Single Family Residential,42135 White Point Beach Rd,Leonardtown,MD,20650,287500,2,1.0,WILLIAM P OBRIEN SUBD,900,36000,1934,482,319,,Sold,,,https://www.redfin.com/MD/Leonardtown/42135-White-Point-Beach-Rd-20650/home/15321236,BRIGHT MLS,MDSM165158,N,Y,38.2228697,-76.6188336
PAST SALE,August-30-2021,Single Family Residential,41650 Duke Dr,Leonardtown,MD,20650,1200000,4,2.5,LEONARDTOWN,3647,65340,1987,97,329,,Sold,,,https://www.redfin.com/MD/Leonardtown/41650-Duke-Dr-20650/home/15321720,BRIGHT MLS,MDSM2000178,N,Y,38.2793861,-76.6341408
PAST SALE,September-30-2021,Vacant Land,Old Hollywood Rd,Hollywood,MD,20636,35000,,,Hollywood,,42253,,66,,,Sold,,,https://www.redfin.com/MD/Hollywood/Old-Hollywood-Rd-20636/home/23451329,BRIGHT MLS,MDSM2001368,N,Y,38.312277,-76.634852
PAST SALE,May-31-2021,Single Family Residential,22520 Breton Bay Dr,Leonardtown,MD,20650,440000,4,2.5,BRETON BAY,2538,28749,1960,188,173,,Sold,,,https://www.redfin.com/MD/Leonardtown/22520-Breton-Bay-Dr-20650/home/15322287,BRIGHT MLS,MDSM175424,N,Y,38.2871386,-76.6330624
