SALE TYPE,SOLD DATE,PROPERTY TYPE,ADDRESS,CITY,STATE OR PROVINCE,ZIP OR POSTAL CODE,PRICE,BEDS,BATHS,LOCATION,SQUARE FEET,LOT SIZE,YEAR BUILT,DAYS ON MARKET,$/SQUARE FEET,HOA/MONTH,STATUS,NEXT OPEN HOUSE START TIME,NEXT OPEN HOUSE END TIME,URL (SEE https://www.redfin.com/buy-a-home/comparative-market-analysis FOR INFO ON PRICING),SOURCE,MLS#,FAVORITE,INTERESTED,LATITUDE,LONGITUDE
MLS Listing,,Single Family Residential,1767 Pekin Rd,Candor,NC,27229,215000,2,1.0,Candor,1170,217800,1954,31,184,,Active,,,https://www.redfin.com/NC/Candor/1767-Pekin-Rd-27229/home/65319085,CANOPYMLS,3803372,N,Y,35.3139095,-79.9012441
MLS Listing,,Single Family Residential,989 Tabernacle Church Rd,Candor,NC,27229,245000,3,2.0,Candor,1560,338025,1937,41,157,,Active,,,https://www.redfin.com/NC/Candor/989-Tabernacle-Church-Rd-27229/home/110122675,CANOPYMLS,3799686,N,Y,35.2250904,-79.7439964
MLS Listing,,Single Family Residential,413 Whiskey Rd,Candor,NC,27229,152000,3,2.0,,,,1926,53,,,Active,,,https://www.redfin.com/NC/Candor/413-S-Whiskey-Rd-27229/home/65326747,Triad MLS,1045978,N,Y,35.2906428,-79.7420249
MLS Listing,,Vacant Land,"130, 150, 169, and 0 Myers Dr",Candor,NC,27229,350000,,,Candor,,,,275,,,Active,,,https://www.redfin.com/NC/Candor/130-150-169-and-0-Myers-Dr-27229/home/174613724,Triad MLS,1014157,N,Y,35.294659,-79.729721
MLS Listing,,Vacant Land,0 Brutonville Rd #72,Candor,NC,27229,14900,,,Candor,,6969,,303,,,Active,,,https://www.redfin.com/NC/Candor/Brutonville-Rd-27229/unit-72/home/174373097,CANOPYMLS,3705802,N,Y,35.300404,-79.733191
MLS Listing,,Vacant Land,0 Brutonville Rd #32,Candor,NC,27229,14900,,,Candor,,6534,,303,,,Active,,,https://www.redfin.com/NC/Candor/Brutonville-Rd-27229/unit-32/home/174372999,CANOPYMLS,3705787,N,Y,35.300482,-79.735534
