SALE TYPE,SOLD DATE,PROPERTY TYPE,ADDRESS,CITY,STATE OR PROVINCE,ZIP OR POSTAL CODE,PRICE,BEDS,BATHS,LOCATION,SQUARE FEET,LOT SIZE,YEAR BUILT,DAYS ON MARKET,$/SQUARE FEET,HOA/MONTH,STATUS,NEXT OPEN HOUSE START TIME,NEXT OPEN HOUSE END TIME,URL (SEE https://www.redfin.com/buy-a-home/comparative-market-analysis FOR INFO ON PRICING),SOURCE,MLS#,FAVORITE,INTERESTED,LATITUDE,LONGITUDE
MLS Listing,,Vacant Land,"28,29,30,31 Greenway Dr Unit Red Bud",Semora,NC,27343,49750,,,Tanglewood Shores,,100187,,6,,100,Active,,,https://www.redfin.com/NC/Unknown/28-29-30-31-Red-Bud-Ln-27343/unit-Red-Bud/home/177349113,TMLS,2421003,N,Y,36.4932,-79.1078
MLS Listing,,Vacant Land,00 Bluebill Dr,Semora,NC,27573,249000,,,Whetstone,,,,53,,500,Active,,,https://www.redfin.com/NC/Semora/00-Bluebill-DR-27573/home/176720865,Triad MLS,1045778,N,Y,36.501824,-79.041106
MLS Listing,,Single Family Residential,130 Crystal Bay Dr,Semora,NC,27343,2800000,4,6.5,Hyco Lake,4929,220413,2002,135,568,42,Active,,,https://www.redfin.com/NC/Semora/130-Crystal-Bay-Ln-27343/home/44440554,TMLS,2397379,N,Y,36.5167568,-79.0770487
MLS Listing,,Single Family Residential,70 Wildwood Rd,Semora,NC,27343,698000,3,3.0,Hyco Lake,2460,37026,1986,150,284,14,Active,,,https://www.redfin.com/NC/Semora/70-Wildwood-Dr-27343/home/44428837,TMLS,2394555,N,Y,36.4686619,-79.0970372
MLS Listing,,Vacant Land,Lot 13 Hyco Hills Rd,Semora,NC,27343,59000,,,Hyco Lake,,63597,,273,,,Active,,,https://www.redfin.com/NC/Semora/13-Hyco-Hills-Rd-27343/home/174642506,TMLS,2344454,N,Y,36.4585107,-79.1761126
MLS Listing,,Single Family Residential,9950 Semora Rd,Semora,NC,27343,2390000,7,6.0,Hyco Lake,4000,4027122,1840,296,598,13,Active,,,https://www.redfin.com/NC/Semora/9950-Semora-Rd-27343/home/44439950,TMLS,2366670,N,Y,36.481657,-79.119168
