SALE TYPE,SOLD DATE,PROPERTY TYPE,ADDRESS,CITY,STATE OR PROVINCE,ZIP OR POSTAL CODE,PRICE,BEDS,BATHS,LOCATION,SQUARE FEET,LOT SIZE,YEAR BUILT,DAYS ON MARKET,$/SQUARE FEET,HOA/MONTH,STATUS,NEXT OPEN HOUSE START TIME,NEXT OPEN HOUSE END TIME,URL (SEE https://www.redfin.com/buy-a-home/comparative-market-analysis FOR INFO ON PRICING),SOURCE,MLS#,FAVORITE,INTERESTED,LATITUDE,LONGITUDE
MLS Listing,,Single Family Residential,4700 Tallahassee Ave,Rockville,MD,20853,459000,4,2.0,ASPEN HILL PARK,1756,7150,1959,3,261,,Active,,,https://www.redfin.com/MD/Rockville/4700-Tallahassee-Ave-20853/home/11041046,BRIGHT MLS,MDMC2024520,N,Y,39.0695414,-77.0955892
MLS Listing,,Condo/Co-op,14626 Bauer Dr #4,Rockville,MD,20853,209900,2,1.0,NORTH CREEK PLACE CODM,1049,,1967,4,200,444,Active,,,https://www.redfin.com/MD/Rockville/14626-Bauer-Dr-20853/unit-4/home/11126637,BRIGHT MLS,MDMC2024080,N,Y,39.0926521,-77.1102036
MLS Listing,,Single Family Residential,13505 Parkland Dr,Rockville,MD,20853,469900,4,3.0,WHEATON WOODS,1918,8046,1961,4,245,,Active,December-5-2021 12:00 PM,December-5-2021 02:00 PM,https://www.redfin.com/MD/Rockville/13505-Parkland-Dr-20853/home/11034663,BRIGHT MLS,MDMC2024618,N,Y,39.0780925,-77.0867096
PAST SALE,July-30-2021,Single Family Residential,13912 Dowlais Dr,Rockville,MD,20853,511500,4,3.0,BEL PRE WOODS,1684,10725,1965,128,304,,Sold,,,https://www.redfin.com/MD/Rockville/13912-Dowlais-Dr-20853/home/11065754,BRIGHT MLS,MDMC2001804,N,Y,39.0856135,-77.0968481
PAST SALE,July-6-2021,Single Family Residential,15712 Thistlebridge Dr,Rockville,MD,20853,980000,5,4.5,SMALLS NURSERY,6290,17946,2001,152,156,72,Sold,,,https://www.redfin.com/MD/Rockville/15712-Thistlebridge-Dr-20853/home/11155936,BRIGHT MLS,MDMC761650,N,Y,39.1178773,-77.0805721
PAST SALE,February-17-2021,Single Family Residential,13414 Tangier Pl,Rockville,MD,20853,435000,4,2.0,WHEATON WOODS,1560,6601,1959,291,279,,Sold,,,https://www.redfin.com/MD/Rockville/13414-Tangier-Pl-20853/home/11032127,BRIGHT MLS,MDMC740372,N,Y,39.076076,-77.085959
PAST SALE,January-12-2021,Single Family Residential,14521 Barkwood Dr,Rockville,MD,20853,628500,4,3.0,MANOR WOODS,1516,10671,1966,327,415,,Sold,,,https://www.redfin.com/MD/Rockville/14521-Barkwood-Dr-20853/home/11081529,BRIGHT MLS,MDMC736752,N,Y,39.0947111,-77.1005346
PAST SALE,December-14-2020,Townhouse,15400 Manor House Ter,Rockville,MD,20853,325000,2,1.5,MANOR VILLAGE,1000,1039,1985,356,325,125,Sold,,,https://www.redfin.com/MD/Rockville/15400-Manor-House-Ter-20853/home/11124643,BRIGHT MLS,MDMC733680,N,Y,39.1089801,-77.0772176
PAST SALE,July-21-2021,Single Family Residential,13808 Lionel Ln,Rockville,MD,20853,530000,3,2.0,BEL PRE WOODS,1848,11664,1964,137,287,,Sold,,,https://www.redfin.com/MD/Rockville/13808-Lionel-Ln-20853/home/11067189,BRIGHT MLS,MDMC2001604,N,Y,39.0814391,-77.0946001
PAST SALE,May-29-2019,Single Family Residential,16629 Cutlass Dr,Rockville,MD,20853,727000,4,3.5,NORBECK ESTATES,4206,18981,1979,921,173,,Sold,,,https://www.redfin.com/MD/Rockville/16629-Cutlass-Dr-20853/home/10715100,BRIGHT MLS,MDMC652974,N,Y,39.1282824,-77.0932738
PAST SALE,December-28-2020,Single Family Residential,14404 Gaines Ave,Rockville,MD,20853,517600,4,2.5,BEL PRE WOODS,1835,13252,1961,342,282,,Sold,,,https://www.redfin.com/MD/Rockville/14404-Gaines-Ave-20853/home/11067766,BRIGHT MLS,MDMC735954,N,Y,39.0922976,-77.0865072
PAST SALE,August-14-2020,Single Family Residential,4608 Norbeck Rd,Rockville,MD,20853,700000,6,4.0,MANOR PARK,4434,20352,1963,478,158,,Sold,,,https://www.redfin.com/MD/Rockville/4608-Norbeck-Rd-20853/home/10988933,BRIGHT MLS,MDMC714584,N,Y,39.1011715,-77.0924871
PAST SALE,May-3-2019,Single Family Residential,14135 Flint Rock Rd,Rockville,MD,20853,579000,5,3.0,BEL PRE WOODS,3000,9704,1967,947,193,,Sold,,,https://www.redfin.com/MD/Rockville/14135-Flint-Rock-Rd-20853/home/11066302,BRIGHT MLS,MDMC646474,N,Y,39.0867703,-77.0982418
PAST SALE,September-17-2020,Single Family Residential,4425 Oak Hill Rd,Rockville,MD,20853,997000,4,4.0,SYCAMORE ACRES,3949,43995,1956,444,252,,Sold,,,https://www.redfin.com/MD/Rockville/4425-Oak-Hill-Rd-20853/home/10705556,BRIGHT MLS,MDMC707308,N,Y,39.1159973,-77.0878786
PAST SALE,August-28-2020,Single Family Residential,14406 Oakvale St,Rockville,MD,20853,525000,4,3.0,BEL PRE WOODS,1680,10656,1964,464,313,,Sold,,,https://www.redfin.com/MD/Rockville/14406-Oakvale-St-20853/home/11065640,BRIGHT MLS,MDMC717896,N,Y,39.0881891,-77.0901941
PAST SALE,February-28-2019,Single Family Residential,13411 Grenoble Dr,Rockville,MD,20853,425000,4,3.0,WHEATON WOODS,2380,8223,1954,1011,179,,Sold,,,https://www.redfin.com/MD/Rockville/13411-Grenoble-Dr-20853/home/11034299,BRIGHT MLS,1006145994,N,Y,39.0762023,-77.0907336
PAST SALE,March-11-2019,Single Family Residential,14152 Flint Rock Rd,Rockville,MD,20853,510000,5,4.0,BEL PRE WOODS,3142,19675,1965,1000,162,,Sold,,,https://www.redfin.com/MD/Rockville/14152-Flint-Rock-Rd-20853/home/35619130,BRIGHT MLS,1009950648,N,Y,39.0876688,-77.095904
PAST SALE,November-16-2020,Single Family Residential,4731 Falcon St,Rockville,MD,20853,425000,4,3.0,ROYAL VIEW,1871,6820,1958,384,227,,Sold,,,https://www.redfin.com/MD/Rockville/4731-Falcon-St-20853/home/11073582,BRIGHT MLS,MDMC727396,N,Y,39.065377,-77.0945102
PAST SALE,October-20-2021,Single Family Residential,4414 Judith St,Rockville,MD,20853,479000,3,1.5,WHEATON WOODS,2064,6300,1959,46,232,,Sold,,,https://www.redfin.com/MD/Rockville/4414-Judith-St-20853/home/11032559,BRIGHT MLS,MDMC2007080,N,Y,39.0743512,-77.0852933
PAST SALE,March-17-2020,Single Family Residential,14115 Bauer Dr,Rockville,MD,20853,590000,5,3.5,BEL PRE WOODS,3146,9326,1965,628,188,,Sold,,,https://www.redfin.com/MD/Rockville/14115-Bauer-Dr-20853/home/11067132,BRIGHT MLS,MDMC691430,N,Y,39.0879052,-77.0915879
PAST SALE,June-7-2019,Single Family Residential,5211 Drake Ter,Rockville,MD,20853,495000,4,2.5,ROCK CREEK MANOR,2025,15678,1966,912,244,,Sold,,,https://www.redfin.com/MD/Rockville/5211-Drake-Ter-20853/home/11076797,BRIGHT MLS,MDMC654042,N,Y,39.0863145,-77.1038164
PAST SALE,November-26-2019,Single Family Residential,13402 Keating St,Rockville,MD,20853,370000,3,2.0,WHEATON WOODS,2040,7744,1953,740,181,,Sold,,,https://www.redfin.com/MD/Rockville/13402-Keating-St-20853/home/11033931,BRIGHT MLS,MDMC684026,N,Y,39.0762818,-77.0900142
PAST SALE,April-15-2020,Single Family Residential,5010 Barkwood Pl,Rockville,MD,20853,532000,5,3.0,MANOR WOODS,2066,9892,1966,599,258,,Sold,,,https://www.redfin.com/MD/Rockville/5010-Barkwood-Pl-20853/home/11083579,BRIGHT MLS,MDMC698836,N,Y,39.0931053,-77.1004896
PAST SALE,September-27-2021,Single Family Residential,4100 Elizabeth St,Rockville,MD,20853,500000,3,2.0,BROOKHAVEN,1800,8358,1959,69,278,,Sold,,,https://www.redfin.com/MD/Rockville/4100-Elizabeth-St-20853/home/11043823,BRIGHT MLS,MDMC2008550,N,Y,39.0715555,-77.0814264
PAST SALE,October-27-2021,Single Family Residential,13907 Marianna Dr,Rockville,MD,20853,529000,5,2.5,ASPEN KNOLLS,2397,9750,1960,39,221,,Sold,,,https://www.redfin.com/MD/Rockville/13907-Marianna-Dr-20853/home/11042783,BRIGHT MLS,MDMC2015138,N,Y,39.0852417,-77.0892499
PAST SALE,January-20-2021,Townhouse,15324 Georgian Square Ct,Rockville,MD,20853,510000,3,3.0,MANOR VILLAGE,2763,2556,1985,319,185,125,Sold,,,https://www.redfin.com/MD/Rockville/15324-Georgian-Square-Ct-20853/home/11124592,BRIGHT MLS,MDMC738776,N,Y,39.1087526,-77.0769749
PAST SALE,May-28-2021,Single Family Residential,14728 Lake Ter,Rockville,MD,20853,755000,5,3.0,MANOR LAKE,3370,16393,1967,191,224,,Sold,,,https://www.redfin.com/MD/Rockville/14728-Lake-Ter-20853/home/10709123,BRIGHT MLS,MDMC755260,N,Y,39.0979723,-77.1135714
PAST SALE,June-29-2020,Single Family Residential,13204 Magellan Ave,Rockville,MD,20853,429000,4,2.0,ASPEN HILL PARK,1843,7827,1957,524,233,,Sold,,,https://www.redfin.com/MD/Rockville/13204-Magellan-Ave-20853/home/11041760,BRIGHT MLS,MDMC705402,N,Y,39.0723614,-77.0928917
PAST SALE,,Single Family Residential,13202 Parkland Dr,Rockville,MD,20853,505000,,1.0,,1470,6519,1953,,344,,,,,https://www.redfin.com/MD/Rockville/13202-Parkland-Dr-20853/home/11033841,,,N,Y,39.0733023,-77.0873615
PAST SALE,July-26-2021,Single Family Residential,16525 George Washington Dr,Rockville,MD,20853,700000,6,3.5,NORBECK ESTATES,2912,17500,1973,132,240,,Sold,,,https://www.redfin.com/MD/Rockville/16525-George-Washington-Dr-20853/home/10709634,BRIGHT MLS,MDMC760050,N,Y,39.127507,-77.0877887
PAST SALE,May-27-2021,Single Family Residential,13021 Parkland Dr,Rockville,MD,20853,480000,3,2.0,WHEATON WOODS,1512,8400,1959,192,317,,Sold,,,https://www.redfin.com/MD/Rockville/13021-Parkland-Dr-20853/home/11033050,BRIGHT MLS,MDMC753172,N,Y,39.0707303,-77.0872716
PAST SALE,October-22-2020,Single Family Residential,15614 Thistlebridge Dr,Rockville,MD,20853,925000,4,4.5,SMALLS NURSERY,5868,15442,2000,409,158,125,Sold,,,https://www.redfin.com/MD/Rockville/15614-Thistlebridge-Dr-20853/home/11181499,BRIGHT MLS,MDMC724808,N,Y,39.1146593,-77.0802349
PAST SALE,November-21-2019,Single Family Residential,13610 Arctic Ave,Rockville,MD,20853,409100,4,2.0,BEL PRE WOODS,1899,9000,1962,745,215,,Sold,,,https://www.redfin.com/MD/Rockville/13610-Arctic-Ave-20853/home/11067952,BRIGHT MLS,MDMC683528,N,Y,39.079343,-77.0978596
PAST SALE,February-16-2021,Condo/Co-op,12704 Veirs Mill Rd Unit 38-302,Rockville,MD,20853,260000,3,2.0,PARK TERRACE,1347,,1973,292,193,441,Sold,,,https://www.redfin.com/MD/Rockville/12704-Veirs-Mill-Rd-20853/unit-38-302/home/11093447,BRIGHT MLS,MDMC741002,N,Y,39.0641358,-77.097692
PAST SALE,,Single Family Residential,4908 Morning Glory Ct,Rockville,MD,20853,752500,,3.5,,3041,16687,1969,,247,,,,,https://www.redfin.com/MD/Rockville/4908-Morning-Glory-Ct-20853/home/10706823,,,N,Y,39.1040261,-77.099568
PAST SALE,,Single Family Residential,13922 Bauer Dr,Rockville,MD,20853,532500,,3.0,,2050,10696,1960,,260,,,,,https://www.redfin.com/MD/Rockville/13922-Bauer-Dr-20853/home/11044674,,,N,Y,39.0856261,-77.0883956
PAST SALE,March-12-2021,Single Family Residential,16521 George Washington Dr,Rockville,MD,20853,784000,4,4.5,NORBECK ESTATES,3143,17500,1973,268,249,,Sold,,,https://www.redfin.com/MD/Rockville/16521-George-Washington-Dr-20853/home/10709633,BRIGHT MLS,MDMC743634,N,Y,39.1272095,-77.0878111
PAST SALE,April-29-2020,Single Family Residential,15109 Manor Lake Dr,Rockville,MD,20853,687500,4,2.5,MANOR LAKE,3216,19275,1970,585,214,,Sold,,,https://www.redfin.com/MD/Rockville/15109-Manor-Lake-Dr-20853/home/10709265,BRIGHT MLS,MDMC700778,N,Y,39.1039407,-77.1052325
PAST SALE,February-23-2021,Condo/Co-op,14624 Bauer Dr #3,Rockville,MD,20853,210000,2,1.0,NORTH CREEK PLACE CODM,1070,,1967,285,196,450,Sold,,,https://www.redfin.com/MD/Rockville/14624-Bauer-Dr-20853/unit-3/home/167114567,BRIGHT MLS,MDMC736296,N,Y,39.0927431,-77.1102808
PAST SALE,November-12-2021,Single Family Residential,5505 Manorfield Rd,Rockville,MD,20853,616500,3,3.0,ROCK CREEK MANOR,1825,10208,1968,23,338,,Sold,,,https://www.redfin.com/MD/Rockville/5505-Manorfield-Rd-20853/home/11075916,BRIGHT MLS,MDMC2000985,N,Y,39.0911825,-77.1111889
PAST SALE,April-5-2021,Single Family Residential,4905 Morning Glory Ct,Rockville,MD,20853,715000,4,2.5,FLOWER VALLEY,2711,19654,1969,244,264,,Sold,,,https://www.redfin.com/MD/Rockville/4905-Morning-Glory-Ct-20853/home/10706887,BRIGHT MLS,MDMC747342,N,Y,39.104163,-77.0988262
PAST SALE,February-4-2021,Condo/Co-op,12710 Veirs Mill Rd Unit 100-102,Rockville,MD,20853,230000,2,2.0,PARK TERRACE,1157,,1973,304,199,379,Sold,,,https://www.redfin.com/MD/Rockville/12710-Veirs-Mill-Rd-20853/unit-100-102/home/173926872,BRIGHT MLS,MDMC737616,N,Y,39.0642352,-77.0977944
PAST SALE,July-28-2020,Single Family Residential,13200 Magellan Ave,Rockville,MD,20853,477000,4,2.0,ASPEN HILL PARK,1466,8256,1957,495,325,,Sold,,,https://www.redfin.com/MD/Rockville/13200-Magellan-Ave-20853/home/11041019,BRIGHT MLS,MDMC713058,N,Y,39.0720361,-77.0928467
PAST SALE,February-26-2021,Single Family Residential,14405 Gaines Ave,Rockville,MD,20853,524900,4,2.5,BEL PRE WOODS,1786,17973,1961,282,294,,Sold,,,https://www.redfin.com/MD/Rockville/14405-Gaines-Ave-20853/home/11067492,BRIGHT MLS,MDMC741192,N,Y,39.0920369,-77.0859677
MLS Listing,,Single Family Residential,13202 Beaver Ter,Rockville,MD,20853,714500,4,3.5,BROOKHAVEN,2790,8590,2010,2,256,21,Active,December-5-2021 01:00 PM,December-5-2021 04:00 PM,https://www.redfin.com/MD/Rockville/13202-Beaver-Ter-20853/home/28676158,BRIGHT MLS,MDMC2025598,N,Y,39.0748667,-77.0802574
MLS Listing,,Single Family Residential,16608 Cutlass Dr,Rockville,MD,20853,649900,4,3.5,NORBECK ESTATES,3096,26312,1974,2,210,,Active,,,https://www.redfin.com/MD/Rockville/16608-Cutlass-Dr-20853/home/10709682,BRIGHT MLS,MDMC2025290,N,Y,39.1275122,-77.0905088
MLS Listing,,Condo/Co-op,12730 Veirs Mill Rd Unit 25-303,Rockville,MD,20853,293000,3,2.0,PARK TERRACE,1347,,1973,2,218,443,Active,December-5-2021 01:30 PM,December-5-2021 03:30 PM,https://www.redfin.com/MD/Rockville/12730-Veirs-Mill-Rd-20853/unit-25-303/home/11093401,BRIGHT MLS,MDMC2024934,N,Y,39.064346,-77.0979182
MLS Listing,,Condo/Co-op,12732 Veirs Mill Rd Unit 12-304,Rockville,MD,20853,189900,1,1.0,PARK TERRACE,806,,1973,3,236,302,Active,,,https://www.redfin.com/MD/Rockville/12732-Veirs-Mill-Rd-20853/unit-12-304/home/11093353,BRIGHT MLS,MDMC2024594,N,Y,39.064682,-77.098489
MLS Listing,,Single Family Residential,4915 Baffin Bay Ln,Rockville,MD,20853,750000,5,2.5,MANOR WOODS,2820,9695,1966,3,266,,Active,,,https://www.redfin.com/MD/Rockville/4915-Baffin-Bay-Ln-20853/home/11081535,BRIGHT MLS,MDMC2024952,N,Y,39.0959706,-77.0992758
MLS Listing,,Single Family Residential,8 Iris Ct,Rockville,MD,20853,594900,4,2.5,ASPEN HILL PARK,2016,8736,1970,4,295,,Active,December-5-2021 01:00 PM,December-5-2021 03:00 PM,https://www.redfin.com/MD/Rockville/8-Iris-Ct-20853/home/11040911,BRIGHT MLS,MDMC2024278,N,Y,39.0768969,-77.0954993
MLS Listing,,Single Family Residential,14420 Myer Ter,Rockville,MD,20853,590000,4,2.5,MANOR WOODS,2002,8964,1967,4,295,,Active,December-5-2021 01:00 PM,December-5-2021 03:00 PM,https://www.redfin.com/MD/Rockville/14420-Myer-Ter-20853/home/11083459,BRIGHT MLS,MDMC2000135,N,Y,39.0943703,-77.1060641
MLS Listing,,Single Family Residential,4413 Jupiter St,Rockville,MD,20853,439900,4,2.0,WHEATON WOODS,1680,7527,1953,5,262,,Active,,,https://www.redfin.com/MD/Rockville/4413-Jupiter-St-20853/home/11033125,BRIGHT MLS,MDMC2024358,N,Y,39.0755301,-77.0886654
MLS Listing,,Single Family Residential,14206 London Ln,Rockville,MD,20853,560000,4,2.5,ENGLISH MANOR,2018,12462,1961,7,278,,Active,,,https://www.redfin.com/MD/Rockville/14206-London-Ln-20853/home/11063233,BRIGHT MLS,MDMC2023374,N,Y,39.0909367,-77.0811566
MLS Listing,,Condo/Co-op,12704 Veirs Mill Rd Unit 35-203,Rockville,MD,20853,202000,1,1.0,PARK TERRACE,910,,1973,13,222,303,Active,,,https://www.redfin.com/MD/Rockville/12704-Veirs-Mill-Rd-20853/unit-35-203/home/11093427,BRIGHT MLS,MDMC2023904,N,Y,39.0641358,-77.097692
MLS Listing,,Single Family Residential,4823 Listra Rd,Rockville,MD,20853,474900,4,2.0,ASPEN HILL PARK,2044,8265,1959,22,232,,Active,,,https://www.redfin.com/MD/Rockville/4823-Listra-Rd-20853/home/11040461,BRIGHT MLS,MDMC2017778,N,Y,39.0669373,-77.0995006
MLS Listing,,Single Family Residential,4506 Aspen Hill Rd,Rockville,MD,20853,480000,4,2.0,WHEATON WOODS,1450,7143,1955,22,331,,Active,December-5-2021 01:00 PM,December-5-2021 04:00 PM,https://www.redfin.com/MD/Rockville/4506-Aspen-Hill-Rd-20853/home/11032349,BRIGHT MLS,MDMC2023138,N,Y,39.0784435,-77.0903739
MLS Listing,,Single Family Residential,4607 Bayne Ct,Rockville,MD,20853,495000,3,2.0,WHEATON WOODS,2260,9034,1952,23,219,,Active,,,https://www.redfin.com/MD/Rockville/4607-Bayne-Ct-20853/home/11032285,BRIGHT MLS,MDMC2022476,N,Y,39.0633032,-77.0920824
MLS Listing,,Single Family Residential,14001 Manorvale Rd,Rockville,MD,20853,624900,4,3.0,ROCK CREEK MANOR,2124,15042,1967,23,294,,Active,,,https://www.redfin.com/MD/Rockville/14001-Manorvale-Rd-20853/home/11076554,BRIGHT MLS,MDMC2022492,N,Y,39.0854971,-77.1079522
MLS Listing,,Townhouse,4923 Arctic Ter,Rockville,MD,20853,389900,3,2.5,ASPEN HILL PARK,1440,2062,1972,30,271,42,Active,December-5-2021 02:00 PM,December-5-2021 03:00 PM,https://www.redfin.com/MD/Rockville/4923-Arctic-Ter-20853/home/11040566,BRIGHT MLS,MDMC2022336,N,Y,39.076764,-77.096959
MLS Listing,,Single Family Residential,4716 Bel Pre Rd,Rockville,MD,20853,650000,5,2.5,MANOR WOODS,2420,8498,1966,30,269,,Active,,,https://www.redfin.com/MD/Rockville/4716-Bel-Pre-Rd-20853/home/11082939,BRIGHT MLS,MDMC2021588,N,Y,39.0956485,-77.0940831
MLS Listing,,Single Family Residential,15112 Georgia Ave,Rockville,MD,20853,925000,5,3.5,MANOR PARK,5382,24500,1967,33,172,,Active,,,https://www.redfin.com/MD/Rockville/15112-Georgia-Ave-20853/home/10989218,BRIGHT MLS,MDMC2019438,N,Y,39.104934,-77.077502
MLS Listing,,Single Family Residential,15409 Narcissus Way,Rockville,MD,20853,799000,5,2.5,FLOWER VALLEY,3382,15496,1985,43,236,6,Active,,,https://www.redfin.com/MD/Rockville/15409-Narcissus-Way-20853/home/10717152,BRIGHT MLS,MDMC2020336,N,Y,39.1095611,-77.0952296
MLS Listing,,Single Family Residential,14632 Chesterfield Rd,Rockville,MD,20853,899900,6,4.5,WHEATON OUT RES. (2),3845,20000,1985,45,234,,Active,,,https://www.redfin.com/MD/Rockville/14632-Chesterfield-Rd-20853/home/11103068,BRIGHT MLS,MDMC2000955,N,Y,39.0980223,-77.0974101
MLS Listing,,Single Family Residential,13901 Congress Dr,Rockville,MD,20853,530000,4,2.5,BEL PRE WOODS,1790,9000,1964,51,296,,Active,,,https://www.redfin.com/MD/Rockville/13901-Congress-Dr-20853/home/11066149,BRIGHT MLS,MDMC2001375,N,Y,39.0827614,-77.0963985
MLS Listing,,Single Family Residential,4410 Aspen Hill Rd,Rockville,MD,20853,479900,4,2.0,WHEATON WOODS,1602,7358,1955,52,300,,Active,,,https://www.redfin.com/MD/Rockville/4410-Aspen-Hill-Rd-20853/home/11035318,BRIGHT MLS,MDMC2001239,N,Y,39.0788372,-77.0885305
MLS Listing,,Condo/Co-op,12704 Veirs Mill Rd Unit 31-103,Rockville,MD,20853,202000,1,1.0,PARK TERRACE,910,,1973,65,222,302,Active,,,https://www.redfin.com/MD/Rockville/12704-Veirs-Mill-Rd-20853/unit-31-103/home/11093418,BRIGHT MLS,MDMC2018914,N,Y,39.0641358,-77.097692
MLS Listing,,Single Family Residential,14623 Myer Ter,Rockville,MD,20853,549000,4,3.0,MANOR WOODS,1970,9888,1965,165,279,,Active,,,https://www.redfin.com/MD/Rockville/14623-Myer-Ter-20853/home/11081334,BRIGHT MLS,MDMC2001610,N,Y,39.0967151,-77.1044907
MLS Listing,,Vacant Land,17411 Ridge Dr,Rockville,MD,20853,235000,,,OLNEY ACRES,,53578,,171,,,Active,,,https://www.redfin.com/MD/Rockville/17411-Ridge-Dr-20853/home/10704846,BRIGHT MLS,MDMC763888,N,Y,39.141529,-77.101589
PAST SALE,,Condo/Co-op,14616 Bauer Dr #14616,Rockville,MD,20853,147000,,,,941,,1967,,156,,,,,https://www.redfin.com/MD/Rockville/14616-Bauer-Dr-20853/unit-14616/home/11126510,,,N,Y,39.0925469,-77.1090541
PAST SALE,,Condo/Co-op,5578 Burnside Dr Unit 5578-4,Rockville,MD,20853,192500,,,,1048,,1967,,184,,,,,https://www.redfin.com/MD/Rockville/5578-Burnside-Dr-20853/unit-5578-4/home/11126316,,,N,Y,39.0918804,-77.112137
PAST SALE,June-30-2020,Condo/Co-op,14416 Parkvale Rd #2,Rockville,MD,20853,202500,2,1.0,NORTH CREEK VILLAS CODM,966,,1964,523,210,469,Sold,,,https://www.redfin.com/MD/Rockville/14416-Parkvale-Rd-20853/unit-2/home/167007131,BRIGHT MLS,MDMC706788,N,Y,39.0922318,-77.1123819
PAST SALE,,Condo/Co-op,5578 Burnside Dr Unit 5578-3,Rockville,MD,20853,196000,,,,1049,,1967,,187,,,,,https://www.redfin.com/MD/Rockville/5578-Burnside-Dr-20853/unit-5578-3/home/11126312,,,N,Y,39.0918804,-77.112137
PAST SALE,,Condo/Co-op,14624 Bauer Dr #14624,Rockville,MD,20853,210000,,,,1070,,1967,,196,,,,,https://www.redfin.com/MD/Rockville/14624-Bauer-Dr-20853/unit-14624/home/11126614,,,N,Y,39.0927431,-77.1102808
PAST SALE,,Condo/Co-op,2517 Baltimore Rd Unit 2517-6,Rockville,MD,20853,200000,,,,1075,,1967,,186,,,,,https://www.redfin.com/MD/Rockville/2517-Baltimore-Rd-20853/unit-2517-6/home/11126193,,,N,Y,39.0939635,-77.1120118
PAST SALE,February-15-2019,Single Family Residential,15440 Narcissus Way,Rockville,MD,20853,610000,5,2.5,FLOWER VALLEY,2732,19400,1984,1024,223,,Sold,,,https://www.redfin.com/MD/Rockville/15440-Narcissus-Way-20853/home/10716931,BRIGHT MLS,MDMC100022,N,Y,39.1082475,-77.0970729
PAST SALE,,Condo/Co-op,2511 Baltimore Rd Unit 2511-1,Rockville,MD,20853,147000,,,,939,,1967,,157,,,,,https://www.redfin.com/MD/Rockville/2511-Baltimore-Rd-20853/unit-2511-1/home/11126124,,,N,Y,39.093423,-77.1118623
PAST SALE,June-25-2021,Single Family Residential,5008 Adrian St,Rockville,MD,20853,525000,4,2.5,ASPEN HILL PARK,2334,7200,1960,163,225,,Sold,,,https://www.redfin.com/MD/Rockville/5008-Adrian-St-20853/home/11042671,BRIGHT MLS,MDMC758908,N,Y,39.0679952,-77.102153
PAST SALE,,Condo/Co-op,2515 Baltimore Rd Unit 2515-5,Rockville,MD,20853,191900,,,,1085,,1967,,177,,,,,https://www.redfin.com/MD/Rockville/2515-Baltimore-Rd-20853/unit-2515-5/home/11126164,,,N,Y,39.0941479,-77.112163
PAST SALE,,Condo/Co-op,2509 Baltimore Rd Unit 2509-8,Rockville,MD,20853,182500,,,,1085,,1967,,168,,,,,https://www.redfin.com/MD/Rockville/2509-Baltimore-Rd-20853/unit-2509-8/home/11126120,,,N,Y,39.0939417,-77.1120982
PAST SALE,,Condo/Co-op,2511 Baltimore Rd Unit 2511-8,Rockville,MD,20853,196000,,,,1085,,1967,,181,,,,,https://www.redfin.com/MD/Rockville/2511-Baltimore-Rd-20853/unit-2511-8/home/11126144,,,N,Y,39.093423,-77.1118623
PAST SALE,August-31-2021,Single Family Residential,4115 Beverly Rd,Rockville,MD,20853,1200000,5,4.5,MANOR PARK,5460,33233,1956,96,220,,Sold,,,https://www.redfin.com/MD/Rockville/4115-Beverly-Rd-20853/home/10989190,BRIGHT MLS,MDMC2021908,N,Y,39.098768,-77.0819435
PAST SALE,August-6-2021,Single Family Residential,14400 Ash Ct,Rockville,MD,20853,580000,4,2.5,MANOR WOODS,2122,8895,1966,121,273,,Sold,,,https://www.redfin.com/MD/Rockville/14400-Ash-Ct-20853/home/11082840,BRIGHT MLS,MDMC757562,N,Y,39.0919495,-77.1001749
PAST SALE,October-8-2021,Single Family Residential,13912 Parkland Dr,Rockville,MD,20853,425000,3,1.5,WHEATON WOODS,1470,9100,1954,58,289,,Sold,,,https://www.redfin.com/MD/Rockville/13912-Parkland-Dr-20853/home/11034918,BRIGHT MLS,MDMC2005410,N,Y,39.0848896,-77.0871817
PAST SALE,,Condo/Co-op,5570 Burnside Dr Unit 5570-1,Rockville,MD,20853,155000,,,,933,,1967,,166,,,,,https://www.redfin.com/MD/Rockville/5570-Burnside-Dr-20853/unit-5570-1/home/11126215,,,N,Y,39.0930751,-77.1113868
PAST SALE,August-20-2021,Single Family Residential,4111 Beverly Rd,Rockville,MD,20853,1150000,5,4.0,MANOR PARK,3296,25816,1956,107,349,,Sold,,,https://www.redfin.com/MD/Rockville/4111-Beverly-Rd-20853/home/10989456,BRIGHT MLS,MDMC2012434,N,Y,39.0985676,-77.0815838
PAST SALE,November-8-2019,Single Family Residential,13802 Vista Dr,Rockville,MD,20853,500000,4,2.0,BEL PRE WOODS,1676,9304,1963,758,298,,Sold,,,https://www.redfin.com/MD/Rockville/13802-Vista-Dr-20853/home/11067291,BRIGHT MLS,MDMC680652,N,Y,39.0824581,-77.0986913
PAST SALE,,Single Family Residential,14407 Barkwood Dr,Rockville,MD,20853,480000,,3.5,,2553,9554,1965,,188,,,,,https://www.redfin.com/MD/Rockville/14407-Barkwood-Dr-20853/home/11081694,,,N,Y,39.092599,-77.0961512
PAST SALE,,Condo/Co-op,5558 Burnside Dr #5558,Rockville,MD,20853,310000,,,,1364,,1969,,227,,,,,https://www.redfin.com/MD/Rockville/5558-Burnside-Dr-20853/unit-5558/home/11125925,,,N,Y,39.0932406,-77.1109899
PAST SALE,March-12-2020,Condo/Co-op,14448 Parkvale Rd #2,Rockville,MD,20853,203000,2,1.0,NORTH CREEK VILLAS CODM,1012,,1964,633,201,448,Sold,,,https://www.redfin.com/MD/Rockville/14448-Parkvale-Rd-20853/unit-2/home/175552053,BRIGHT MLS,MDMC696144,N,Y,39.0922624,-77.1138635
PAST SALE,May-5-2021,Single Family Residential,4422 Judith St,Rockville,MD,20853,480000,3,2.0,WHEATON WOODS,1776,7746,1959,214,270,,Sold,,,https://www.redfin.com/MD/Rockville/4422-Judith-St-20853/home/11034440,BRIGHT MLS,MDMC750848,N,Y,39.0738513,-77.0858328
PAST SALE,,Condo/Co-op,14440 Parkvale Rd #14440,Rockville,MD,20853,187000,,,,957,,1964,,195,,,,,https://www.redfin.com/MD/Rockville/14440-Parkvale-Rd-20853/unit-14440/home/11125718,,,N,Y,39.0936421,-77.1131846
PAST SALE,,Condo/Co-op,14448 Parkvale Rd,Rockville,MD,20853,203000,,,,1012,,1964,,201,,,,,https://www.redfin.com/MD/Rockville/14448-Parkvale-Rd-20853/home/11125825,,,N,Y,39.0922624,-77.1138635
PAST SALE,September-2-2021,Single Family Residential,4212 Elizabeth St,Rockville,MD,20853,450000,3,2.0,BROOKHAVEN,1334,6026,1955,94,337,,Sold,,,https://www.redfin.com/MD/Rockville/4212-Elizabeth-St-20853/home/11044534,BRIGHT MLS,MDMC2008450,N,Y,39.0719235,-77.0843491
PAST SALE,April-12-2019,Single Family Residential,13002 Vandalia Dr,Rockville,MD,20853,380000,3,1.5,BROOKHAVEN,1684,7209,1955,968,226,,Sold,,,https://www.redfin.com/MD/Rockville/13002-Vandalia-Dr-20853/home/11043999,BRIGHT MLS,MDMC619868,N,Y,39.0694221,-77.0848886
PAST SALE,January-28-2021,Single Family Residential,13414 Oriental Ct,Rockville,MD,20853,555000,5,2.5,ASPEN HILL PARK,2752,8667,1962,311,202,,Sold,,,https://www.redfin.com/MD/Rockville/13414-Oriental-Ct-20853/home/11040029,BRIGHT MLS,MDMC739770,N,Y,39.0776707,-77.0995455
PAST SALE,,Single Family Residential,14604 Melinda Ln,Rockville,MD,20853,583625,,3.0,,2415,9202,1966,,242,,,,,https://www.redfin.com/MD/Rockville/14604-Melinda-Ln-20853/home/11082578,,,N,Y,39.0958745,-77.0980619
PAST SALE,August-19-2019,Condo/Co-op,14626 Bauer Dr #2,Rockville,MD,20853,175000,1,1.0,NORTH CREEK PLACE CODM,915,,1967,839,191,391,Sold,,,https://www.redfin.com/MD/Rockville/14626-Bauer-Dr-20853/unit-2/home/143335187,BRIGHT MLS,MDMC664470,N,Y,39.0926521,-77.1102036
PAST SALE,May-21-2021,Single Family Residential,5210 Drake Ter,Rockville,MD,20853,605000,4,3.5,ROCK CREEK MANOR,1825,10699,1966,198,332,,Sold,,,https://www.redfin.com/MD/Rockville/5210-Drake-Ter-20853/home/11076355,BRIGHT MLS,MDMC754010,N,Y,39.0860097,-77.1043109
PAST SALE,July-30-2021,Single Family Residential,14108 Canterbury Ln,Rockville,MD,20853,510000,4,2.5,ENGLISH MANOR,2146,11339,1960,128,238,,Sold,,,https://www.redfin.com/MD/Rockville/14108-Canterbury-Ln-20853/home/11063062,BRIGHT MLS,MDMC2001972,N,Y,39.0877676,-77.0835847
PAST SALE,February-24-2020,Townhouse,5558 Burnside Dr,Rockville,MD,20853,310000,3,3.5,TOWNES OF N CREEK CODM,1364,,1969,650,227,475,Sold,,,https://www.redfin.com/MD/Rockville/5558-Burnside-Dr-20853/home/25709930,BRIGHT MLS,MDMC692456,N,Y,39.0932406,-77.1109899
PAST SALE,June-10-2019,Single Family Residential,4436 Haverford Dr,Rockville,MD,20853,625000,4,2.5,NORBECK MANOR,2872,15719,1969,909,218,,Sold,,,https://www.redfin.com/MD/Rockville/4436-Haverford-Dr-20853/home/10710173,BRIGHT MLS,MDMC678034,N,Y,39.1061882,-77.0876313
PAST SALE,July-24-2019,Single Family Residential,12811 Caldwell St,Rockville,MD,20853,279000,2,1.0,ROBINDALE,1192,7381,1954,865,234,,Sold,,,https://www.redfin.com/MD/Rockville/12811-Caldwell-St-20853/home/11052654,BRIGHT MLS,MDMC670978,N,Y,39.0665004,-77.0913181
PAST SALE,November-12-2021,Single Family Residential,4021 Thistlebridge Way,Rockville,MD,20853,1100000,5,4.5,SMALLS NURSERY,5942,23746,2000,23,185,72,Sold,,,https://www.redfin.com/MD/Rockville/4021-Thistlebridge-Way-20853/home/10734816,BRIGHT MLS,MDMC2016470,N,Y,39.1161091,-77.0822807
PAST SALE,July-14-2021,Single Family Residential,4404 Custis Dr,Rockville,MD,20853,725000,4,2.5,NORBECK ESTATES,2596,17909,1974,144,279,,Sold,,,https://www.redfin.com/MD/Rockville/4404-Custis-Dr-20853/home/10709716,BRIGHT MLS,MDMC761450,N,Y,39.1296058,-77.0887904
PAST SALE,October-25-2019,Single Family Residential,14304 Arctic Ave,Rockville,MD,20853,405000,4,2.5,MANOR WOODS,1950,8733,1968,772,208,,Sold,,,https://www.redfin.com/MD/Rockville/14304-Arctic-Ave-20853/home/11081619,BRIGHT MLS,MDMC677054,N,Y,39.0937738,-77.092532
PAST SALE,February-12-2019,Single Family Residential,13405 Tangier Pl,Rockville,MD,20853,409000,4,2.0,WHEATON WOODS,2064,8936,1959,1027,198,,Sold,,,https://www.redfin.com/MD/Rockville/13405-Tangier-Pl-20853/home/11033133,BRIGHT MLS,MDMC487524,N,Y,39.0755069,-77.0852483
PAST SALE,February-22-2019,Single Family Residential,5525 Marlin St,Rockville,MD,20853,529000,5,3.0,MANOR LAKE,2287,9494,1969,1017,231,,Sold,,,https://www.redfin.com/MD/Rockville/5525-Marlin-St-20853/home/10709465,BRIGHT MLS,MDMC487906,N,Y,39.0993494,-77.1087164
PAST SALE,November-27-2019,Single Family Residential,14817 Lake Ter,Rockville,MD,20853,589000,4,3.0,MANOR LAKE,2644,21714,1969,739,223,,Sold,,,https://www.redfin.com/MD/Rockville/14817-Lake-Ter-20853/home/10709460,BRIGHT MLS,MDMC679612,N,Y,39.0997254,-77.1133241
PAST SALE,April-8-2020,Single Family Residential,14805 Marlin Ter,Rockville,MD,20853,617500,5,2.5,MANOR LAKE,2376,9250,1969,606,260,,Sold,,,https://www.redfin.com/MD/Rockville/14805-Marlin-Ter-20853/home/10709073,BRIGHT MLS,MDMC697900,N,Y,39.0990231,-77.107233
PAST SALE,August-2-2019,Single Family Residential,5201 Waterview Dr,Rockville,MD,20853,720000,5,3.0,FLOWER VALLEY,3688,22405,1969,856,195,,Sold,,,https://www.redfin.com/MD/Rockville/5201-Waterview-Dr-20853/home/10706990,BRIGHT MLS,MDMC654418,N,Y,39.1069837,-77.1047155
PAST SALE,August-7-2019,Single Family Residential,5468 Marlin St,Rockville,MD,20853,535000,5,3.0,MANOR LAKE,2787,10636,1968,851,192,,Sold,,,https://www.redfin.com/MD/Rockville/5468-Marlin-St-20853/home/10709464,BRIGHT MLS,MDMC659984,N,Y,39.099538,-77.1068284
PAST SALE,February-21-2020,Single Family Residential,13124 Beaver Ter,Rockville,MD,20853,405000,3,3.0,BROOKHAVEN,1830,7334,1962,653,221,,Sold,,,https://www.redfin.com/MD/Rockville/13124-Beaver-Ter-20853/home/11043500,BRIGHT MLS,MDMC692052,N,Y,39.0729295,-77.079403
PAST SALE,March-31-2020,Single Family Residential,4402 Independence St,Rockville,MD,20853,427000,3,2.0,WHEATON WOODS,1470,7408,1953,614,290,,Sold,,,https://www.redfin.com/MD/Rockville/4402-Independence-St-20853/home/11032877,BRIGHT MLS,MDMC696630,N,Y,39.0727422,-77.0877212
PAST SALE,May-7-2021,Single Family Residential,14505 Briarwood Ter,Rockville,MD,20853,620000,5,3.0,MANOR WOODS,2235,8902,1964,212,277,,Sold,,,https://www.redfin.com/MD/Rockville/14505-Briarwood-Ter-20853/home/11081629,BRIGHT MLS,MDMC746320,N,Y,39.0939392,-77.0929367
PAST SALE,July-9-2020,Single Family Residential,15004 Red Clover Dr,Rockville,MD,20853,680000,5,3.5,FLOWER VALLEY,3708,20836,1970,514,183,,Sold,,,https://www.redfin.com/MD/Rockville/15004-Red-Clover-Dr-20853/home/10707213,BRIGHT MLS,MDMC707290,N,Y,39.1013423,-77.099006
PAST SALE,March-8-2021,Single Family Residential,14020 Bardot St,Rockville,MD,20853,545000,4,3.0,BEL PRE WOODS,1878,9000,1964,272,290,,Sold,,,https://www.redfin.com/MD/Rockville/14020-Bardot-St-20853/home/11065853,BRIGHT MLS,MDMC742552,N,Y,39.0870534,-77.0900592
PAST SALE,May-3-2019,Single Family Residential,3906 Arbor Crest Way,Rockville,MD,20853,800000,5,4.5,SMALLS NURSERY,4280,16667,2001,947,187,72,Sold,,,https://www.redfin.com/MD/Rockville/3906-Arbor-Crest-Way-20853/home/11159145,BRIGHT MLS,MDMC623158,N,Y,39.1146538,-77.0775145
PAST SALE,,Single Family Residential,13410 Oriental St,Rockville,MD,20853,550000,,2.5,,2240,12805,1962,,246,,,,,https://www.redfin.com/MD/Rockville/13410-Oriental-St-20853/home/11041400,,,N,Y,39.0750057,-77.0957691
PAST SALE,May-22-2019,Single Family Residential,14502 Westbury Rd,Rockville,MD,20853,490000,5,2.0,MANOR WOODS,2250,9181,1965,928,218,,Sold,,,https://www.redfin.com/MD/Rockville/14502-Westbury-Rd-20853/home/11082450,BRIGHT MLS,MDMC625390,N,Y,39.0947427,-77.0965334
PAST SALE,November-15-2019,Single Family Residential,4928 Baffin Bay Ln,Rockville,MD,20853,522000,5,3.5,MANOR WOODS,2343,8560,1966,751,223,,Sold,,,https://www.redfin.com/MD/Rockville/4928-Baffin-Bay-Ln-20853/home/11082038,BRIGHT MLS,MDMC682742,N,Y,39.0957912,-77.1001749
PAST SALE,January-14-2020,Single Family Residential,4503 Landgreen St,Rockville,MD,20853,495000,4,3.0,ASPEN KNOLLS,1806,9969,1960,691,274,,Sold,,,https://www.redfin.com/MD/Rockville/4503-Landgreen-St-20853/home/11042718,BRIGHT MLS,MDMC688392,N,Y,39.0801839,-77.0894747
PAST SALE,November-23-2021,Single Family Residential,4504 Cherry Valley Dr,Rockville,MD,20853,739000,4,2.5,NORBECK ESTATES,3206,17362,1971,12,231,,Sold,,,https://www.redfin.com/MD/Rockville/4504-Cherry-Valley-Dr-20853/home/10709553,BRIGHT MLS,MDMC2012494,N,Y,39.1355952,-77.0898344
PAST SALE,December-1-2021,Single Family Residential,4826 Walkingfern Dr,Rockville,MD,20853,750000,5,3.5,ELLENWOOD,3872,16200,1984,4,194,,Sold,,,https://www.redfin.com/MD/Rockville/4826-Walkingfern-Dr-20853/home/10718176,BRIGHT MLS,MDMC2019052,N,Y,39.1217991,-77.0973426
PAST SALE,December-20-2019,Single Family Residential,13008 Parkland Dr,Rockville,MD,20853,400000,5,2.0,WHEATON WOODS,980,8023,1952,716,408,,Sold,,,https://www.redfin.com/MD/Rockville/13008-Parkland-Dr-20853/home/11031885,BRIGHT MLS,MDMC679548,N,Y,39.0696904,-77.0883507
PAST SALE,July-22-2019,Townhouse,5505 Burnside Dr,Rockville,MD,20853,309900,3,2.5,TOWNES OF N CREEK CODM,1880,,1969,867,165,475,Sold,,,https://www.redfin.com/MD/Rockville/5505-Burnside-Dr-20853/unit-5505/home/11125855,BRIGHT MLS,MDMC657194,N,Y,39.0938953,-77.1095099
PAST SALE,August-12-2021,Single Family Residential,5205 Myer Ct,Rockville,MD,20853,630000,4,3.5,MANOR WOODS,2372,9199,1966,115,266,,Sold,,,https://www.redfin.com/MD/Rockville/5205-Myer-Ct-20853/home/11083508,BRIGHT MLS,MDMC754898,N,Y,39.0961053,-77.1051201
PAST SALE,April-6-2021,Single Family Residential,14404 Briarwood Ter,Rockville,MD,20853,520000,5,2.0,MANOR WOODS,1953,8061,1965,243,266,,Sold,,,https://www.redfin.com/MD/Rockville/14404-Briarwood-Ter-20853/home/11082537,BRIGHT MLS,MDMC744194,N,Y,39.0923102,-77.0948249
PAST SALE,August-28-2020,Single Family Residential,14413 Bauer Dr,Rockville,MD,20853,610000,4,4.0,MANOR WOODS,2625,13169,1968,464,232,,Sold,,,https://www.redfin.com/MD/Rockville/14413-Bauer-Dr-20853/home/11082855,BRIGHT MLS,MDMC712458,N,Y,39.0911435,-77.1024452
PAST SALE,July-28-2020,Single Family Residential,15105 Candytuft Ln,Rockville,MD,20853,697000,4,3.5,FLOWER VALLEY,2908,15000,1971,495,240,,Sold,,,https://www.redfin.com/MD/Rockville/15105-Candytuft-Ln-20853/home/10707407,BRIGHT MLS,MDMC708970,N,Y,39.1043622,-77.1038164
PAST SALE,,Single Family Residential,4209 Landgreen St,Rockville,MD,20853,540000,,2.0,,1560,9750,1962,,346,,,,,https://www.redfin.com/MD/Rockville/4209-Landgreen-St-20853/home/11034871,,,N,Y,39.0826513,-77.0850685
PAST SALE,April-26-2021,Single Family Residential,4203 Bel Pre Rd,Rockville,MD,20853,630000,5,3.0,BEL PRE WOODS,2296,9032,1961,223,274,,Sold,,,https://www.redfin.com/MD/Rockville/4203-Bel-Pre-Rd-20853/home/11066258,BRIGHT MLS,MDMC2000196,N,Y,39.0925547,-77.0834498
PAST SALE,November-12-2021,Single Family Residential,14921 Clavel St,Rockville,MD,20853,670000,4,2.5,MANOR LAKE,1929,12000,1971,23,347,,Sold,,,https://www.redfin.com/MD/Rockville/14921-Clavel-St-20853/unit-T/home/10709441,BRIGHT MLS,MDMC2015886,N,Y,39.1008165,-77.1043109
PAST SALE,December-3-2021,Single Family Residential,4713 Iris Pl,Rockville,MD,20853,547500,4,3.0,ASPEN HILL PARK,2016,8982,1971,2,272,,Sold,,,https://www.redfin.com/MD/Rockville/4713-Iris-Pl-20853/home/11042113,BRIGHT MLS,MDMC2015896,N,Y,39.0779723,-77.0950947
PAST SALE,October-15-2021,Single Family Residential,13811 Sloan St,Rockville,MD,20853,595000,4,2.5,ROCK CREEK MANOR,1825,11942,1965,51,326,,Sold,,,https://www.redfin.com/MD/Rockville/13811-Sloan-St-20853/home/11077178,BRIGHT MLS,MDMC2007694,N,Y,39.0834434,-77.1046256
PAST SALE,February-13-2019,Single Family Residential,5000 Stone Rd,Rockville,MD,20853,790000,5,4.5,OLNEY ACRES,4546,65340,2015,1026,174,,Sold,,,https://www.redfin.com/MD/Rockville/5000-Stone-Rd-20853/home/10729794,BRIGHT MLS,MDMC488920,N,Y,39.1467984,-77.1016585
PAST SALE,November-27-2019,Single Family Residential,13714 Drake Dr,Rockville,MD,20853,525000,4,2.5,ROCK CREEK MANOR,1825,12950,1965,739,288,,Sold,,,https://www.redfin.com/MD/Rockville/13714-Drake-Dr-20853/home/11076385,BRIGHT MLS,MDMC673074,N,Y,39.0812022,-77.1049852
PAST SALE,,Condo/Co-op,14414 Parkvale Rd #14414,Rockville,MD,20853,200000,,,,1014,,1964,,197,,,,,https://www.redfin.com/MD/Rockville/14414-Parkvale-Rd-20853/unit-14414/home/11125574,,,N,Y,39.0920172,-77.112539
PAST SALE,August-14-2020,Townhouse,15409 Manor Village Ln,Rockville,MD,20853,470000,3,3.0,MANOR VILLAGE,2763,2546,1985,478,170,117,Sold,,,https://www.redfin.com/MD/Rockville/15409-Manor-Village-Ln-20853/home/11113740,BRIGHT MLS,MDMC712720,N,Y,39.107677,-77.077337
PAST SALE,,Unknown,16300 COOLIDGE AVE,ROCKVILLE,MD,20853,664333,,,,,,,,,,,,,https://www.redfin.com/MD/ROCKVILLE/16300-COOLIDGE-AVE-20853/home/148711017,,,N,Y,39.1028683,-77.0967357
PAST SALE,June-21-2019,Single Family Residential,13541 Vandalia Dr,Rockville,MD,20853,402000,3,2.0,WHEATON WOODS,1610,7712,1961,898,250,,Sold,,,https://www.redfin.com/MD/Rockville/13541-Vandalia-Dr-20853/home/11035463,BRIGHT MLS,MDMC659536,N,Y,39.0786616,-77.0826854
PAST SALE,,Condo/Co-op,14414 Parkvale Rd #14414,Rockville,MD,20853,155000,,,,842,,1964,,184,,,,,https://www.redfin.com/MD/Rockville/14414-Parkvale-Rd-20853/unit-14414/home/11125558,,,N,Y,39.0920172,-77.112539
PAST SALE,December-8-2020,Single Family Residential,4406 Pinetree Rd,Rockville,MD,20853,614406,3,3.0,SYCAMORE ACRES,4150,43995,1965,362,148,,Sold,,,https://www.redfin.com/MD/Rockville/4406-Pinetree-Rd-20853/home/10705539,BRIGHT MLS,MDMC734006,N,Y,39.120545,-77.087946
PAST SALE,September-10-2021,Single Family Residential,13131 Beaver Ter,Rockville,MD,20853,500000,4,2.5,BROOKHAVEN,1830,8017,1962,86,273,,Sold,,,https://www.redfin.com/MD/Rockville/13131-Beaver-Ter-20853/home/11043358,BRIGHT MLS,MDMC746564,N,Y,39.0735797,-77.0791332
PAST SALE,January-21-2020,Single Family Residential,4115 Muncaster Ml,Rockville,MD,20853,1250000,4,5.0,OLNEY OUT RES (2),,65340,1969,684,,,Sold,,,https://www.redfin.com/MD/Rockville/4115-Muncaster-Mill-Rd-20853/home/35617930,BRIGHT MLS,MDMC681748,N,Y,39.1105384,-77.0821908
PAST SALE,August-21-2020,Townhouse,15341 Manor Village Ln,Rockville,MD,20853,477700,3,3.0,MANOR VILLAGE,2763,2625,1984,471,173,118,Sold,,,https://www.redfin.com/MD/Rockville/15341-Manor-Village-Ln-20853/home/11113739,BRIGHT MLS,MDMC715864,N,Y,39.107663,-77.0776039
PAST SALE,August-6-2021,Single Family Residential,15117 Westbury Rd,Rockville,MD,20853,725000,5,2.5,FLOWER VALLEY,2860,18559,1967,121,253,,Sold,,,https://www.redfin.com/MD/Rockville/15117-Westbury-Rd-20853/home/10707014,BRIGHT MLS,MDMC2004316,N,Y,39.105127,-77.0974325
PAST SALE,September-24-2021,Single Family Residential,14208 Oakvale St,Rockville,MD,20853,495600,4,3.0,WHEATON WOODS,1833,10570,1961,72,270,,Sold,,,https://www.redfin.com/MD/Rockville/14208-Oakvale-St-20853/home/11034102,BRIGHT MLS,MDMC2012180,N,Y,39.0874798,-77.0860127
PAST SALE,October-25-2021,Single Family Residential,4709 Powder House Dr,Rockville,MD,20853,690000,5,3.5,NORBECK ESTATES,2488,15347,1971,41,277,,Sold,,,https://www.redfin.com/MD/Rockville/4709-Powder-House-Dr-20853/home/10710048,BRIGHT MLS,MDMC2017022,N,Y,39.1323696,-77.0935211
PAST SALE,,Condo/Co-op,14412 Parkvale Rd #14412,Rockville,MD,20853,195000,,,,966,,1964,,202,,,,,https://www.redfin.com/MD/Rockville/14412-Parkvale-Rd-20853/unit-14412/home/11125539,,,N,Y,39.0919961,-77.1125491
PAST SALE,June-26-2019,Single Family Residential,14907 Carrolton Rd,Rockville,MD,20853,760000,4,4.0,MANOR PARK,4017,22928,1987,893,189,,Sold,,,https://www.redfin.com/MD/Rockville/14907-Carrolton-Rd-20853/home/11131776,BRIGHT MLS,MDMC654748,N,Y,39.103412,-77.0871367
PAST SALE,,Condo/Co-op,5576 Burnside Dr Unit 5576-1,Rockville,MD,20853,170000,1,1.0,,1000,,1984,,170,,,,,https://www.redfin.com/MD/Rockville/5576-Burnside-Dr-20853/unit-5576-1/home/11126282,,,N,Y,39.0930073,-77.1116175
PAST SALE,,Condo/Co-op,14416 Parkvale Rd #14416,Rockville,MD,20853,202500,,,,966,,1964,,210,,,,,https://www.redfin.com/MD/Rockville/14416-Parkvale-Rd-20853/unit-14416/home/11125579,,,N,Y,39.0920383,-77.1125289
PAST SALE,May-8-2020,Single Family Residential,14306 Parkmanor Ter,Rockville,MD,20853,495000,4,3.0,ROCK CREEK MANOR,2051,12516,1967,576,241,,Sold,,,https://www.redfin.com/MD/Rockville/14306-Parkmanor-Ter-20853/home/35619147,BRIGHT MLS,MDMC701024,N,Y,39.0897696,-77.1116159
PAST SALE,,Single Family Residential,4304 Norbeck Rd,Rockville,MD,20853,740000,,4.5,,3167,24705,1987,,234,,,,,https://www.redfin.com/MD/Rockville/4304-Norbeck-Rd-20853/home/11131763,,,N,Y,39.1039967,-77.0866421
PAST SALE,October-16-2019,Single Family Residential,4206 Heathfield Rd,Rockville,MD,20853,460000,7,3.0,ENGLISH MANOR,2510,12905,1960,781,183,,Sold,,,https://www.redfin.com/MD/Rockville/4206-Heathfield-Rd-20853/home/11063130,BRIGHT MLS,MDMC676014,N,Y,39.0853847,-77.0850326
PAST SALE,September-10-2021,Single Family Residential,4428 Independence St,Rockville,MD,20853,449900,4,2.0,WHEATON WOODS,1715,6236,1952,86,262,,Sold,,,https://www.redfin.com/MD/Rockville/4428-Independence-St-20853/home/11034778,BRIGHT MLS,MDMC2008200,N,Y,39.07373,-77.0901042
PAST SALE,July-12-2019,Single Family Residential,14315 Bauer Dr,Rockville,MD,20853,487500,4,2.5,MANOR WOODS,1880,8794,1966,877,259,,Sold,,,https://www.redfin.com/MD/Rockville/14315-Bauer-Dr-20853/home/11083217,BRIGHT MLS,MDMC654214,N,Y,39.09108,-77.09959
PAST SALE,September-4-2020,Townhouse,4921 Arctic Ter,Rockville,MD,20853,414500,3,2.5,ASPEN HILL PARK,2084,3924,1972,457,199,50,Sold,,,https://www.redfin.com/MD/Rockville/4921-Arctic-Ter-20853/home/11040568,BRIGHT MLS,MDMC718154,N,Y,39.076687,-77.096929
PAST SALE,April-16-2021,Single Family Residential,16705 Cavalry Dr,Rockville,MD,20853,765000,4,3.5,NORBECK ESTATES,3088,27349,1974,233,248,,Sold,,,https://www.redfin.com/MD/Rockville/16705-Cavalry-Dr-20853/home/10709728,BRIGHT MLS,MDMC747484,N,Y,39.1289816,-77.0900592
PAST SALE,September-20-2019,Single Family Residential,13810 Loree Ln,Rockville,MD,20853,435000,4,2.0,BEL PRE WOODS,1848,10106,1964,807,235,,Sold,,,https://www.redfin.com/MD/Rockville/13810-Loree-Ln-20853/home/11066336,BRIGHT MLS,MDMC673340,N,Y,39.0821447,-77.0948249
PAST SALE,September-9-2020,Single Family Residential,5 Hornbeam Ct,Rockville,MD,20853,690000,5,3.5,NORBECK MANOR,3368,11122,1986,452,205,27,Sold,,,https://www.redfin.com/MD/Rockville/5-Hornbeam-Ct-20853/home/10716751,BRIGHT MLS,MDMC706106,N,Y,39.1124549,-77.0989161
PAST SALE,,Condo/Co-op,12712 Veirs Mill Rd Unit 83-2,Rockville,MD,20853,217000,,,,1573,,1973,,138,,,,,https://www.redfin.com/MD/Rockville/12712-Veirs-Mill-Rd-20853/unit-83-2/home/11093594,,,N,Y,39.0638008,-77.0981304
PAST SALE,,Single Family Residential,13513 Grenoble Dr,Rockville,MD,20853,440000,,2.0,,1904,6605,1954,,231,,,,,https://www.redfin.com/MD/Rockville/13513-Grenoble-Dr-20853/home/11034694,,,N,Y,39.0779774,-77.0894297
PAST SALE,October-29-2021,Single Family Residential,13415 Keating St,Rockville,MD,20853,345000,3,2.0,WHEATON WOODS,1312,6529,1953,37,263,,Sold,,,https://www.redfin.com/MD/Rockville/13415-Keating-St-20853/home/11035473,BRIGHT MLS,MDMC2008862,N,Y,39.0771658,-77.0882608
PAST SALE,November-8-2021,Single Family Residential,4605 Tallahassee Ave,Rockville,MD,20853,535000,3,2.0,ASPEN HILL PARK,1926,10787,1957,27,278,,Sold,,,https://www.redfin.com/MD/Rockville/4605-Tallahassee-Ave-20853/home/11041284,BRIGHT MLS,MDMC2016506,N,Y,39.0702006,-77.0939707
PAST SALE,October-28-2021,Single Family Residential,14505 Woodcrest Dr,Rockville,MD,20853,676000,4,3.0,MANOR WOODS,2066,8560,1966,38,327,,Sold,,,https://www.redfin.com/MD/Rockville/14505-Woodcrest-Dr-20853/home/11081276,BRIGHT MLS,MDMC2017526,N,Y,39.0950949,-77.0989611
PAST SALE,November-8-2021,Single Family Residential,13413 Justice Rd,Rockville,MD,20853,325000,3,1.5,WHEATON WOODS,1312,5950,1953,27,248,,Sold,,,https://www.redfin.com/MD/Rockville/13413-Justice-Rd-20853/home/11032785,BRIGHT MLS,MDMC2000751,N,Y,39.0761298,-77.087946
PAST SALE,October-7-2021,Single Family Residential,13210 Grenoble Dr,Rockville,MD,20853,442000,3,2.0,WHEATON WOODS,1710,8700,1953,59,258,,Sold,,,https://www.redfin.com/MD/Rockville/13210-Grenoble-Dr-20853/home/11034427,BRIGHT MLS,MDMC2009246,N,Y,39.0735765,-77.0919475
PAST SALE,,Single Family Residential,15400 Bitterroot Way,Rockville,MD,20853,618000,,2.5,,2440,15598,1984,,253,,,,,https://www.redfin.com/MD/Rockville/15400-Bitterroot-Way-20853/home/10716945,,,N,Y,39.1081684,-77.0981519
PAST SALE,December-12-2018,Single Family Residential,5462 Marlin St,Rockville,MD,20853,515000,4,2.5,MANOR LAKE,2184,8723,1968,1089,236,,Sold,,,https://www.redfin.com/MD/Rockville/5462-Marlin-St-20853/home/10709412,BRIGHT MLS,1009948572,N,Y,39.0990804,-77.1068509
PAST SALE,February-8-2019,Single Family Residential,17709 Olney Ln,Rockville,MD,20853,420000,5,2.0,OLNEY ACRES,3582,79714,1962,1031,117,,Sold,,,https://www.redfin.com/MD/Rockville/17709-Olney-Ln-20853/home/10704976,BRIGHT MLS,MDMC486892,N,Y,39.1468009,-77.0965109
PAST SALE,February-5-2021,Single Family Residential,17600 Kirk Ln,Rockville,MD,20853,900000,5,4.5,OLNEY ACRES,6451,87556,2004,303,140,,Sold,,,https://www.redfin.com/MD/Rockville/17600-Kirk-Ln-20853/home/11181876,BRIGHT MLS,MDMC737724,N,Y,39.1450377,-77.1028948
PAST SALE,October-26-2020,Single Family Residential,5004 Margot Ct,Rockville,MD,20853,473000,4,2.5,ASPEN HILL PARK,1667,8879,1960,405,284,,Sold,,,https://www.redfin.com/MD/Rockville/5004-Margot-Ct-20853/home/11042244,BRIGHT MLS,MDMC720576,N,Y,39.0688658,-77.1020631
PAST SALE,December-13-2018,Single Family Residential,15405 Narcissus Way,Rockville,MD,20853,657000,4,3.0,FLOWER VALLEY,3164,17840,1966,1088,208,,Sold,,,https://www.redfin.com/MD/Rockville/15405-Narcissus-Way-20853/home/10707006,BRIGHT MLS,1002653864,N,Y,39.1093708,-77.0949598
PAST SALE,May-22-2019,Single Family Residential,4604 Wissahican Ave,Rockville,MD,20853,400000,3,2.0,ASPEN HILL PARK,1466,7150,1957,928,273,,Sold,,,https://www.redfin.com/MD/Rockville/4604-Wissahican-Ave-20853/home/11042287,BRIGHT MLS,MDMC656318,N,Y,39.0691037,-77.0927568
PAST SALE,August-2-2021,Townhouse,5616 Hogenhill Ter,Rockville,MD,20853,430000,3,3.5,ROCK CREEK MANOR,1456,1887,1983,125,295,75,Sold,,,https://www.redfin.com/MD/Rockville/5616-Hogenhill-Ter-20853/home/11111153,BRIGHT MLS,MDMC762358,N,Y,39.0940742,-77.1133354
PAST SALE,August-5-2021,Single Family Residential,5117 Trailway Dr,Rockville,MD,20853,630000,4,3.0,MANOR LAKE,2130,10504,1969,122,296,,Sold,,,https://www.redfin.com/MD/Rockville/5117-Trailway-Dr-20853/home/10709182,BRIGHT MLS,MDMC753054,N,Y,39.1013699,-77.1021081
PAST SALE,July-5-2021,Single Family Residential,5324 Trailway Dr,Rockville,MD,20853,715000,4,2.5,MANOR LAKE,2458,19641,1970,153,291,,Sold,,,https://www.redfin.com/MD/Rockville/5324-Trailway-Dr-20853/home/10709353,BRIGHT MLS,MDMC755222,N,Y,39.1032251,-77.1079522
PAST SALE,December-3-2019,Single Family Residential,9 Lake Ct,Rockville,MD,20853,595000,5,3.5,MANOR LAKE,4241,17104,1966,733,140,,Sold,,,https://www.redfin.com/MD/Rockville/9-Lake-Ct-20853/home/10709031,BRIGHT MLS,MDMC676174,N,Y,39.0970205,-77.1115035
PAST SALE,July-29-2021,Single Family Residential,15800 Sycamore Ln,Rockville,MD,20853,950000,5,3.5,SYCAMORE ACRES,3820,60112,1985,129,249,,Sold,,,https://www.redfin.com/MD/Rockville/15800-Sycamore-Ln-20853/home/10716172,BRIGHT MLS,MDMC763104,N,Y,39.116049,-77.0920824
PAST SALE,July-27-2021,Single Family Residential,4928 Walkingfern Dr,Rockville,MD,20853,840000,4,3.5,ELLENWOOD,2602,18568,1984,131,323,,Sold,,,https://www.redfin.com/MD/Rockville/4928-Walkingfern-Dr-20853/home/10718212,BRIGHT MLS,MDMC762764,N,Y,39.1214858,-77.0991859
PAST SALE,July-24-2020,Single Family Residential,13903 Dowlais Dr,Rockville,MD,20853,495000,4,2.5,BEL PRE WOODS,2064,8559,1965,499,240,,Sold,,,https://www.redfin.com/MD/Rockville/13903-Dowlais-Dr-20853/home/11066747,BRIGHT MLS,MDMC708222,N,Y,39.0846835,-77.0974775
PAST SALE,November-15-2019,Townhouse,4032 Norbeck Square Dr,Rockville,MD,20853,350000,2,3.0,MANOR VILLAGE,2070,1342,1987,751,169,133,Sold,,,https://www.redfin.com/MD/Rockville/4032-Norbeck-Square-Dr-20853/home/11124599,BRIGHT MLS,MDMC676606,N,Y,39.108406,-77.077392
PAST SALE,January-30-2020,Single Family Residential,14817 Rocking Spring Dr,Rockville,MD,20853,590000,4,3.5,MANOR LAKE,2528,10715,1968,675,233,,Sold,,,https://www.redfin.com/MD/Rockville/14817-Rocking-Spring-Dr-20853/home/10709384,BRIGHT MLS,MDMC683412,N,Y,39.0991667,-77.1052999
PAST SALE,May-28-2021,Single Family Residential,14313 Yosemite Ct,Rockville,MD,20853,720500,5,2.5,MANOR WOODS,2273,11064,1965,191,317,,Sold,,,https://www.redfin.com/MD/Rockville/14313-Yosemite-Ct-20853/home/11083328,BRIGHT MLS,MDMC755824,N,Y,39.092017,-77.1032769
PAST SALE,June-15-2021,Single Family Residential,4821 Bel Pre Rd,Rockville,MD,20853,625000,5,2.5,MANOR WOODS,3065,8250,1966,173,204,,Sold,,,https://www.redfin.com/MD/Rockville/4821-Bel-Pre-Rd-20853/home/11083239,BRIGHT MLS,MDMC752588,N,Y,39.0969783,-77.0961287
PAST SALE,March-7-2019,Single Family Residential,15221 Rosecroft Rd,Rockville,MD,20853,557500,3,2.0,MANOR PARK,2102,32200,1948,1004,265,,Sold,,,https://www.redfin.com/MD/Rockville/15221-Rosecroft-Rd-20853/home/10989338,BRIGHT MLS,MDMC620880,N,Y,39.1072794,-77.0788185
PAST SALE,April-25-2019,Single Family Residential,10 Marlin Ct,Rockville,MD,20853,531900,5,3.0,MANOR LAKE,2287,12542,1969,955,233,,Sold,,,https://www.redfin.com/MD/Rockville/10-Marlin-Ct-20853/home/10708994,BRIGHT MLS,MDMC624812,N,Y,39.1007636,-77.1070531
PAST SALE,April-22-2019,Single Family Residential,14411 Oakvale St,Rockville,MD,20853,415000,5,3.0,BEL PRE WOODS,2200,10934,1964,958,189,,Sold,,,https://www.redfin.com/MD/Rockville/14411-Oakvale-St-20853/home/11067927,BRIGHT MLS,1002063608,N,Y,39.088754,-77.090744
PAST SALE,January-3-2019,Single Family Residential,4 Waterway Ct,Rockville,MD,20853,829950,6,5.0,MANOR LAKE,6100,29371,1968,1067,136,,Sold,,,https://www.redfin.com/MD/Rockville/4-Waterway-Ct-20853/home/10709372,BRIGHT MLS,1009914014,N,Y,39.099196,-77.112079
PAST SALE,February-24-2021,Single Family Residential,13813 Drake Dr,Rockville,MD,20853,550000,5,3.5,ROCK CREEK MANOR,2032,12380,1965,284,271,,Sold,,,https://www.redfin.com/MD/Rockville/13813-Drake-Dr-20853/home/11076371,BRIGHT MLS,MDMC740262,N,Y,39.0841694,-77.1053898
PAST SALE,April-30-2019,Single Family Residential,5007 Butternut Dr,Rockville,MD,20853,623500,5,3.5,MANOR WOODS,2027,11868,1969,950,308,,Sold,,,https://www.redfin.com/MD/Rockville/5007-Butternut-Dr-20853/home/11081795,BRIGHT MLS,MDMC649068,N,Y,39.0919528,-77.1010965
PAST SALE,November-17-2021,Single Family Residential,4725 Jasmine Dr,Rockville,MD,20853,699000,5,2.5,FLOWER VALLEY,2310,17688,1966,18,303,,Sold,,,https://www.redfin.com/MD/Rockville/4725-Jasmine-Dr-20853/home/10707009,BRIGHT MLS,MDMC2010464,N,Y,39.1063859,-77.095814
PAST SALE,July-2-2019,Single Family Residential,13910 Flint Rock Rd,Rockville,MD,20853,532000,5,2.5,BEL PRE WOODS,2326,9619,1968,887,229,,Sold,,,https://www.redfin.com/MD/Rockville/13910-Flint-Rock-Rd-20853/home/11066000,BRIGHT MLS,MDMC661342,N,Y,39.0861135,-77.1027375
PAST SALE,September-19-2019,Single Family Residential,13915 Flint Rock Rd,Rockville,MD,20853,617000,5,2.5,BEL PRE WOODS,3180,8800,1968,808,194,,Sold,,,https://www.redfin.com/MD/Rockville/13915-Flint-Rock-Rd-20853/home/11067514,BRIGHT MLS,MDMC671410,N,Y,39.0867388,-77.1026026
PAST SALE,July-11-2019,Single Family Residential,5505 Marlin St,Rockville,MD,20853,543000,4,2.5,MANOR LAKE,2287,10706,1969,878,237,,Sold,,,https://www.redfin.com/MD/Rockville/5505-Marlin-St-20853/home/35617957,BRIGHT MLS,MDMC656926,N,Y,39.1001589,-77.1077275
PAST SALE,March-27-2019,Townhouse,5550 Burnside Dr,Rockville,MD,20853,295000,3,2.5,TOWNES OF N CREEK CODM,2003,,1969,984,147,475,Sold,,,https://www.redfin.com/MD/Rockville/5550-Burnside-Dr-20853/home/12415490,BRIGHT MLS,MDMC619432,N,Y,39.0933444,-77.1107775
PAST SALE,November-23-2021,Single Family Residential,13809 Flint Rock Rd,Rockville,MD,20853,577000,3,2.0,BEL PRE WOODS,2168,8455,1967,12,266,,Sold,,,https://www.redfin.com/MD/Rockville/13809-Flint-Rock-Rd-20853/home/11066037,BRIGHT MLS,MDMC2021244,N,Y,39.0834246,-77.0998153
PAST SALE,August-28-2020,Townhouse,15418 Manor House Ter,Rockville,MD,20853,428000,3,3.0,MANOR VILLAGE,2394,1330,1987,464,179,125,Sold,,,https://www.redfin.com/MD/Rockville/15418-Manor-House-Ter-20853/home/11130430,BRIGHT MLS,MDMC708594,N,Y,39.1087739,-77.078164
PAST SALE,,Condo/Co-op,14430 Parkvale Rd #14430,Rockville,MD,20853,165000,,,,966,,1964,,171,,,,,https://www.redfin.com/MD/Rockville/14430-Parkvale-Rd-20853/unit-14430/home/11125680,,,N,Y,39.0926159,-77.1134441
PAST SALE,December-7-2018,Single Family Residential,13418 Dowlais Dr,Rockville,MD,20853,499000,5,2.5,ASPEN HILL PARK,1712,9000,1963,1094,291,,Sold,,,https://www.redfin.com/MD/Rockville/13418-Dowlais-Dr-20853/home/11041482,BRIGHT MLS,1009939206,N,Y,39.0776586,-77.1033668
PAST SALE,October-16-2020,Condo/Co-op,14414 Parkvale Rd #1,Rockville,MD,20853,155000,1,1.0,NORTH CREEK VILLAS CODM,842,,1964,415,184,481,Sold,,,https://www.redfin.com/MD/Rockville/14414-Parkvale-Rd-20853/unit-1/home/171191290,BRIGHT MLS,MDMC698322,N,Y,39.0919415,-77.1125011
PAST SALE,,Single Family Residential,16516 Minuteman Ter,Rockville,MD,20853,825000,,3.5,,3739,18693,1990,,221,,,,,https://www.redfin.com/MD/Rockville/16516-Minuteman-Ter-20853/home/10723908,,,N,Y,39.1261529,-77.0962187
PAST SALE,May-4-2021,Single Family Residential,14609 Chesterfield Rd,Rockville,MD,20853,1400000,6,4.0,MANOR PARK,6611,18000,1967,215,212,,Sold,,,https://www.redfin.com/MD/Rockville/14609-Chesterfield-Rd-20853/home/10989541,BRIGHT MLS,MDMC745766,N,Y,39.0977998,-77.0947125
PAST SALE,December-6-2018,Single Family Residential,14007 Arctic Ave,Rockville,MD,20853,495000,4,3.5,BEL PRE WOODS,2194,10125,1966,1095,226,,Sold,,,https://www.redfin.com/MD/Rockville/14007-Arctic-Ave-20853/home/11066924,BRIGHT MLS,1002225104,N,Y,39.0853463,-77.0944653
PAST SALE,November-21-2019,Single Family Residential,14313 Blackmon Dr,Rockville,MD,20853,485000,5,2.5,BEL PRE WOODS,1883,9360,1962,745,258,,Sold,,,https://www.redfin.com/MD/Rockville/14313-Blackmon-Dr-20853/home/11067304,BRIGHT MLS,MDMC681180,N,Y,39.0916748,-77.08916
PAST SALE,September-9-2021,Single Family Residential,12908 Evanston St,Rockville,MD,20853,460000,3,2.0,WHEATON WOODS,1714,7200,1952,87,268,,Sold,,,https://www.redfin.com/MD/Rockville/12908-Evanston-St-20853/home/11034930,BRIGHT MLS,MDMC2003334,N,Y,39.0678262,-77.0910034
PAST SALE,January-16-2020,Single Family Residential,13001 Vandalia Dr,Rockville,MD,20853,392000,3,2.0,BROOKHAVEN,1718,7696,1956,689,228,,Sold,,,https://www.redfin.com/MD/Rockville/13001-Vandalia-Dr-20853/home/11044346,BRIGHT MLS,MDMC688478,N,Y,39.0690366,-77.0846638
PAST SALE,October-29-2019,Single Family Residential,4301 Elizabeth St,Rockville,MD,20853,399000,3,2.0,BROOKHAVEN,1334,7554,1955,768,299,,Sold,,,https://www.redfin.com/MD/Rockville/4301-Elizabeth-St-20853/home/11043723,BRIGHT MLS,MDMC678288,N,Y,39.0725546,-77.0849785
PAST SALE,December-4-2020,Single Family Residential,16501 Jilrick St,Rockville,MD,20853,552000,3,3.0,OLNEY OUT RES (2),2235,17517,1967,366,247,,Sold,,,https://www.redfin.com/MD/Rockville/16501-Jilrick-St-20853/home/10702769,BRIGHT MLS,MDMC729938,N,Y,39.1267778,-77.0861026
PAST SALE,,Vacant Land,4289 Muncaster Mill Rd,Rockville,MD,20853,200000,,,,,43560,,,,,,,,https://www.redfin.com/MD/Rockville/4289-Muncaster-Mill-Rd-20853/home/10703348,,,N,Y,39.111925,-77.0834948
PAST SALE,October-15-2019,Single Family Residential,4730 Iris St,Rockville,MD,20853,505000,4,2.5,ASPEN HILL PARK,1886,10622,1970,782,268,,Sold,,,https://www.redfin.com/MD/Rockville/4730-Iris-St-20853/home/11039775,BRIGHT MLS,MDMC658708,N,Y,39.0773633,-77.0968031
PAST SALE,November-19-2021,Single Family Residential,14211 Dennington Pl,Rockville,MD,20853,562750,4,2.0,ENGLISH MANOR,1785,9339,1961,16,315,,Sold,,,https://www.redfin.com/MD/Rockville/14211-Dennington-Pl-20853/home/11063878,BRIGHT MLS,MDMC2019568,N,Y,39.0912374,-77.0816962
PAST SALE,December-7-2020,Single Family Residential,16504 Jilrick St,Rockville,MD,20853,590000,5,3.0,OLNEY OUT RES (2),2492,15238,1967,363,237,,Sold,,,https://www.redfin.com/MD/Rockville/16504-Jilrick-St-20853/home/10704084,BRIGHT MLS,MDMC731316,N,Y,39.1267785,-77.086822
PAST SALE,November-19-2020,Condo/Co-op,2517 Baltimore Rd #6,Rockville,MD,20853,200000,2,1.0,NORTH CREEK PLACE CODM,1075,,1967,381,186,457,Sold,,,https://www.redfin.com/MD/Rockville/2517-Baltimore-Rd-20853/unit-6/home/143317045,BRIGHT MLS,MDMC722162,N,Y,39.0941078,-77.1120469
PAST SALE,December-10-2018,Single Family Residential,17715 Ridge Dr,Rockville,MD,20853,352900,2,2.0,OLNEY ACRES,1512,52272,1961,1091,233,,Sold,,,https://www.redfin.com/MD/Rockville/17715-Ridge-Dr-20853/home/10704873,BRIGHT MLS,1009991718,N,Y,39.1476797,-77.0981069
PAST SALE,March-1-2019,Single Family Residential,17608 Cashell Rd,Rockville,MD,20853,570000,5,3.0,OLNEY ACRES,3536,91912,1978,1010,161,,Sold,,,https://www.redfin.com/MD/Rockville/17608-Cashell-Rd-20853/home/10705212,BRIGHT MLS,MDMC488250,N,Y,39.1456221,-77.094735
PAST SALE,June-24-2021,Single Family Residential,4501 Oak Hill Rd,Rockville,MD,20853,725000,4,4.0,SYCAMORE ACRES,4284,43995,1960,164,169,,Sold,,,https://www.redfin.com/MD/Rockville/4501-Oak-Hill-Rd-20853/home/10705320,BRIGHT MLS,MDMC756924,N,Y,39.1161581,-77.088598
PAST SALE,April-18-2019,Single Family Residential,4501 Muncaster Mill Rd,Rockville,MD,20853,435000,4,2.0,SYCAMORE ACRES,1394,44866,1957,962,312,,Sold,,,https://www.redfin.com/MD/Rockville/4501-Muncaster-Mill-Rd-20853/home/10705338,BRIGHT MLS,MDMC488406,N,Y,39.1133216,-77.0898794
PAST SALE,,Single Family Residential,4431 Muncaster Mill Rd,Rockville,MD,20853,550000,,2.5,,1889,44866,1948,,291,,,,,https://www.redfin.com/MD/Rockville/4431-Muncaster-Mill-Rd-20853/home/10705517,,,N,Y,39.113176,-77.0892949
PAST SALE,September-8-2021,Single Family Residential,12506 Rosebud Dr,Rockville,MD,20853,435000,4,2.0,STONEYBROOK ESTATES,1825,6934,1954,88,238,,Sold,,,https://www.redfin.com/MD/Rockville/12506-Rosebud-Dr-20853/home/11053724,BRIGHT MLS,MDMC2008406,N,Y,39.0623109,-77.0903739
PAST SALE,,Condo/Co-op,14618 Bauer Dr #14618,Rockville,MD,20853,162000,,,,1092,,1967,,148,,,,,https://www.redfin.com/MD/Rockville/14618-Bauer-Dr-20853/unit-14618/home/11126546,,,N,Y,39.0931993,-77.1098929
PAST SALE,September-23-2019,Single Family Residential,2 Jasmine Ct,Rockville,MD,20853,543000,4,2.5,FLOWER VALLEY,2780,18039,1966,804,195,,Sold,,,https://www.redfin.com/MD/Rockville/2-Jasmine-Ct-20853/home/10706818,BRIGHT MLS,MDMC669994,N,Y,39.1068342,-77.0994556
PAST SALE,October-1-2020,Single Family Residential,15219 Red Clover Dr,Rockville,MD,20853,712500,4,2.5,FLOWER VALLEY,3405,15196,1969,430,209,,Sold,,,https://www.redfin.com/MD/Rockville/15219-Red-Clover-Dr-20853/home/10706889,BRIGHT MLS,MDMC717946,N,Y,39.1051989,-77.0995006
PAST SALE,May-13-2021,Single Family Residential,4912 Bluebonnet Ct,Rockville,MD,20853,810000,4,2.5,FLOWER VALLEY,2935,15632,1969,206,276,,Sold,,,https://www.redfin.com/MD/Rockville/4912-Bluebonnet-Ct-20853/home/10706893,BRIGHT MLS,MDMC753168,N,Y,39.1018555,-77.0979744
PAST SALE,,Single Family Residential,4601 Flower Valley Dr,Rockville,MD,20853,590000,,3.5,,2834,17081,1966,,208,,,,,https://www.redfin.com/MD/Rockville/4601-Flower-Valley-Dr-20853/home/10706897,,,N,Y,39.1039568,-77.0919925
PAST SALE,June-7-2021,Single Family Residential,15008 Red Clover Dr,Rockville,MD,20853,675000,4,2.0,FLOWER VALLEY,2416,20264,1969,181,279,,Sold,,,https://www.redfin.com/MD/Rockville/15008-Red-Clover-Dr-20853/home/10707003,BRIGHT MLS,MDMC762858,N,Y,39.1015276,-77.0992308
PAST SALE,,Single Family Residential,4909 Bluebonnet Ct,Rockville,MD,20853,627000,,2.5,,2416,16146,1969,,260,,,,,https://www.redfin.com/MD/Rockville/4909-Bluebonnet-Ct-20853/home/10707069,,,N,Y,39.1025017,-77.0979271
PAST SALE,July-12-2019,Single Family Residential,4921 Bluebonnet Ct,Rockville,MD,20853,695500,5,3.5,FLOWER VALLEY,3267,15442,1969,877,213,,Sold,,,https://www.redfin.com/MD/Rockville/4921-Bluebonnet-Ct-20853/home/10707209,BRIGHT MLS,MDMC669766,N,Y,39.1021674,-77.0988712
PAST SALE,April-27-2020,Single Family Residential,15204 Red Clover Dr,Rockville,MD,20853,725000,5,2.5,FLOWER VALLEY,3669,21298,1969,587,198,,Sold,,,https://www.redfin.com/MD/Rockville/15204-Red-Clover-Dr-20853/home/10707210,BRIGHT MLS,MDMC698648,N,Y,39.1052398,-77.1005795
PAST SALE,August-27-2021,Single Family Residential,4506 Chestnut Ln,Rockville,MD,20853,650000,4,3.0,SYCAMORE ACRES,3098,44866,1982,100,210,,Sold,,,https://www.redfin.com/MD/Rockville/4506-Chestnut-Ln-20853/home/10705383,BRIGHT MLS,MDMC2007614,N,Y,39.1144716,-77.0897894
PAST SALE,December-2-2020,Single Family Residential,15105 Emory Ln,Rockville,MD,20853,765000,4,2.5,FLOWER VALLEY,2552,16640,1972,368,300,,Sold,,,https://www.redfin.com/MD/Rockville/15105-Emory-Ln-20853/home/10707266,BRIGHT MLS,MDMC729858,N,Y,39.104498,-77.101636
PAST SALE,January-5-2021,Single Family Residential,5305 Waterview Dr,Rockville,MD,20853,685000,4,2.5,FLOWER VALLEY,3014,20798,1969,334,227,,Sold,,,https://www.redfin.com/MD/Rockville/5305-Waterview-Dr-20853/home/10707362,BRIGHT MLS,MDMC740656,N,Y,39.10643,-77.1065586
PAST SALE,,Single Family Residential,4412 Flower Valley Dr,Rockville,MD,20853,555000,,2.5,,2170,19361,1968,,256,,,,,https://www.redfin.com/MD/Rockville/4412-Flower-Valley-Dr-20853/home/10707379,,,N,Y,39.1050131,-77.0878561
PAST SALE,March-20-2020,Single Family Residential,4909 Jasmine Dr,Rockville,MD,20853,681000,5,2.5,FLOWER VALLEY,2860,38916,1967,625,238,,Sold,,,https://www.redfin.com/MD/Rockville/4909-Jasmine-Dr-20853/home/10707391,BRIGHT MLS,MDMC695490,N,Y,39.106413,-77.0981968
PAST SALE,May-18-2020,Single Family Residential,14909 Emory Ln,Rockville,MD,20853,725000,5,3.5,FLOWER VALLEY,4103,15000,1973,566,177,,Sold,,,https://www.redfin.com/MD/Rockville/14909-Emory-Ln-20853/home/10707319,BRIGHT MLS,MDMC701710,N,Y,39.1004576,-77.0996804
PAST SALE,,Single Family Residential,4925 Jasmine Dr,Rockville,MD,20853,555500,,2.5,,2951,16209,1966,,188,,,,,https://www.redfin.com/MD/Rockville/4925-Jasmine-Dr-20853/home/10707341,,,N,Y,39.1069196,-77.0998602
PAST SALE,July-10-2020,Single Family Residential,15113 Cosmos Ct,Rockville,MD,20853,675000,5,2.5,FLOWER VALLEY,2860,20847,1968,513,236,,Sold,,,https://www.redfin.com/MD/Rockville/15113-Cosmos-Ct-20853/home/10707349,BRIGHT MLS,MDMC710628,N,Y,39.1053558,-77.0905538
PAST SALE,,Single Family Residential,15312 Narcissus Way,Rockville,MD,20853,665000,,3.0,,2860,15552,1966,,233,,,,,https://www.redfin.com/MD/Rockville/15312-Narcissus-Way-20853/home/10707413,,,N,Y,39.1081252,-77.0945552
PAST SALE,February-5-2021,Single Family Residential,14315 Barkwood Dr,Rockville,MD,20853,600000,4,2.5,MANOR WOODS,2553,8360,1965,303,235,,Sold,,,https://www.redfin.com/MD/Rockville/14315-Barkwood-Dr-20853/home/11081792,BRIGHT MLS,MDMC740014,N,Y,39.0916913,-77.0964435
PAST SALE,,Condo/Co-op,2511 Baltimore Rd Unit 2511-7,Rockville,MD,20853,215000,,,,1083,,1967,,199,,,,,https://www.redfin.com/MD/Rockville/2511-Baltimore-Rd-20853/unit-2511-7/home/11126140,,,N,Y,39.093423,-77.1118623
PAST SALE,July-8-2020,Single Family Residential,4921 Melinda Ct,Rockville,MD,20853,565000,4,2.5,MANOR WOODS,2415,11165,1966,515,234,,Sold,,,https://www.redfin.com/MD/Rockville/4921-Melinda-Ct-20853/home/11082244,BRIGHT MLS,MDMC710608,N,Y,39.0970907,-77.0989161
PAST SALE,June-30-2020,Single Family Residential,15200 Hannans Way,Rockville,MD,20853,655000,4,3.5,NORBECK MANOR,3200,15163,1971,523,205,,Sold,,,https://www.redfin.com/MD/Rockville/15200-Hannans-Way-20853/home/10710118,BRIGHT MLS,MDMC709108,N,Y,39.1065209,-77.0852483
PAST SALE,November-30-2020,Single Family Residential,14354 Chesterfield Rd,Rockville,MD,20853,695000,5,3.0,BEL PRE WOODS,3696,21399,1963,370,188,,Sold,,,https://www.redfin.com/MD/Rockville/14354-Chesterfield-Rd-20853/home/11067635,BRIGHT MLS,MDMC727230,N,Y,39.094254,-77.0871817
PAST SALE,November-19-2020,Single Family Residential,5101 Clavel Ter,Rockville,MD,20853,611500,4,2.5,MANOR LAKE,2330,16984,1968,381,262,,Sold,,,https://www.redfin.com/MD/Rockville/5101-Clavel-Ter-20853/home/10709400,BRIGHT MLS,MDMC731710,N,Y,39.1001152,-77.1030521
PAST SALE,November-13-2019,Single Family Residential,5341 Trailway Dr,Rockville,MD,20853,575000,5,3.0,MANOR LAKE,2548,22169,1970,753,226,,Sold,,,https://www.redfin.com/MD/Rockville/5341-Trailway-Dr-20853/home/10709010,BRIGHT MLS,MDMC679532,N,Y,39.1041712,-77.1088963
PAST SALE,January-11-2021,Single Family Residential,5308 Manor Lake Ct,Rockville,MD,20853,725000,4,2.5,MANOR LAKE,2726,15597,1973,328,266,,Sold,,,https://www.redfin.com/MD/Rockville/5308-Manor-Lake-Ct-20853/home/10709068,BRIGHT MLS,MDMC732658,N,Y,39.1042501,-77.1074577
PAST SALE,March-31-2020,Single Family Residential,5501 Waterway Ter,Rockville,MD,20853,610000,4,2.5,MANOR LAKE,2556,21956,1969,614,239,,Sold,,,https://www.redfin.com/MD/Rockville/5501-Waterway-Ter-20853/home/10709090,BRIGHT MLS,MDMC696520,N,Y,39.1010228,-77.1125824
PAST SALE,April-15-2021,Single Family Residential,12915 Grenoble Dr,Rockville,MD,20853,472000,3,2.0,BROOKHAVEN,1863,7644,1956,234,253,,Sold,,,https://www.redfin.com/MD/Rockville/12915-Grenoble-Dr-20853/home/11043268,BRIGHT MLS,MDMC744754,N,Y,39.0689578,-77.0861026
PAST SALE,February-21-2020,Single Family Residential,14 Marlin Ct,Rockville,MD,20853,550000,5,3.0,MANOR LAKE,2287,20341,1969,653,240,,Sold,,,https://www.redfin.com/MD/Rockville/14-Marlin-Ct-20853/home/10709164,BRIGHT MLS,MDMC678038,N,Y,39.1008935,-77.1067834
PAST SALE,,Single Family Residential,14836 Lake Ter,Rockville,MD,20853,570000,,3.0,,2686,33140,1967,,212,,,,,https://www.redfin.com/MD/Rockville/14836-Lake-Ter-20853/home/10709177,,,N,Y,39.1010241,-77.1143805
PAST SALE,,Single Family Residential,5109 Norbeck Rd,Rockville,MD,20853,505000,,3.0,,2330,11496,1968,,217,,,,,https://www.redfin.com/MD/Rockville/5109-Norbeck-Rd-20853/home/10709352,,,N,Y,39.0990245,-77.1026026
PAST SALE,June-19-2020,Single Family Residential,5436 Marlin St,Rockville,MD,20853,593000,4,2.5,MANOR LAKE,2451,9200,1968,534,242,,Sold,,,https://www.redfin.com/MD/Rockville/5436-Marlin-St-20853/home/10709198,BRIGHT MLS,MDMC703402,N,Y,39.0983728,-77.1071431
PAST SALE,June-28-2019,Single Family Residential,5329 Norbeck Rd,Rockville,MD,20853,465000,4,2.5,MANOR LAKE,2538,9960,1968,891,183,,Sold,,,https://www.redfin.com/MD/Rockville/5329-Norbeck-Rd-20853/home/10709214,BRIGHT MLS,MDMC622258,N,Y,39.0970732,-77.1084018
PAST SALE,June-21-2019,Single Family Residential,4707 Bartram St,Rockville,MD,20853,435000,4,2.0,ASPEN HILL PARK,1982,7150,1958,898,219,,Sold,,,https://www.redfin.com/MD/Rockville/4707-Bartram-St-20853/home/11040121,BRIGHT MLS,MDMC657436,N,Y,39.0722191,-77.0962636
PAST SALE,,Townhouse,4068 Norbeck Square Dr,Rockville,MD,20853,415000,,3.0,,2196,1420,1986,,189,,,,,https://www.redfin.com/MD/Rockville/4068-Norbeck-Square-Dr-20853/home/11130336,,,N,Y,39.107788,-77.078225
PAST SALE,,Single Family Residential,5208 Trailway Dr,Rockville,MD,20853,722500,,2.5,,2364,12000,1970,,306,,,,,https://www.redfin.com/MD/Rockville/5208-Trailway-Dr-20853/home/10709451,,,N,Y,39.1013417,-77.1043559
PAST SALE,,Single Family Residential,4403 Falcon St,Rockville,MD,20853,385000,,1.5,,1430,6334,1952,,269,,,,,https://www.redfin.com/MD/Rockville/4403-Falcon-St-20853/home/11035832,,,N,Y,39.0664623,-77.0877662
PAST SALE,November-16-2020,Townhouse,4054 Norbeck Square Dr,Rockville,MD,20853,480000,4,4.5,MANOR VILLAGE,2444,2555,1986,384,196,125,Sold,,,https://www.redfin.com/MD/Rockville/4054-Norbeck-Square-Dr-20853/home/11130320,BRIGHT MLS,MDMC729480,N,Y,39.1080619,-77.078013
PAST SALE,September-7-2021,Single Family Residential,14408 Chesterfield Rd,Rockville,MD,20853,980000,4,3.5,WHEATON OUT RES. (2),3800,20000,1968,89,258,,Sold,,,https://www.redfin.com/MD/Rockville/14408-Chesterfield-Rd-20853/home/10948276,BRIGHT MLS,MDMC755240,N,Y,39.0950766,-77.0895197
PAST SALE,September-14-2020,Single Family Residential,12816 Weiss St,Rockville,MD,20853,425000,4,3.0,ROYAL VIEW,1479,6571,1956,447,287,,Sold,,,https://www.redfin.com/MD/Rockville/12816-Weiss-St-20853/home/11073532,BRIGHT MLS,MDMC720198,N,Y,39.0663815,-77.0927568
PAST SALE,June-7-2021,Single Family Residential,13214 Grenoble Dr,Rockville,MD,20853,550000,3,2.0,WHEATON WOODS,2002,8700,1956,181,275,,Sold,,,https://www.redfin.com/MD/Rockville/13214-Grenoble-Dr-20853/home/11032153,BRIGHT MLS,MDMC755736,N,Y,39.0738718,-77.0920824
PAST SALE,February-17-2021,Single Family Residential,4607 Eades St,Rockville,MD,20853,470000,3,2.0,ASPEN HILL PARK,1626,8850,1957,291,289,,Sold,,,https://www.redfin.com/MD/Rockville/4607-Eades-St-20853/home/11042175,BRIGHT MLS,MDMC740728,N,Y,39.0723018,-77.0934312
PAST SALE,May-14-2021,Single Family Residential,16616 Cutlass Dr,Rockville,MD,20853,743000,4,3.5,NORBECK ESTATES,2896,17195,1974,205,257,,Sold,,,https://www.redfin.com/MD/Rockville/16616-Cutlass-Dr-20853/home/10704304,BRIGHT MLS,MDMC750512,N,Y,39.127895,-77.0909952
PAST SALE,October-12-2021,Single Family Residential,14609 Nadine Dr,Rockville,MD,20853,475000,3,3.0,MANOR WOODS,1997,8690,1965,54,238,,Sold,,,https://www.redfin.com/MD/Rockville/14609-Nadine-Dr-20853/home/11081159,BRIGHT MLS,MDMC2010808,N,Y,39.0964694,-77.1037265
PAST SALE,December-21-2018,Townhouse,4024 Norbeck Square Dr,Rockville,MD,20853,310000,2,1.5,MANOR VILLAGE,1400,757,1985,1080,221,125,Sold,,,https://www.redfin.com/MD/Rockville/4024-Norbeck-Square-Dr-20853/home/11129137,BRIGHT MLS,MDMC103314,N,Y,39.108638,-77.077296
PAST SALE,April-19-2019,Single Family Residential,15004 Sunflower Ct,Rockville,MD,20853,675000,4,2.5,FLOWER VALLEY,2766,22935,1967,961,244,,Sold,,,https://www.redfin.com/MD/Rockville/15004-Sunflower-Ct-20853/home/10707232,BRIGHT MLS,MDMC622070,N,Y,39.103285,-77.0956342
PAST SALE,,Townhouse,15311 Manor Village Ln,Rockville,MD,20853,425000,,2.5,,2763,1836,1984,,154,,,,,https://www.redfin.com/MD/Rockville/15311-Manor-Village-Ln-20853/home/11110986,,,N,Y,39.1069523,-77.0769302
PAST SALE,,Single Family Residential,13102 Hallet Ct,Rockville,MD,20853,395500,,2.0,,1680,6502,1952,,235,,,,,https://www.redfin.com/MD/Rockville/13102-Hallet-Ct-20853/home/11035440,,,N,Y,39.0722827,-77.0886204
PAST SALE,November-19-2021,Single Family Residential,4817 Listra Rd,Rockville,MD,20853,475000,3,2.0,ASPEN HILL PARK,1716,8316,1959,16,277,,Sold,,,https://www.redfin.com/MD/Rockville/4817-Listra-Rd-20853/home/11041869,BRIGHT MLS,MDMC2017478,N,Y,39.0672472,-77.099051
PAST SALE,December-14-2018,Townhouse,4012 Norbeck Square Dr,Rockville,MD,20853,303425,2,1.5,MANOR VILLAGE,1500,1209,1985,1087,202,116,Sold,,,https://www.redfin.com/MD/Rockville/4012-Norbeck-Square-Dr-20853/home/11129130,BRIGHT MLS,1002067044,N,Y,39.1087424,-77.0772464
PAST SALE,October-18-2019,Single Family Residential,16007 Willow Ln,Rockville,MD,20853,455000,3,2.0,SYCAMORE ACRES,2440,78843,1958,779,186,,Sold,,,https://www.redfin.com/MD/Rockville/16007-Willow-Ln-20853/home/10705413,BRIGHT MLS,MDMC678234,N,Y,39.1193097,-77.0926219
PAST SALE,March-2-2021,Single Family Residential,4601 Hornbeam Dr,Rockville,MD,20853,814000,4,3.5,NORBECK MANOR,3959,20758,1971,278,206,,Sold,,,https://www.redfin.com/MD/Rockville/4601-Hornbeam-Dr-20853/home/10710361,BRIGHT MLS,MDMC742990,N,Y,39.1116283,-77.0919026
PAST SALE,January-16-2020,Single Family Residential,4901 Baffin Bay Ln,Rockville,MD,20853,665000,5,3.5,MANOR WOODS,3440,10706,1966,689,193,,Sold,,,https://www.redfin.com/MD/Rockville/4901-Baffin-Bay-Ln-20853/home/11081583,BRIGHT MLS,MDMC688702,N,Y,39.0956895,-77.0981968
PAST SALE,May-19-2021,Condo/Co-op,5576 Burnside Dr #1,Rockville,MD,20853,170000,1,1.0,NORTH CREEK PLACE CODM,909,,1967,200,187,411,Sold,,,https://www.redfin.com/MD/Rockville/5576-Burnside-Dr-20853/unit-1/home/167144212,BRIGHT MLS,MDMC750170,N,Y,39.0920297,-77.1120692
PAST SALE,September-10-2020,Single Family Residential,15200 Wycliffe Ct,Rockville,MD,20853,635000,4,3.0,NORBECK MANOR,2892,17394,1969,451,220,,Sold,,,https://www.redfin.com/MD/Rockville/15200-Wycliffe-Ct-20853/home/10710163,BRIGHT MLS,MDMC717566,N,Y,39.1063627,-77.0870468
PAST SALE,September-27-2019,Single Family Residential,4405 Buckthorn Ct,Rockville,MD,20853,633000,4,3.0,NORBECK MANOR,3326,19243,1969,800,190,,Sold,,,https://www.redfin.com/MD/Rockville/4405-Buckthorn-Ct-20853/home/10710249,BRIGHT MLS,MDMC670440,N,Y,39.1084311,-77.0901491
PAST SALE,September-27-2019,Townhouse,5507 Burnside Dr,Rockville,MD,20853,315000,3,2.5,TOWNES OF N CREEK CODM,1744,,1969,800,181,475,Sold,,,https://www.redfin.com/MD/Rockville/5507-Burnside-Dr-20853/unit-5507/home/11125857,BRIGHT MLS,MDMC670720,N,Y,39.0938072,-77.1095191
PAST SALE,March-31-2021,Single Family Residential,13008 Evanston St,Rockville,MD,20853,505000,5,2.0,WHEATON WOODS,2044,7200,1952,249,247,,Sold,,,https://www.redfin.com/MD/Rockville/13008-Evanston-St-20853/home/11034297,BRIGHT MLS,MDMC745202,N,Y,39.0695028,-77.0913181
PAST SALE,March-19-2021,Single Family Residential,4301 Flower Valley Dr,Rockville,MD,20853,680000,5,3.5,NORBECK MANOR,2774,18889,1968,261,245,,Sold,,,https://www.redfin.com/MD/Rockville/4301-Flower-Valley-Dr-20853/home/10710285,BRIGHT MLS,MDMC744728,N,Y,39.107077,-77.0862824
PAST SALE,March-18-2020,Single Family Residential,16015 Emory Ln,Rockville,MD,20853,510000,5,4.5,SYCAMORE ACRES,3650,43560,1955,627,140,,Sold,,,https://www.redfin.com/MD/Rockville/16015-Emory-Ln-20853/home/10705255,BRIGHT MLS,MDMC681308,N,Y,39.1192126,-77.0956792
PAST SALE,September-28-2021,Single Family Residential,13009 Saint Charles Pl,Rockville,MD,20853,465000,3,2.0,ASPEN HILL PARK,1656,8131,1959,68,281,,Sold,,,https://www.redfin.com/MD/Rockville/13009-St-Charles-Pl-20853/home/11040784,BRIGHT MLS,MDMC2012954,N,Y,39.0703966,-77.0950048
PAST SALE,April-19-2019,Single Family Residential,13010 Margot Dr,Rockville,MD,20853,432000,4,3.0,ASPEN HILL PARK,1611,7407,1959,961,268,,Sold,,,https://www.redfin.com/MD/Rockville/13010-Margot-Dr-20853/home/11040372,BRIGHT MLS,MDMC361714,N,Y,39.0697914,-77.1017484
PAST SALE,February-19-2019,Townhouse,15307 Manor Village Ln,Rockville,MD,20853,380000,2,3.0,MANOR VILLAGE,2070,1296,1984,1020,184,125,Sold,,,https://www.redfin.com/MD/Rockville/15307-Manor-Village-Ln-20853/home/11110980,BRIGHT MLS,MDMC488818,N,Y,39.1070691,-77.0771266
PAST SALE,,Single Family Residential,5220 Continental Dr,Rockville,MD,20853,525000,,3.0,,2341,15000,1969,,224,,,,,https://www.redfin.com/MD/Rockville/5220-Continental-Dr-20853/home/10710041,,,N,Y,39.1323587,-77.0877212
PAST SALE,October-16-2020,Single Family Residential,16709 George Washington Dr,Rockville,MD,20853,585400,4,3.0,NORBECK ESTATES,2221,16831,1970,415,264,,Sold,,,https://www.redfin.com/MD/Rockville/16709-George-Washington-Dr-20853/home/10710040,BRIGHT MLS,MDMC724168,N,Y,39.1314093,-77.0881708
PAST SALE,October-31-2019,Single Family Residential,4605 Dabney Dr,Rockville,MD,20853,463000,4,2.0,MANOR WOODS,1750,8089,1964,766,265,,Sold,,,https://www.redfin.com/MD/Rockville/4605-Dabney-Dr-20853/home/11081668,BRIGHT MLS,MDMC674856,N,Y,39.0936544,-77.0932514
PAST SALE,May-28-2019,Single Family Residential,15308 Hannans Way,Rockville,MD,20853,569900,5,2.5,NORBECK MANOR,2600,16910,1969,922,219,,Sold,,,https://www.redfin.com/MD/Rockville/15308-Hannans-Way-20853/home/10710301,BRIGHT MLS,MDMC655324,N,Y,39.1075579,-77.0870018
PAST SALE,January-25-2019,Single Family Residential,15201 Hannans Way,Rockville,MD,20853,582000,4,2.5,NORBECK MANOR,3300,15215,1971,1045,176,,Sold,,,https://www.redfin.com/MD/Rockville/15201-Hannans-Way-20853/home/10710174,BRIGHT MLS,1002278224,N,Y,39.1068756,-77.0848436
PAST SALE,August-2-2019,Single Family Residential,4211 Flower Valley Dr,Rockville,MD,20853,620000,4,3.0,NORBECK MANOR,2474,17997,1970,856,251,,Sold,,,https://www.redfin.com/MD/Rockville/4211-Flower-Valley-Dr-20853/home/10710176,BRIGHT MLS,MDMC664022,N,Y,39.1083873,-77.0846943
PAST SALE,July-30-2020,Single Family Residential,17004 Freedom Way,Rockville,MD,20853,644000,6,3.5,NORBECK ESTATES,3850,17019,1972,493,167,,Sold,,,https://www.redfin.com/MD/Rockville/17004-Freedom-Way-20853/home/10710029,BRIGHT MLS,MDMC711216,N,Y,39.1345143,-77.0887553
PAST SALE,March-17-2020,Single Family Residential,4301 Norbeck Rd,Rockville,MD,20853,640000,5,2.5,NORBECK MANOR,3400,20751,1972,628,188,,Sold,,,https://www.redfin.com/MD/Rockville/4301-Norbeck-Rd-20853/home/10710130,BRIGHT MLS,MDMC688344,N,Y,39.1049173,-77.0870018
PAST SALE,August-24-2020,Single Family Residential,4308 Flower Valley Dr,Rockville,MD,20853,675000,4,3.0,NORBECK MANOR,3500,15749,1968,468,193,,Sold,,,https://www.redfin.com/MD/Rockville/4308-Flower-Valley-Dr-20853/home/10710100,BRIGHT MLS,MDMC709756,N,Y,39.1063818,-77.0861476
PAST SALE,,Single Family Residential,4304 Flower Valley Dr,Rockville,MD,20853,560000,,2.5,,2474,15685,1969,,226,,,,,https://www.redfin.com/MD/Rockville/4304-Flower-Valley-Dr-20853/home/10710167,,,N,Y,39.1065915,-77.0858778
PAST SALE,August-7-2020,Single Family Residential,14505 Nadine Dr,Rockville,MD,20853,553500,4,3.0,MANOR WOODS,1994,8625,1965,485,278,,Sold,,,https://www.redfin.com/MD/Rockville/14505-Nadine-Dr-20853/home/11081202,BRIGHT MLS,MDMC707902,N,Y,39.0937969,-77.1020182
PAST SALE,March-12-2020,Single Family Residential,4541 Hornbeam Dr,Rockville,MD,20853,650000,4,3.5,NORBECK MANOR,3826,20758,1971,633,170,,Sold,,,https://www.redfin.com/MD/Rockville/4541-Hornbeam-Dr-20853/home/10710363,BRIGHT MLS,MDMC695514,N,Y,39.1114679,-77.0915429
PAST SALE,October-22-2019,Single Family Residential,4304 Sunflower Dr,Rockville,MD,20853,660000,5,3.5,NORBECK MANOR,3676,17364,1971,775,180,,Sold,,,https://www.redfin.com/MD/Rockville/4304-Sunflower-Dr-20853/home/10710334,BRIGHT MLS,MDMC676668,N,Y,39.1102841,-77.0877662
PAST SALE,August-22-2019,Single Family Residential,4616 Hornbeam Dr,Rockville,MD,20853,725000,4,3.5,NORBECK MANOR,3890,15727,1971,836,186,,Sold,,,https://www.redfin.com/MD/Rockville/4616-Hornbeam-Dr-20853/home/10710339,BRIGHT MLS,MDMC667608,N,Y,39.1115446,-77.0932963
PAST SALE,July-14-2020,Single Family Residential,4517 Hornbeam Dr,Rockville,MD,20853,715000,4,2.5,NORBECK MANOR,4149,19799,1971,509,172,,Sold,,,https://www.redfin.com/MD/Rockville/4517-Hornbeam-Dr-20853/home/10710376,BRIGHT MLS,MDMC708172,N,Y,39.110816,-77.0896546
PAST SALE,,Single Family Residential,4713 Hornbeam Dr,Rockville,MD,20853,700000,,2.5,,2626,21074,1973,,267,,,,,https://www.redfin.com/MD/Rockville/4713-Hornbeam-Dr-20853/home/10710396,,,N,Y,39.1128315,-77.0951397
PAST SALE,July-26-2019,Single Family Residential,4712 Hornbeam Dr,Rockville,MD,20853,685000,4,3.5,NORBECK MANOR,3750,16500,1972,863,183,,Sold,,,https://www.redfin.com/MD/Rockville/4712-Hornbeam-Dr-20853/home/10710417,BRIGHT MLS,MDMC658486,N,Y,39.1123266,-77.0952745
PAST SALE,December-6-2019,Single Family Residential,5305 Manorfield Rd,Rockville,MD,20853,522500,4,3.0,ROCK CREEK MANOR,2067,15759,1966,730,253,,Sold,,,https://www.redfin.com/MD/Rockville/5305-Manorfield-Rd-20853/home/11076499,BRIGHT MLS,MDMC680104,N,Y,39.0892282,-77.1066036
PAST SALE,December-3-2020,Single Family Residential,4641 Cherry Valley Dr,Rockville,MD,20853,664000,5,3.5,NORBECK ESTATES,3850,23998,1972,367,172,,Sold,,,https://www.redfin.com/MD/Rockville/4641-Cherry-Valley-Dr-20853/home/10709869,BRIGHT MLS,MDMC728660,N,Y,39.1351532,-77.0926669
PAST SALE,,Condo/Co-op,12730 Veirs Mill Rd Unit 17-103,Rockville,MD,20853,265000,,,,1347,,1973,,197,,,,,https://www.redfin.com/MD/Rockville/12730-Veirs-Mill-Rd-20853/unit-17-103/home/11093373,,,N,Y,39.064346,-77.0979182
PAST SALE,September-30-2021,Single Family Residential,13102 Superior St,Rockville,MD,20853,470000,4,2.0,BROOKHAVEN,1768,6295,1955,66,266,,Sold,,,https://www.redfin.com/MD/Rockville/13102-Superior-St-20853/home/11043161,BRIGHT MLS,MDMC2012426,N,Y,39.0701235,-77.0857879
PAST SALE,September-17-2021,Single Family Residential,4936 Baffin Bay Ln,Rockville,MD,20853,525000,4,2.5,MANOR WOODS,1773,8560,1966,79,296,,Sold,,,https://www.redfin.com/MD/Rockville/4936-Baffin-Bay-Ln-20853/home/11081542,BRIGHT MLS,MDMC2005342,N,Y,39.0959768,-77.1007594
PAST SALE,January-15-2021,Single Family Residential,1 Pennforest Way,Rockville,MD,20853,650000,4,3.0,NORBECK ESTATES,2424,29411,1978,324,268,,Sold,,,https://www.redfin.com/MD/Rockville/1-Pennforest-Way-20853/home/10715067,BRIGHT MLS,MDMC737832,N,Y,39.1274434,-77.0916778
PAST SALE,April-13-2020,Single Family Residential,4713 Rams Head Ct,Rockville,MD,20853,651000,4,2.5,NORBECK ESTATES,3439,16498,1972,601,189,,Sold,,,https://www.redfin.com/MD/Rockville/4713-Rams-Head-Ct-20853/home/10709887,BRIGHT MLS,MDMC698626,N,Y,39.1338037,-77.0954319
PAST SALE,August-23-2019,Single Family Residential,16605 Winterwoods Ct,Rockville,MD,20853,665000,6,3.5,NORBECK ESTATES,3352,25993,1979,835,198,,Sold,,,https://www.redfin.com/MD/Rockville/16605-Winterwoods-Ct-20853/home/10715108,BRIGHT MLS,MDMC672008,N,Y,39.1286132,-77.0940831
PAST SALE,August-9-2019,Single Family Residential,16613 Winterwoods Ct,Rockville,MD,20853,635000,4,2.5,NORBECK ESTATES,3366,26682,1979,849,189,,Sold,,,https://www.redfin.com/MD/Rockville/16613-Winterwoods-Ct-20853/home/10715112,BRIGHT MLS,MDMC666600,N,Y,39.1292608,-77.0943304
PAST SALE,June-28-2019,Single Family Residential,16608 Summertree Ct,Rockville,MD,20853,649000,4,4.0,NORBECK ESTATES,3800,24000,1981,891,171,,Sold,,,https://www.redfin.com/MD/Rockville/16608-Summertree-Ct-20853/home/10715138,BRIGHT MLS,MDMC622298,N,Y,39.1283954,-77.096421
PAST SALE,,Single Family Residential,14716 Westbury Rd,Rockville,MD,20853,700000,,3.5,,2798,26427,1956,,250,,,,,https://www.redfin.com/MD/Rockville/14716-Westbury-Rd-20853/home/10988955,,,N,Y,39.0988769,-77.0937909
PAST SALE,July-2-2021,Condo/Co-op,14628 Bauer Dr #6,Rockville,MD,20853,220000,2,1.0,NORTH CREEK PLACE CODM,1078,,1967,156,204,444,Sold,,,https://www.redfin.com/MD/Rockville/14628-Bauer-Dr-20853/unit-6/home/11126685,BRIGHT MLS,MDMC758360,N,Y,39.0923716,-77.1102207
PAST SALE,November-5-2021,Single Family Residential,15609 Yellowhorn Ct,Rockville,MD,20853,746000,4,3.5,NORBECK MANOR,3242,12860,1987,30,230,27,Sold,,,https://www.redfin.com/MD/Rockville/15609-Yellowhorn-Ct-20853/home/10718594,BRIGHT MLS,MDMC2013078,N,Y,39.112658,-77.0993853
PAST SALE,May-26-2021,Single Family Residential,14601 Woodcrest Dr,Rockville,MD,20853,604500,4,3.0,MANOR WOODS,2112,10441,1965,193,286,,Sold,,,https://www.redfin.com/MD/Rockville/14601-Woodcrest-Dr-20853/home/11081522,BRIGHT MLS,MDMC755292,N,Y,39.0955991,-77.1038164
PAST SALE,June-4-2020,Single Family Residential,4502 Aspen Hill Rd,Rockville,MD,20853,451000,3,3.0,WHEATON WOODS,1602,7624,1955,549,282,,Sold,,,https://www.redfin.com/MD/Rockville/4502-Aspen-Hill-Rd-20853/home/11033330,BRIGHT MLS,MDMC703544,N,Y,39.0786834,-77.0900142
PAST SALE,June-17-2020,Single Family Residential,5136 Norbeck Rd,Rockville,MD,20853,499000,4,3.0,MANOR WOODS,2702,9678,1965,536,185,,Sold,,,https://www.redfin.com/MD/Rockville/5136-Norbeck-Rd-20853/home/11082836,BRIGHT MLS,MDMC700662,N,Y,39.0975753,-77.1043109
PAST SALE,August-30-2019,Single Family Residential,14338 Chesterfield Rd,Rockville,MD,20853,704999,5,3.5,BEL PRE WOODS,2461,21442,1963,828,286,,Sold,,,https://www.redfin.com/MD/Rockville/14338-Chesterfield-Rd-20853/home/11066938,BRIGHT MLS,MDMC662054,N,Y,39.0937701,-77.0859003
PAST SALE,March-27-2020,Single Family Residential,4500 Sunflower Dr,Rockville,MD,20853,709900,6,3.5,NORBECK MANOR,3426,16152,1970,618,207,,Sold,,,https://www.redfin.com/MD/Rockville/4500-Sunflower-Dr-20853/home/10710098,BRIGHT MLS,MDMC697966,N,Y,39.1075351,-77.0892949
PAST SALE,April-5-2019,Single Family Residential,4904 Hornbeam Dr,Rockville,MD,20853,671800,4,3.5,NORBECK MANOR,3422,11205,1987,975,196,25,Sold,,,https://www.redfin.com/MD/Rockville/4904-Hornbeam-Dr-20853/home/10716773,BRIGHT MLS,MDMC620956,N,Y,39.1125786,-77.0975224
PAST SALE,October-1-2020,Single Family Residential,13812 Drake Dr,Rockville,MD,20853,540000,4,2.5,ROCK CREEK MANOR,1726,10491,1965,430,313,,Sold,,,https://www.redfin.com/MD/Rockville/13812-Drake-Dr-20853/home/11076755,BRIGHT MLS,MDMC721568,N,Y,39.0839099,-77.1062889
PAST SALE,June-30-2019,Single Family Residential,13 Bitterroot Ct,Rockville,MD,20853,580000,4,2.5,FLOWER VALLEY,2296,21523,1984,889,253,,Sold,,,https://www.redfin.com/MD/Rockville/13-Bitterroot-Ct-20853/home/10716950,BRIGHT MLS,MDMC654032,N,Y,39.1095583,-77.0977023
PAST SALE,February-12-2021,Single Family Residential,16904 Cashell Rd,Rockville,MD,20853,668270,5,2.5,NORBECK ESTATES,2262,15827,1973,296,295,,Sold,,,https://www.redfin.com/MD/Rockville/16904-Cashell-Rd-20853/home/10709743,BRIGHT MLS,MDMC739288,N,Y,39.1347116,-77.0862375
PAST SALE,September-15-2021,Single Family Residential,14201 Myer Ter,Rockville,MD,20853,545000,3,3.0,MANOR WOODS,1797,14179,1967,81,303,,Sold,,,https://www.redfin.com/MD/Rockville/14201-Myer-Ter-20853/home/11081295,BRIGHT MLS,MDMC2010570,N,Y,39.0884107,-77.1039513
PAST SALE,May-26-2021,Single Family Residential,13417 Bartlett St,Rockville,MD,20853,570000,5,2.0,ASPEN HILL PARK,1973,9000,1963,193,289,,Sold,,,https://www.redfin.com/MD/Rockville/13417-Bartlett-St-20853/home/11041557,BRIGHT MLS,MDMC749600,N,Y,39.077781,-77.0998153
PAST SALE,September-10-2021,Single Family Residential,14905 Bauer Dr,Rockville,MD,20853,725000,5,3.0,MANOR LAKE,2130,14430,1968,86,340,,Sold,,,https://www.redfin.com/MD/Rockville/14905-Bauer-Dr-20853/home/10709295,BRIGHT MLS,MDMC2009012,N,Y,39.1003993,-77.1080871
PAST SALE,October-8-2020,Single Family Residential,16904 Governors Way,Rockville,MD,20853,660000,4,2.5,NORBECK ESTATES,3101,15671,1971,423,213,,Sold,,,https://www.redfin.com/MD/Rockville/16904-Governors-Way-20853/home/10709614,BRIGHT MLS,MDMC723738,N,Y,39.1329886,-77.0926219
PAST SALE,October-22-2021,Townhouse,15634 Cliff Swallow Way,Rockville,MD,20853,490000,3,3.0,NORBECK MANOR,2079,1680,1988,44,236,30,Sold,,,https://www.redfin.com/MD/Rockville/15634-Cliff-Swallow-Way-20853/home/10721944,BRIGHT MLS,MDMC2010332,N,Y,39.11449,-77.101026
PAST SALE,,Single Family Residential,13815 Bauer Dr,Rockville,MD,20853,430000,,3.0,,2022,9000,1959,,213,,,,,https://www.redfin.com/MD/Rockville/13815-Bauer-Dr-20853/home/11044158,,,N,Y,39.0826439,-77.0878561
PAST SALE,May-30-2019,Single Family Residential,4905 Walkingfern Dr,Rockville,MD,20853,690000,5,3.5,ELLENWOOD,4057,23164,1984,920,170,,Sold,,,https://www.redfin.com/MD/Rockville/4905-Walkingfern-Dr-20853/home/10718186,BRIGHT MLS,MDMC650136,N,Y,39.1224603,-77.0986014
PAST SALE,March-27-2020,Single Family Residential,4940 Walkingfern Dr,Rockville,MD,20853,700000,4,3.5,ELLENWOOD,3722,26528,1985,618,188,,Sold,,,https://www.redfin.com/MD/Rockville/4940-Walkingfern-Dr-20853/home/10718208,BRIGHT MLS,MDMC696422,N,Y,39.1207154,-77.0987363
PAST SALE,February-19-2020,Single Family Residential,4518 Muncaster Mill Rd,Rockville,MD,20853,610000,4,2.5,NORBECK MANOR,2344,22182,1986,655,260,,Sold,,,https://www.redfin.com/MD/Rockville/4518-Muncaster-Mill-Rd-20853/home/10718354,BRIGHT MLS,MDMC691244,N,Y,39.1127508,-77.0917452
PAST SALE,January-10-2020,Single Family Residential,4929 Sweetbirch Dr,Rockville,MD,20853,669999,5,3.5,NORBECK MANOR,3278,12559,1987,695,204,25,Sold,,,https://www.redfin.com/MD/Rockville/4929-Sweetbirch-Dr-20853/home/10718430,BRIGHT MLS,MDMC683834,N,Y,39.1140299,-77.0986913
PAST SALE,October-25-2019,Single Family Residential,17619 Ridge Dr,Rockville,MD,20853,745000,8,5.5,OLNEY ACRES,6425,197327,1986,772,116,,Sold,,,https://www.redfin.com/MD/Rockville/17619-Ridge-Dr-20853/home/10718438,BRIGHT MLS,MDMC670748,N,Y,39.1456462,-77.0988712
PAST SALE,June-7-2021,Single Family Residential,5316 Crestedge Ln,Rockville,MD,20853,675000,4,2.5,ROCK CREEK MANOR,2575,10387,1966,181,262,,Sold,,,https://www.redfin.com/MD/Rockville/5316-Crestedge-Ln-20853/home/11076606,BRIGHT MLS,MDMC756750,N,Y,39.0888801,-77.1095706
PAST SALE,April-16-2021,Single Family Residential,4417 Cherry Valley Dr,Rockville,MD,20853,806000,4,3.5,NORBECK ESTATES,2846,24439,1972,233,283,,Sold,,,https://www.redfin.com/MD/Rockville/4417-Cherry-Valley-Dr-20853/home/10709939,BRIGHT MLS,MDMC748442,N,Y,39.1368893,-77.0892499
PAST SALE,,Single Family Residential,4870 Sweetbirch Dr,Rockville,MD,20853,600000,,2.5,,2728,11768,1988,,220,,,,,https://www.redfin.com/MD/Rockville/4870-Sweetbirch-Dr-20853/home/10718603,,,N,Y,39.1120762,-77.1005346
PAST SALE,March-27-2020,Single Family Residential,4901 Pennyroyal Ct,Rockville,MD,20853,649000,5,3.5,NORBECK MANOR,2595,15339,1986,618,250,27,Sold,,,https://www.redfin.com/MD/Rockville/4901-Pennyroyal-Ct-20853/home/10718627,BRIGHT MLS,MDMC693856,N,Y,39.1122496,-77.1015461
PAST SALE,May-5-2020,Single Family Residential,4861 Sweetbirch Dr,Rockville,MD,20853,720000,4,3.5,NORBECK MANOR,2731,10486,1987,579,264,27,Sold,,,https://www.redfin.com/MD/Rockville/4861-Sweetbirch-Dr-20853/home/10718557,BRIGHT MLS,MDMC695676,N,Y,39.1116453,-77.0995455
PAST SALE,June-5-2020,Single Family Residential,4869 Sweetbirch Dr,Rockville,MD,20853,650000,3,3.5,NORBECK MANOR,2891,11207,1987,548,225,27,Sold,,,https://www.redfin.com/MD/Rockville/4869-Sweetbirch-Dr-20853/home/10718587,BRIGHT MLS,MDMC701830,N,Y,39.1120507,-77.0999501
PAST SALE,May-18-2020,Single Family Residential,4953 Sweetbirch Dr,Rockville,MD,20853,599000,4,3.0,NORBECK MANOR,2790,20887,1987,566,215,26,Sold,,,https://www.redfin.com/MD/Rockville/4953-Sweetbirch-Dr-20853/home/10718836,BRIGHT MLS,MDMC696324,N,Y,39.1148035,-77.0970279
PAST SALE,November-20-2020,Single Family Residential,4904 Waterfowl Way,Rockville,MD,20853,642000,4,2.5,NORBECK MANOR,2595,10834,1986,380,247,27,Sold,,,https://www.redfin.com/MD/Rockville/4904-Waterfowl-Way-20853/home/10718841,BRIGHT MLS,MDMC727072,N,Y,39.1148875,-77.0986689
PAST SALE,June-30-2020,Single Family Residential,4715 Wissahican Ave,Rockville,MD,20853,400000,5,2.0,ASPEN HILL PARK,1933,7700,1960,523,207,,Sold,,,https://www.redfin.com/MD/Rockville/4715-Wissahican-Ave-20853/home/11041668,BRIGHT MLS,MDMC709602,N,Y,39.0683164,-77.0968031
PAST SALE,September-23-2020,Single Family Residential,4904 Norbeck Rd,Rockville,MD,20853,840000,5,3.5,MANOR PARK,5750,18867,2000,438,146,,Sold,,,https://www.redfin.com/MD/Rockville/4904-Norbeck-Rd-20853/home/10989888,BRIGHT MLS,MDMC711584,N,Y,39.0992912,-77.0985565
PAST SALE,May-10-2021,Single Family Residential,13701 Frankfort Ct,Rockville,MD,20853,470000,6,2.0,WHEATON WOODS,1844,9364,1961,209,255,,Sold,,,https://www.redfin.com/MD/Rockville/13701-Frankfort-Ct-20853/home/11034303,BRIGHT MLS,MDMC750608,N,Y,39.0815962,-77.085653
PAST SALE,April-30-2021,Single Family Residential,3804 Wingleaf Ct,Rockville,MD,20853,912000,4,4.5,BROOKE MANOR,5922,25577,1997,219,154,96,Sold,,,https://www.redfin.com/MD/Rockville/3804-Wingleaf-Ct-20853/home/10728220,BRIGHT MLS,MDMC739094,N,Y,39.1228479,-77.0767501
PAST SALE,August-31-2019,Single Family Residential,16613 Music Grove Ct,Rockville,MD,20853,699900,4,3.5,OLNEY OUT RES (2),3834,25440,1989,827,183,,Sold,,,https://www.redfin.com/MD/Rockville/16613-Music-Grove-Ct-20853/home/10722114,BRIGHT MLS,MDMC661512,N,Y,39.1293243,-77.083135
PAST SALE,September-21-2020,Townhouse,15696 Cliff Swallow Way,Rockville,MD,20853,289900,2,1.5,NORBECK MANOR,1134,1134,1987,440,256,30,Sold,,,https://www.redfin.com/MD/Rockville/15696-Cliff-Swallow-Way-20853/home/10721885,BRIGHT MLS,MDMC713266,N,Y,39.114538,-77.099356
PAST SALE,August-31-2020,Single Family Residential,15204 Hannans Way,Rockville,MD,20853,535000,4,2.5,NORBECK MANOR,2492,15003,1969,461,215,,Sold,,,https://www.redfin.com/MD/Rockville/15204-Hannans-Way-20853/home/10710096,BRIGHT MLS,MDMC714430,N,Y,39.1067838,-77.0856305
PAST SALE,September-15-2021,Single Family Residential,14105 Arctic Ave,Rockville,MD,20853,555000,4,3.0,BEL PRE WOODS,1778,9996,1964,81,312,,Sold,,,https://www.redfin.com/MD/Rockville/14105-Arctic-Ave-20853/home/11065844,BRIGHT MLS,MDMC2011836,N,Y,39.0872125,-77.0946901
