SALE TYPE,SOLD DATE,PROPERTY TYPE,ADDRESS,CITY,STATE OR PROVINCE,ZIP OR POSTAL CODE,PRICE,BEDS,BATHS,LOCATION,SQUARE FEET,LOT SIZE,YEAR BUILT,DAYS ON MARKET,$/SQUARE FEET,HOA/MONTH,STATUS,NEXT OPEN HOUSE START TIME,NEXT OPEN HOUSE END TIME,URL (SEE https://www.redfin.com/buy-a-home/comparative-market-analysis FOR INFO ON PRICING),SOURCE,MLS#,FAVORITE,INTERESTED,LATITUDE,LONGITUDE
MLS Listing,,Single Family Residential,128 Summit Hall Rd,Gaithersburg,MD,20877,550000,4,3.5,BRIGHTON HIGHLANDS,2196,10039,1982,5,250,,Active,December-5-2021 02:00 PM,December-5-2021 04:00 PM,https://www.redfin.com/MD/Gaithersburg/128-Summit-Hall-Rd-20877/home/10798788,BRIGHT MLS,MDMC2023130,N,Y,39.1333821,-77.1985451
PAST SALE,August-27-2021,Townhouse,519 Girard St,Gaithersburg,MD,20877,477000,3,2.5,HIDDEN CREEK,2600,1488,2010,100,183,123,Sold,,,https://www.redfin.com/MD/Gaithersburg/519-Girard-St-20877/home/40017042,BRIGHT MLS,MDMC2005882,N,Y,39.1501921,-77.1895453
PAST SALE,March-16-2020,Townhouse,618 Raven Ave,Gaithersburg,MD,20878,457000,3,4.0,HIDDEN CREEK,3374,2035,2007,629,135,126,Sold,,,https://www.redfin.com/MD/Gaithersburg/618-Raven-Ave-20877/home/35615208,BRIGHT MLS,MDMC695408,N,Y,39.1515384,-77.1898378
PAST SALE,December-7-2018,Townhouse,769 Raven Ave,Gaithersburg,MD,20877,400000,3,3.0,HIDDEN CREEK,1900,1166,2006,1094,211,99,Sold,,,https://www.redfin.com/MD/Gaithersburg/769-Raven-Ave-20877/home/11758879,BRIGHT MLS,1002029294,N,Y,39.1520683,-77.1875227
PAST SALE,May-28-2021,Townhouse,703 Cobbler Pl #703,Gaithersburg,MD,20877,460000,4,2.5,SUMMIT HALL RESERVE CODM,2788,,2014,191,165,336,Sold,,,https://www.redfin.com/MD/Gaithersburg/703-Cobbler-Pl-20877/unit-703/home/85695242,BRIGHT MLS,MDMC753280,N,Y,39.1307152,-77.1913194
PAST SALE,November-4-2021,Townhouse,36 Nina Ct #175,Gaithersburg,MD,20877,252000,3,2.0,NEWPORT EST SEC 3 CODM,1029,,1974,31,245,215,Sold,,,https://www.redfin.com/MD/Gaithersburg/36-Nina-Ct-20877/unit-175/home/10771393,BRIGHT MLS,MDMC2013114,N,Y,39.1437118,-77.1804491
PAST SALE,August-24-2021,Townhouse,18029 Fertile Meadow Ct,Gaithersburg,MD,20877,420000,3,3.0,FLOWER HILL,2130,1650,1989,103,197,,Sold,,,https://www.redfin.com/MD/Gaithersburg/18029-Fertile-Meadow-Ct-20877/home/10852128,BRIGHT MLS,MDMC2008528,N,Y,39.154275,-77.172088
PAST SALE,July-9-2019,Single Family Residential,205 Rolling Rd,Gaithersburg,MD,20877,425000,4,3.0,DEER PARK,1934,10714,1964,880,220,,Sold,,,https://www.redfin.com/MD/Gaithersburg/205-Rolling-Rd-20877/home/10749159,BRIGHT MLS,MDMC663438,N,Y,39.1395574,-77.1864611
PAST SALE,May-29-2019,Townhouse,545 Cedar Spring St,Gaithersburg,MD,20877,435000,4,3.5,HIDDEN CREEK,3608,1592,2007,921,121,123,Sold,,,https://www.redfin.com/MD/Gaithersburg/545-Cedar-Spring-St-20877/home/35615234,BRIGHT MLS,MDMC653774,N,Y,39.1521607,-77.1901604
PAST SALE,October-1-2020,Townhouse,651 Hurdle Mill Pl,Gaithersburg,MD,20877,443000,4,2.5,HIDDEN CREEK,3200,1536,2007,430,138,126,Sold,,,https://www.redfin.com/MD/Gaithersburg/651-Hurdle-Mill-Pl-20877/home/35615264,BRIGHT MLS,MDMC717942,N,Y,39.1521038,-77.1899144
PAST SALE,May-29-2020,Condo/Co-op,927 Hidden Marsh St,Gaithersburg,MD,20877,375000,3,2.5,HIDDEN CREEK CODM,2894,,2007,555,130,168,Sold,,,https://www.redfin.com/MD/Gaithersburg/927-Hidden-Marsh-St-20877/home/28545832,BRIGHT MLS,MDMC700404,N,Y,39.1542191,-77.1887876
PAST SALE,May-14-2019,Single Family Residential,121 E Deer Park Dr,Gaithersburg,MD,20877,375000,3,2.0,DEER PARK,1180,10168,1955,936,318,,Sold,,,https://www.redfin.com/MD/Gaithersburg/121-E-Deer-Park-Dr-20877/home/10748739,BRIGHT MLS,MDMC649420,N,Y,39.1350923,-77.1844395
PAST SALE,August-29-2019,Single Family Residential,110 Fairgrove Ter,Gaithersburg,MD,20877,445000,3,2.5,SAYBROOKE,2892,4368,1988,829,154,70,Sold,,,https://www.redfin.com/MD/Gaithersburg/110-Fairgrove-Ter-20877/home/10850486,BRIGHT MLS,MDMC672582,N,Y,39.1488403,-77.178599
PAST SALE,September-30-2020,Single Family Residential,18016 Silver Leaf Dr,Gaithersburg,MD,20877,475000,3,3.0,EMORY GROVE PARK,2880,7239,1988,431,165,29,Sold,,,https://www.redfin.com/MD/Gaithersburg/18016-Silver-Leaf-Dr-20877/home/10794966,BRIGHT MLS,MDMC716398,N,Y,39.1522973,-77.1690741
PAST SALE,September-20-2021,Townhouse,8747 Kelso Ter,Gaithersburg,MD,20877,365000,3,3.5,EMORY GROVE HILLS,1408,1577,1984,76,259,36,Sold,,,https://www.redfin.com/MD/Gaithersburg/8747-Kelso-Ter-20877/home/10819098,BRIGHT MLS,MDMC2011494,N,Y,39.155169,-77.178584
PAST SALE,January-2-2019,Townhouse,612 Kingfisher Ave,Gaithersburg,MD,20877,415000,4,3.5,HIDDEN CREEK,2380,2192,2005,1068,174,98,Sold,,,https://www.redfin.com/MD/Gaithersburg/612-Kingfisher-Ave-20877/home/11205404,BRIGHT MLS,1002082936,N,Y,39.1548497,-77.1905785
PAST SALE,January-4-2019,Single Family Residential,107 Floral Dr,Gaithersburg,MD,20877,317500,3,1.0,MEEMS ADD,1095,11146,1953,1066,290,,Sold,,,https://www.redfin.com/MD/Gaithersburg/107-Floral-Dr-20877/home/10751002,BRIGHT MLS,MDMC102888,N,Y,39.1412426,-77.2052357
PAST SALE,August-2-2019,Townhouse,485 Sunburst Ct,Gaithersburg,MD,20877,305000,3,3.0,AUDUBON SQUARE,1920,2250,1983,856,159,63,Sold,,,https://www.redfin.com/MD/Gaithersburg/485-Sunburst-Ct-20877/home/10793220,BRIGHT MLS,MDMC660462,N,Y,39.144562,-77.186981
PAST SALE,October-2-2020,Townhouse,761 Cobbler Pl,Gaithersburg,MD,20877,359000,3,2.5,SUMMIT HALL RESERVE CODM,1719,,2013,429,209,307,Sold,,,https://www.redfin.com/MD/Gaithersburg/761-Cobbler-Pl-20877/unit-761/home/64364559,BRIGHT MLS,MDMC708606,N,Y,39.1312119,-77.1905279
PAST SALE,November-16-2021,Single Family Residential,329 W Deer Park Rd,Gaithersburg,MD,20877,549000,4,3.5,BRIGHTON EAST,3200,10444,1974,19,172,,Sold,,,https://www.redfin.com/MD/Gaithersburg/329-W-Deer-Park-Rd-20877/home/10745714,BRIGHT MLS,MDMC2019010,N,Y,39.1277515,-77.1979163
PAST SALE,August-27-2021,Condo/Co-op,8 Russell Ave #311,Gaithersburg,MD,20877,230000,2,2.0,NO. 8 RUSSELL AVE CODM,1440,,1988,100,160,605,Sold,,,https://www.redfin.com/MD/Gaithersburg/8-Russell-Ave-20877/unit-311/home/10860215,BRIGHT MLS,MDMC2009942,N,Y,39.1429447,-77.1969505
PAST SALE,September-29-2020,Townhouse,581 Whetstone Glen St,Gaithersburg,MD,20877,349999,3,2.5,HIDDEN CREEK CODM,1888,,2007,432,185,262,Sold,,,https://www.redfin.com/MD/Gaithersburg/581-Whetstone-Glen-St-20877/home/28545842,BRIGHT MLS,MDMC717954,N,Y,39.1529155,-77.1890055
PAST SALE,December-27-2018,Single Family Residential,205 Meadowgate Ter,Gaithersburg,MD,20877,400000,3,2.5,SAYBROOKE,2000,7263,1987,1074,200,58,Sold,,,https://www.redfin.com/MD/Gaithersburg/205-Meadowgate-Ter-20877/home/10849180,BRIGHT MLS,1005935445,N,Y,39.1496071,-77.1759708
PAST SALE,September-21-2020,Condo/Co-op,318 Park Ave #7,Gaithersburg,MD,20877,349000,3,2.5,SUMMIT CROSSING CODM,2259,,2013,440,154,280,Sold,,,https://www.redfin.com/MD/Gaithersburg/318-Park-Ave-20877/unit-7/home/51689985,BRIGHT MLS,MDMC717368,N,Y,39.1458455,-77.1943618
PAST SALE,April-13-2021,Single Family Residential,9529 Emory Grove Rd,Gaithersburg,MD,20877,457000,4,3.5,SHARON WOODS,3452,22548,1975,236,132,,Sold,,,https://www.redfin.com/MD/Gaithersburg/9529-Emory-Grove-Rd-20877/home/10744262,BRIGHT MLS,MDMC750534,N,Y,39.166791,-77.1965237
PAST SALE,,Single Family Residential,7512 Laytonia Dr,Gaithersburg,MD,20877,353000,,1.5,,1590,9514,1969,,222,,,,,https://www.redfin.com/MD/Gaithersburg/7512-Laytonia-Dr-20877/home/10739052,,,N,Y,39.1529979,-77.153764
PAST SALE,,Townhouse,19 Misty Dale Way,Gaithersburg,MD,20877,305000,,3.5,,1983,2087,1980,,154,,,,,https://www.redfin.com/MD/Gaithersburg/19-Misty-Dale-Way-20877/home/10790691,,,N,Y,39.1332763,-77.2055075
PAST SALE,July-29-2019,Townhouse,7557 Laytonia Dr,Gaithersburg,MD,20877,250000,3,1.5,LAYTONIA TOWNHOUSES,1150,3920,1970,860,217,51,Sold,,,https://www.redfin.com/MD/Gaithersburg/7557-Laytonia-Dr-20877/home/10739350,BRIGHT MLS,MDMC668052,N,Y,39.1530207,-77.1552162
PAST SALE,March-24-2021,Townhouse,555 Pelican Ave,Gaithersburg,MD,20877,480000,4,3.0,HIDDEN CREEK,1792,1550,2005,256,268,95,Sold,,,https://www.redfin.com/MD/Gaithersburg/555-Pelican-Ave-20877/home/11204158,BRIGHT MLS,MDMC744420,N,Y,39.1534357,-77.1912116
PAST SALE,July-15-2019,Townhouse,8608 Kelso Ter,Gaithersburg,MD,20877,313000,3,3.0,EMORY GROVE HILLS,1786,1808,1984,874,175,40,Sold,,,https://www.redfin.com/MD/Gaithersburg/8608-Kelso-Ter-20877/home/10819402,BRIGHT MLS,MDMC656564,N,Y,39.154724,-77.176039
PAST SALE,January-12-2021,Single Family Residential,217 Summit Hall Rd,Gaithersburg,MD,20877,506100,4,2.5,BRIGHTON EAST,2488,9406,1972,327,203,,Sold,,,https://www.redfin.com/MD/Gaithersburg/217-Summit-Hall-Rd-20877/home/10745763,BRIGHT MLS,MDMC737130,N,Y,39.1312395,-77.1970852
PAST SALE,May-14-2019,Townhouse,559 Whetstone Glen St,Gaithersburg,MD,20877,369900,3,2.5,HIDDEN CREEK CODM,2914,,2007,936,127,261,Sold,,,https://www.redfin.com/MD/Gaithersburg/559-Whetstone-Glen-St-20877/home/28545889,BRIGHT MLS,MDMC636744,N,Y,39.152345,-77.1884176
PAST SALE,May-14-2020,Townhouse,604 Whetstone Glen St,Gaithersburg,MD,20877,425000,4,2.5,HIDDEN CREEK,2700,3005,2006,570,157,120,Sold,,,https://www.redfin.com/MD/Gaithersburg/604-Whetstone-Glen-St-20877/home/35615596,BRIGHT MLS,MDMC700400,N,Y,39.152991,-77.1894989
PAST SALE,December-18-2020,Single Family Residential,18215 Mulberry Ct,Gaithersburg,MD,20877,420000,3,2.0,EMORY GROVE PARK,1370,6090,1979,352,307,5,Sold,,,https://www.redfin.com/MD/Gaithersburg/18215-Mulberry-Ct-20877/home/10779716,BRIGHT MLS,MDMC731240,N,Y,39.1542336,-77.1591888
PAST SALE,September-6-2019,Townhouse,127 Fairbanks Dr,Gaithersburg,MD,20877,495000,5,3.5,SUMMIT HALL RESERVE,2806,1470,2015,821,176,115,Sold,,,https://www.redfin.com/MD/Gaithersburg/127-Fairbanks-Dr-20877/home/49782193,BRIGHT MLS,MDMC660034,N,Y,39.1316336,-77.191908
PAST SALE,July-6-2020,Townhouse,633 Cedar Spring St,Gaithersburg,MD,20877,360000,3,2.5,HIDDEN CREEK CODM,1888,,2006,517,191,262,Sold,,,https://www.redfin.com/MD/Gaithersburg/633-Cedar-Spring-St-20877/unit-633/home/11759220,BRIGHT MLS,MDMC698308,N,Y,39.1534008,-77.1903919
PAST SALE,November-13-2020,Single Family Residential,112 Woodland Rd,Gaithersburg,MD,20877,453000,6,2.0,DEER PARK,1832,18213,1960,387,247,,Sold,,,https://www.redfin.com/MD/Gaithersburg/112-Woodland-Rd-20877/home/10749369,BRIGHT MLS,MDMC720676,N,Y,39.1406724,-77.1889319
PAST SALE,August-16-2019,Townhouse,47 Inkberry Cir,Gaithersburg,MD,20877,415000,3,2.5,HIDDEN CREEK,2192,1802,2004,842,189,99,Sold,,,https://www.redfin.com/MD/Gaithersburg/47-Inkberry-Cir-20877/home/11189169,BRIGHT MLS,MDMC670482,N,Y,39.158378,-77.190901
PAST SALE,July-14-2021,Townhouse,534 Whetstone Glen St,Gaithersburg,MD,20877,490000,3,2.5,HIDDEN CREEK,3200,1330,2008,144,153,123,Sold,,,https://www.redfin.com/MD/Gaithersburg/534-Whetstone-Glen-St-20877/home/12544289,BRIGHT MLS,MDMC756910,N,Y,39.1521908,-77.1889514
PAST SALE,November-23-2021,Single Family Residential,18300 Swan Stream Dr,Gaithersburg,MD,20877,483700,4,3.0,EMORY GROVE PARK,2312,4904,1986,12,209,41,Sold,,,https://www.redfin.com/MD/Gaithersburg/18300-Swan-Stream-Dr-20877/home/10799300,BRIGHT MLS,MDMC2018372,N,Y,39.1550432,-77.1589192
PAST SALE,August-16-2019,Townhouse,655 Pullman Pl,Gaithersburg,MD,20877,420000,3,2.5,HIDDEN CREEK,2600,1210,2009,842,162,125,Sold,,,https://www.redfin.com/MD/Gaithersburg/655-Pullman-Pl-20877/home/40017039,BRIGHT MLS,MDMC666094,N,Y,39.1509998,-77.1898283
PAST SALE,September-24-2021,Townhouse,647 Whetstone Glen St,Gaithersburg,MD,20877,445000,3,2.5,HIDDEN CREEK CODM,2894,,2006,72,154,266,Sold,,,https://www.redfin.com/MD/Gaithersburg/647-Whetstone-Glen-St-20877/home/17356218,BRIGHT MLS,MDMC2009568,N,Y,39.1531787,-77.1899336
PAST SALE,November-10-2020,Townhouse,523 Mandolin Ct,Gaithersburg,MD,20877,318000,2,3.0,AUDUBON SQUARE,1860,1800,1984,390,171,70,Sold,,,https://www.redfin.com/MD/Gaithersburg/523-Mandolin-Ct-20877/home/10793303,BRIGHT MLS,MDMC728760,N,Y,39.144155,-77.186211
PAST SALE,May-1-2019,Single Family Residential,442 Gaither St,Gaithersburg,MD,20877,401000,4,2.0,DEER PARK,1765,21780,1957,949,227,,Sold,,,https://www.redfin.com/MD/Gaithersburg/442-Gaither-St-20877/home/10749404,BRIGHT MLS,MDMC625920,N,Y,39.1340875,-77.1879885
PAST SALE,July-30-2021,Single Family Residential,861 Hidden Marsh St,Gaithersburg,MD,20877,660000,4,4.5,HIDDEN CREEK,4133,3399,2009,128,160,95,Sold,,,https://www.redfin.com/MD/Gaithersburg/861-Hidden-Marsh-St-20877/home/12196599,BRIGHT MLS,MDMC763692,N,Y,39.1551818,-77.1906756
PAST SALE,October-4-2019,Townhouse,635 Whetstone Glen St,Gaithersburg,MD,20877,380000,3,2.5,HIDDEN CREEK CODM,2894,,2006,793,131,261,Sold,,,https://www.redfin.com/MD/Gaithersburg/635-Whetstone-Glen-St-20877/unit-635/home/11759231,BRIGHT MLS,MDMC674530,N,Y,39.15319,-77.1896753
PAST SALE,April-30-2019,Townhouse,324 Park Ave #10,Gaithersburg,MD,20877,360000,3,2.5,SUMMIT CROSSING CODM,2593,,2013,950,139,240,Sold,,,https://www.redfin.com/MD/Gaithersburg/324-Park-Ave-20877/unit-10/home/113386607,BRIGHT MLS,MDMC620500,N,Y,39.1457624,-77.1942493
PAST SALE,July-30-2019,Townhouse,909 Hidden Marsh St,Gaithersburg,MD,20877,429000,4,3.5,HIDDEN CREEK,2354,2390,2005,859,182,93,Sold,,,https://www.redfin.com/MD/Gaithersburg/909-Hidden-Marsh-St-20877/home/11205376,BRIGHT MLS,MDMC664842,N,Y,39.154554,-77.1896938
PAST SALE,April-3-2020,Single Family Residential,17840 Hazelcrest Dr,Gaithersburg,MD,20877,475000,4,2.5,EMORY GROVE PARK,2286,7930,1987,611,208,28,Sold,,,https://www.redfin.com/MD/Gaithersburg/17840-Hazelcrest-Dr-20877/home/10794518,BRIGHT MLS,MDMC697482,N,Y,39.1506234,-77.1712757
PAST SALE,February-19-2020,Townhouse,603 Whetstone Glen St,Gaithersburg,MD,20877,355000,3,2.5,HIDDEN CREEK CODM,1892,,2006,655,188,261,Sold,,,https://www.redfin.com/MD/Gaithersburg/603-Whetstone-Glen-St-20877/unit-603/home/11760301,BRIGHT MLS,MDMC685568,N,Y,39.1532112,-77.189445
MLS Listing,,Single Family Residential,201 Meadowgate Ter,Gaithersburg,MD,20877,490000,3,2.5,SAYBROOKE,2204,7223,1987,2,222,58,Active,December-5-2021 11:00 AM,December-5-2021 02:00 PM,https://www.redfin.com/MD/Gaithersburg/201-Meadowgate-Ter-20877/home/10849177,BRIGHT MLS,MDMC2012894,N,Y,39.1494097,-77.1758135
MLS Listing,,Vacant Land,Central Ave #6,Gaithersburg,MD,20877,250000,,,GAITHERSBURG OUTSIDE,,33541,,2,,,Active,,,https://www.redfin.com/MD/Gaithersburg/6-Central-Ave-20877/unit-6/home/177485977,BRIGHT MLS,MDMC2025274,N,Y,39.1303421,-77.1870471
MLS Listing,,Condo/Co-op,438 Girard St #255,Gaithersburg,MD,20877,199900,3,2.0,VILLA RIDGE SEC 3 CODM,1349,,1976,5,148,753,Active,December-5-2021 02:00 PM,December-5-2021 04:00 PM,https://www.redfin.com/MD/Gaithersburg/438-Girard-St-20877/unit-255/home/10779327,BRIGHT MLS,MDMC2024752,N,Y,39.1476073,-77.187527
MLS Listing,,Single Family Residential,8704 Emory Grove Rd,Gaithersburg,MD,20877,850000,4,3.0,GAITHERSBURG OUTSIDE,1810,58535,1969,8,470,,Active,,,https://www.redfin.com/MD/Gaithersburg/8704-Emory-Grove-Rd-20877/home/10735654,BRIGHT MLS,MDMC2024382,N,Y,39.1571583,-77.1807555
MLS Listing,,Single Family Residential,16409 Alden Ave,Gaithersburg,MD,20877,699999,4,3.5,ROSEMONT,3628,20649,1969,9,193,,Active,December-5-2021 01:00 PM,December-5-2021 04:00 PM,https://www.redfin.com/MD/Gaithersburg/16409-Alden-Ave-20877/home/10751404,BRIGHT MLS,MDMC2024330,N,Y,39.1257365,-77.1844844
MLS Listing,,Condo/Co-op,106 Duvall Ln Unit 46-202,Gaithersburg,MD,20877,155000,2,2.0,FIRESIDE,1053,,1974,10,147,776,Active,December-5-2021 01:00 PM,December-5-2021 03:00 PM,https://www.redfin.com/MD/Gaithersburg/106-Duvall-Ln-20877/unit-46-202/home/167119189,BRIGHT MLS,MDMC2024318,N,Y,39.1290724,-77.2028919
MLS Listing,,Townhouse,593 Cedar Spring St,Gaithersburg,MD,20877,550000,3,2.5,HIDDEN CREEK,2700,1191,2006,16,204,123,Active,,,https://www.redfin.com/MD/Gaithersburg/593-Cedar-Spring-St-20877/home/35615590,BRIGHT MLS,MDMC2023820,N,Y,39.1528403,-77.1900321
MLS Listing,,Single Family Residential,Railroad St,Washington Grove,MD,20880,660000,4,2.5,GAITHERSBURG OUTSIDE,,23223,,23,,,Active,,,https://www.redfin.com/MD/WASHINGTON-GROVE/RAILROAD-ST-20880/home/143754495,BRIGHT MLS,MDMC2023052,N,Y,39.13505,-77.175958
MLS Listing,,Single Family Residential,1750 Railroad St,Washington Grove,MD,20880,596000,4,2.5,GAITHERSBURG OUTSIDE,,16303,,23,,,Active,,,https://www.redfin.com/MD/Washington-Grove/1750-Railroad-St-20880/home/177214541,BRIGHT MLS,MDMC2023038,N,Y,39.13529,-77.17486
MLS Listing,,Single Family Residential,201 Washington Grove Ln,Gaithersburg,MD,20877,424900,4,2.0,WASHINGTON GROVE,1440,8750,1941,27,295,,Active,,,https://www.redfin.com/MD/Gaithersburg/201-Washington-Grove-Ln-20877/home/10736318,BRIGHT MLS,MDMC2020936,N,Y,39.1401616,-77.178599
MLS Listing,,Single Family Residential,205 Central Ave,Gaithersburg,MD,20877,745000,4,3.5,GAITHERSBURG OUTSIDE,2350,17116,,33,317,,Active,,,https://www.redfin.com/MD/Gaithersburg/205-Central-Ave-20877/home/167700655,BRIGHT MLS,MDMC2021744,N,Y,39.1342591,-77.1812731
MLS Listing,,Townhouse,52 Benji Ct #147,Gaithersburg,MD,20877,299000,4,2.5,NEWPORT EST SEC 2 CODM,1286,,1974,34,233,210,Active,,,https://www.redfin.com/MD/Gaithersburg/52-Benji-Ct-20877/unit-147/home/10770947,BRIGHT MLS,MDMC2021274,N,Y,39.1440991,-77.1826775
MLS Listing,,Townhouse,476 W Deer Park Rd Unit 16-G,Gaithersburg,MD,20877,359000,3,3.5,BRIGHTON EAST CODM #1,2066,,1971,39,174,356,Active,,,https://www.redfin.com/MD/Gaithersburg/476-W-Deer-Park-Rd-20877/unit-16-G/home/10746241,BRIGHT MLS,MDMC2020008,N,Y,39.1277759,-77.1998439
MLS Listing,,Townhouse,412 Carousel Ct,Gaithersburg,MD,20877,335000,3,2.5,AUDUBON SQUARE,1007,1800,1983,50,333,63,Active,,,https://www.redfin.com/MD/Gaithersburg/412-Carousel-Ct-20877/home/10793411,BRIGHT MLS,MDMC2000869,N,Y,39.145314,-77.186508
MLS Listing,,Condo/Co-op,440 Girard St #104,Gaithersburg,MD,20877,129900,1,1.0,VILLA RIDGE SEC 3 CODM,905,,1976,51,144,545,Active,,,https://www.redfin.com/MD/Gaithersburg/440-Girard-St-20877/unit-104/home/143497701,BRIGHT MLS,MDMC2001289,N,Y,39.1477943,-77.1881732
MLS Listing,,Townhouse,2 Benji Ct #138,Gaithersburg,MD,20877,235000,2,3.0,NEWPORT EST SEC 2 CODM,1019,,1974,57,231,220,Active,,,https://www.redfin.com/MD/Gaithersburg/2-Benji-Ct-20877/unit-138/home/10770909,BRIGHT MLS,MDMC2000259,N,Y,39.1446831,-77.1824717
MLS Listing,,Single Family Residential,7905 Bounding Bend Ct,Derwood,MD,20855,645000,4,3.5,MILL CREEK SOUTH,3024,11245,1985,80,213,,Active,,,https://www.redfin.com/MD/Derwood/7905-Bounding-Bend-Ct-20855/home/10816945,BRIGHT MLS,MDMC2015884,N,Y,39.137799,-77.165131
MLS Listing,,Townhouse,498 W Deer Park Rd Unit 17-E,Gaithersburg,MD,20877,339000,3,2.5,BRIGHTON EAST CODM #1,1386,,1971,82,245,340,Active,,,https://www.redfin.com/MD/Gaithersburg/498-W-Deer-Park-Rd-20877/unit-17-E/home/10746265,BRIGHT MLS,MDMC2016194,N,Y,39.1275645,-77.199489
MLS Listing,,Vacant Land,17050 Railroad St,Washington Grove,MD,20880,149900,,,GAITHERSBURG OUTSIDE,,13037,,126,,,Active,,,https://www.redfin.com/MD/Washington-Grove/17050-Railroad-St-20880/unit-2/home/172043550,BRIGHT MLS,MDMC2009032,N,Y,39.135313,-77.175638
MLS Listing,,Vacant Land,17050 Railroad St,Washington Grove,MD,20880,185000,,,GAITHERSBURG OUTSIDE,,22200,,128,,,Active,,,https://www.redfin.com/MD/Washington-Grove/17050-Railroad-St-20880/home/10735080,BRIGHT MLS,MDMC2008742,N,Y,39.135313,-77.175638
MLS Listing,,Townhouse,535 W Diamond Ave #9,Gaithersburg,MD,20877,305000,4,2.5,STRATFORD MEWS CODM,1782,,1981,174,171,165,Active,,,https://www.redfin.com/MD/Gaithersburg/535-W-Diamond-Ave-20877/unit-9/home/10806474,BRIGHT MLS,MDMC763998,N,Y,39.1400533,-77.2102853
PAST SALE,May-19-2021,Single Family Residential,17408 Taunton Dr,Gaithersburg,MD,20877,556000,5,3.5,MILL CREEK SOUTH,2820,11338,1980,200,197,,Sold,,,https://www.redfin.com/MD/Gaithersburg/17408-Taunton-Dr-20877/home/10786427,BRIGHT MLS,MDMC754146,N,Y,39.1422284,-77.1648505
PAST SALE,,Townhouse,23 Inkberry Cir,Gaithersburg,MD,20877,50000,,2.5,,2252,2412,2003,,22,,,,,https://www.redfin.com/MD/Gaithersburg/23-Inkberry-Cir-20877/home/11189152,,,N,Y,39.1590295,-77.1915016
PAST SALE,November-19-2021,Townhouse,4 Anna Ct #251,Gaithersburg,MD,20877,250000,5,2.0,NEWPORT EST SEC 3 CODM,1029,,1974,16,243,215,Sold,,,https://www.redfin.com/MD/Gaithersburg/4-Anna-Ct-20877/unit-251/home/10771656,BRIGHT MLS,MDMC2020410,N,Y,39.1454129,-77.1832385
PAST SALE,March-1-2021,Single Family Residential,104 Bates Ave,Gaithersburg,MD,20877,623000,4,3.5,GATEWAY COMMONS,4327,4607,1994,279,144,65,Sold,,,https://www.redfin.com/MD/Gaithersburg/104-Bates-Ave-20877/home/10864124,BRIGHT MLS,MDMC742082,N,Y,39.1279213,-77.178599
PAST SALE,August-26-2019,Single Family Residential,220 Grange Hall Dr,Gaithersburg,MD,20877,469000,4,3.5,SAYBROOKE,3496,5850,1989,832,134,68,Sold,,,https://www.redfin.com/MD/Gaithersburg/220-Grange-Hall-Dr-20877/home/10853034,BRIGHT MLS,MDMC667224,N,Y,39.1525146,-77.1799918
PAST SALE,November-22-2021,Single Family Residential,238 Rolling Rd,Gaithersburg,MD,20877,462300,4,2.0,DEER PARK,1620,22897,1964,13,285,,Sold,,,https://www.redfin.com/MD/Gaithersburg/238-Rolling-Rd-20877/home/10749714,BRIGHT MLS,MDMC2017364,N,Y,39.1381772,-77.1830468
PAST SALE,May-28-2019,Townhouse,728 Raven Ave,Gaithersburg,MD,20877,420000,4,3.5,HIDDEN CREEK,2480,3166,2006,922,169,130,Sold,,,https://www.redfin.com/MD/Gaithersburg/728-Raven-Ave-20877/home/11758882,BRIGHT MLS,MDMC624054,N,Y,39.1517917,-77.1878336
PAST SALE,August-14-2020,Condo/Co-op,426 Girard St #103,Gaithersburg,MD,20877,110000,3,2.0,VILLA RIDGE SEC 2 CODM,1247,,1975,478,88,625,Sold,,,https://www.redfin.com/MD/Gaithersburg/426-Girard-St-20877/unit-103/home/171223696,BRIGHT MLS,MDMC702186,N,Y,39.148308,-77.1872105
PAST SALE,June-17-2021,Single Family Residential,7614 Creekstone Ct,Gaithersburg,MD,20877,500000,5,3.5,EMORY GROVE PARK,2656,4791,1985,171,188,41,Sold,,,https://www.redfin.com/MD/Gaithersburg/7614-Creekstone-Ct-20877/home/10799420,BRIGHT MLS,MDMC760546,N,Y,39.1544675,-77.1566275
PAST SALE,December-15-2020,Condo/Co-op,438 Girard St #256,Gaithersburg,MD,20877,165000,3,2.0,VILLA RIDGE SEC 3 CODM,1349,,1976,355,122,753,Sold,,,https://www.redfin.com/MD/Gaithersburg/438-Girard-St-20877/unit-256/home/10779328,BRIGHT MLS,MDMC732318,N,Y,39.1476073,-77.187527
PAST SALE,August-20-2021,Townhouse,589 Odendhal Ave,Gaithersburg,MD,20877,375000,3,2.5,HIDDEN CREEK CODM,1868,1,2006,107,201,263,Sold,,,https://www.redfin.com/MD/Gaithersburg/589-Odendhal-Ave-20877/home/22013956,BRIGHT MLS,MDMC2008032,N,Y,39.1522855,-77.1903566
PAST SALE,,Condo/Co-op,17 Water St #23,Gaithersburg,MD,20877,64000,,1.0,,608,,1950,,105,,,,,https://www.redfin.com/MD/Gaithersburg/17-Water-St-20877/unit-23/home/10771098,,,N,Y,39.1394376,-77.2021265
PAST SALE,September-8-2021,Townhouse,8233 Amity Cir,Gaithersburg,MD,20877,319000,3,2.5,HAMLET NORTH,1535,1600,1986,88,208,95,Sold,,,https://www.redfin.com/MD/Gaithersburg/8233-Amity-Cir-20877/home/10833744,BRIGHT MLS,MDMC2009882,N,Y,39.145805,-77.167789
PAST SALE,,Condo/Co-op,306 Park Ave Unit 1-306,Gaithersburg,MD,20877,356000,,,,2244,,2013,,159,,,,,https://www.redfin.com/MD/Gaithersburg/306-Park-Ave-20877/unit-1-306/home/64364588,,,N,Y,39.145959,-77.193668
PAST SALE,December-23-2019,Single Family Residential,7715 Prince Hall Ct,Gaithersburg,MD,20877,370000,4,2.0,EMORY GROVE PARK,1696,7155,1978,713,218,5,Sold,,,https://www.redfin.com/MD/Gaithersburg/7715-Prince-Hall-Ct-20877/home/10782080,BRIGHT MLS,MDMC687198,N,Y,39.1532586,-77.1626488
PAST SALE,,Condo/Co-op,422 Girard St #131,Gaithersburg,MD,20877,90000,,1.0,,1103,,1975,,82,,,,,https://www.redfin.com/MD/Gaithersburg/422-Girard-St-20877/unit-131/home/10775839,,,N,Y,39.1480374,-77.1867098
PAST SALE,March-18-2019,Condo/Co-op,118 Duvall Ln Unit 117-301,Gaithersburg,MD,20877,90000,2,1.0,FIRESIDE,788,,1974,993,114,559,Sold,,,https://www.redfin.com/MD/Gaithersburg/118-Duvall-Ln-20877/unit-117-301/home/63706619,BRIGHT MLS,MDMC622458,N,Y,39.1282436,-77.2020281
PAST SALE,September-24-2021,Single Family Residential,101 Billingsgate Ln,Gaithersburg,MD,20877,574000,4,3.5,SAYBROOKE,3030,5387,1989,72,189,,Sold,,,https://www.redfin.com/MD/Gaithersburg/101-Billingsgate-Ln-20877/home/10850348,BRIGHT MLS,MDMC2005018,N,Y,39.1506649,-77.1788237
PAST SALE,December-23-2019,Townhouse,17908 Cottonwood Ter,Gaithersburg,MD,20877,325000,3,2.5,MINERAL SPRINGS VILL TH,1960,1500,1990,713,166,85,Sold,,,https://www.redfin.com/MD/Gaithersburg/17908-Cottonwood-Ter-20877/home/10856424,BRIGHT MLS,MDMC684910,N,Y,39.14904,-77.16452
PAST SALE,,Townhouse,521 Cedar Spring St,Gaithersburg,MD,20877,504000,3,2.5,,2700,1057,2007,,187,,,,,https://www.redfin.com/MD/Gaithersburg/521-Cedar-Spring-St-20877/home/35615236,,,N,Y,39.1517671,-77.1900871
PAST SALE,February-27-2020,Condo/Co-op,416 Girard St #92,Gaithersburg,MD,20877,100000,1,1.0,VILLA RIDGE,905,,1975,647,110,544,Sold,,,https://www.redfin.com/MD/Gaithersburg/416-Girard-St-20877/unit-92/home/10773041,BRIGHT MLS,MDMC692752,N,Y,39.147149,-77.187028
PAST SALE,,Single Family Residential,315 W Deer Park Rd,Gaithersburg,MD,20877,327000,,2.5,,2332,11197,1973,,140,,,,,https://www.redfin.com/MD/Gaithersburg/315-W-Deer-Park-Rd-20877/home/10745679,,,N,Y,39.1289315,-77.2002521
PAST SALE,November-16-2020,Single Family Residential,202 Meadowgate Ter,Gaithersburg,MD,20877,510000,3,2.5,SAYBROOKE,2680,4658,1987,384,190,73,Sold,,,https://www.redfin.com/MD/Gaithersburg/202-Meadowgate-Ter-20877/home/10849215,BRIGHT MLS,MDMC726476,N,Y,39.148995,-77.175742
PAST SALE,February-28-2019,Condo/Co-op,126 Duvall Ln Unit 163-203,Gaithersburg,MD,20877,83000,1,1.0,FIRESIDE,788,,1974,1011,105,559,Sold,,,https://www.redfin.com/MD/Gaithersburg/126-Duvall-Ln-20877/unit-163-203/home/160445145,BRIGHT MLS,MDMC559762,N,Y,39.127945,-77.201261
PAST SALE,May-18-2021,Single Family Residential,8833 N Westland Dr,Gaithersburg,MD,20877,536000,4,2.5,WALNUT HILL,2474,9000,1968,201,217,,Sold,,,https://www.redfin.com/MD/Gaithersburg/8833-N-Westland-Dr-20877/home/10739734,BRIGHT MLS,MDMC747034,N,Y,39.1307319,-77.1812048
PAST SALE,March-26-2021,Townhouse,17769 Larchmont Ter,Gaithersburg,MD,20877,315000,3,3.0,TOWNE CREST,1692,1530,1974,254,186,72,Sold,,,https://www.redfin.com/MD/Gaithersburg/17769-Larchmont-Ter-20877/home/10768112,BRIGHT MLS,MDMC743930,N,Y,39.147635,-77.173787
PAST SALE,March-16-2020,Townhouse,575 Summit Hall Rd,Gaithersburg,MD,20877,315000,4,3.5,CEDAR VILLAGE,1411,,1971,629,223,370,Sold,,,https://www.redfin.com/MD/Gaithersburg/575-Summit-Hall-Rd-20877/unit-575/home/10782567,BRIGHT MLS,MDMC695638,N,Y,39.1254793,-77.1979432
PAST SALE,May-7-2021,Condo/Co-op,446 Girard St #104,Gaithersburg,MD,20877,146000,2,2.0,VILLA RIDGE SEC 3 CODM,1127,,1976,212,130,649,Sold,,,https://www.redfin.com/MD/Gaithersburg/446-Girard-St-20877/unit-104/home/173808120,BRIGHT MLS,MDMC736510,N,Y,39.1472587,-77.1877822
PAST SALE,September-29-2021,Townhouse,622 Frogs Leap Ln,Gaithersburg,MD,20877,390500,3,2.5,HIDDEN CREEK CODM,1868,,2007,67,209,263,Sold,,,https://www.redfin.com/MD/Gaithersburg/622-Frogs-Leap-Ln-20877/home/12477602,BRIGHT MLS,MDMC2007090,N,Y,39.1531751,-77.1887639
PAST SALE,March-30-2020,Condo/Co-op,420 Girard St #104,Gaithersburg,MD,20877,141500,3,2.0,VILLA RIDGE SEC 2 CODM,1349,,1975,615,105,739,Sold,,,https://www.redfin.com/MD/Gaithersburg/420-Girard-St-20877/unit-104/home/10775802,BRIGHT MLS,MDMC692040,N,Y,39.1468267,-77.1853591
PAST SALE,September-15-2021,Condo/Co-op,430 Girard St #303,Gaithersburg,MD,20877,156000,2,2.0,VILLA RIDGE SEC 2 CODM,1127,,1975,81,138,649,Sold,,,https://www.redfin.com/MD/Gaithersburg/430-Girard-St-20877/unit-303/home/175892875,BRIGHT MLS,MDMC2008404,N,Y,39.1483555,-77.1883107
PAST SALE,May-17-2021,Single Family Residential,18069 Cactus Ct,Gaithersburg,MD,20877,400000,4,3.0,LAYTONIA,1484,5800,1970,202,270,50,Sold,,,https://www.redfin.com/MD/Gaithersburg/18069-Cactus-Ct-20877/home/10739467,BRIGHT MLS,MDMC748816,N,Y,39.1525927,-77.155594
PAST SALE,September-12-2020,Condo/Co-op,126 Duvall Ln Unit 157-101,Gaithersburg,MD,20877,115000,2,2.0,FIRESIDE,1053,,1974,449,109,776,Sold,,,https://www.redfin.com/MD/Gaithersburg/126-Duvall-Ln-20877/unit-157-101/home/160477708,BRIGHT MLS,MDMC719398,N,Y,39.127945,-77.201261
PAST SALE,February-28-2020,Single Family Residential,18702 Capella Ln,Gaithersburg,MD,20877,455000,5,3.5,MEADOWVALE,2548,6528,1987,646,179,55,Sold,,,https://www.redfin.com/MD/Gaithersburg/18702-Capella-Ln-20877/home/10842470,BRIGHT MLS,MDMC693230,N,Y,39.1579728,-77.1794527
PAST SALE,September-24-2021,Townhouse,22 Michael Ct #9,Gaithersburg,MD,20877,287500,3,2.5,NEWPORT ESTATES,1365,,1973,72,211,311,Sold,,,https://www.redfin.com/MD/Gaithersburg/22-Michael-Ct-20877/unit-9/home/10768817,BRIGHT MLS,MDMC2012190,N,Y,39.1421632,-77.1816463
PAST SALE,November-30-2021,Single Family Residential,204 Saybrooke View Pl,Gaithersburg,MD,20877,537000,3,2.5,SAYBROOKE,2314,4354,1987,5,232,73,Sold,,,https://www.redfin.com/MD/Gaithersburg/204-Saybrooke-View-Pl-20877/home/10849229,BRIGHT MLS,MDMC2022988,N,Y,39.148731,-77.175531
PAST SALE,February-4-2019,Condo/Co-op,629 Whetstone Glen St,Gaithersburg,MD,20877,326000,3,2.5,HIDDEN CREEK CODM,1868,,2006,1035,175,262,Sold,,,https://www.redfin.com/MD/Gaithersburg/629-Whetstone-Glen-St-20877/unit-629/home/23467002,BRIGHT MLS,MDMC390896,N,Y,39.1531663,-77.1895426
PAST SALE,April-30-2019,Single Family Residential,130 Water St,Gaithersburg,MD,20877,430000,4,3.5,GAITHERSBURG TOWN,2500,4538,1988,950,172,,Sold,,,https://www.redfin.com/MD/Gaithersburg/130-Water-St-20877/home/10848157,BRIGHT MLS,MDMC625574,N,Y,39.1370017,-77.2044744
PAST SALE,July-1-2019,Single Family Residential,404 Sanders Ln,Gaithersburg,MD,20877,435000,5,3.0,WHETSTONE RUN,1688,9916,1987,888,258,,Sold,,,https://www.redfin.com/MD/Gaithersburg/404-Sanders-Ln-20877/home/10795757,BRIGHT MLS,MDMC662128,N,Y,39.1485958,-77.1817888
PAST SALE,November-18-2019,Townhouse,577 W Diamond Ave #37,Gaithersburg,MD,20877,195000,2,2.5,STRATFORD MEWS CODM,1384,,1981,748,141,163,Sold,,,https://www.redfin.com/MD/Gaithersburg/577-W-Diamond-Ave-20877/unit-37/home/10806584,BRIGHT MLS,MDMC679944,N,Y,39.1404916,-77.2122513
PAST SALE,May-3-2019,Single Family Residential,31 Walker Ave,Gaithersburg,MD,20877,650000,6,4.5,WALKERS ADD,2934,10049,1911,947,222,,Sold,,,https://www.redfin.com/MD/Gaithersburg/31-Walker-Ave-20877/home/10752433,BRIGHT MLS,1002356928,N,Y,39.1457494,-77.1980735
PAST SALE,November-9-2020,Single Family Residential,210 Lower Country Dr,Gaithersburg,MD,20877,535000,4,3.5,SAYBROOKE,2938,7165,1989,391,182,67,Sold,,,https://www.redfin.com/MD/Gaithersburg/210-Lower-Country-Dr-20877/home/10853005,BRIGHT MLS,MDMC726132,N,Y,39.1535895,-77.1813845
PAST SALE,,Vacant Land,221 Cedar Ave,Gaithersburg,MD,20877,92500,,,,,12214,,,,,,,,https://www.redfin.com/MD/Gaithersburg/221-Cedar-Ave-20877/home/173823524,,,N,Y,39.1354756,-77.2008619
PAST SALE,January-18-2019,Townhouse,98 Meem Ave,Gaithersburg,MD,20877,205000,2,1.0,MEEMS ADD,675,7223,1955,1052,304,,Sold,,,https://www.redfin.com/MD/Gaithersburg/98-Meem-Ave-20877/home/10751062,BRIGHT MLS,1007541086,N,Y,39.1419577,-77.2041128
PAST SALE,June-27-2019,Townhouse,8130 Fallow Dr Unit 12-A,Gaithersburg,MD,20877,300000,3,3.5,HAMLET NORTH,1910,,1968,892,157,210,Sold,,,https://www.redfin.com/MD/Gaithersburg/8130-Fallow-Dr-20877/unit-12-A/home/10761927,BRIGHT MLS,MDMC659766,N,Y,39.1441139,-77.1667897
PAST SALE,October-9-2019,Townhouse,713 Raven Ave,Gaithersburg,MD,20877,395000,3,3.0,HIDDEN CREEK,1900,1390,2006,788,208,93,Sold,,,https://www.redfin.com/MD/Gaithersburg/713-Raven-Ave-20877/home/11758866,BRIGHT MLS,MDMC663372,N,Y,39.1513773,-77.1880735
PAST SALE,July-16-2021,Townhouse,369 Belt Pl #31,Gaithersburg,MD,20877,432000,3,2.5,SUMMIT CROSSING CODM,2974,,2008,142,145,280,Sold,,,https://www.redfin.com/MD/Gaithersburg/369-Belt-Pl-20877/unit-31/home/169643212,BRIGHT MLS,MDMC759320,N,Y,39.145949,-77.193387
PAST SALE,,Single Family Residential,16703 Cyrus St,Gaithersburg,MD,20877,804000,,3.5,,3529,20926,1994,,228,,,,,https://www.redfin.com/MD/Gaithersburg/16703-Cyrus-St-20877/home/10861170,,,N,Y,39.1307494,-77.1819012
PAST SALE,May-28-2021,Townhouse,17515 Amity Dr,Gaithersburg,MD,20877,420000,4,3.5,MILL CREEK SOUTH,1820,2835,1979,191,231,,Sold,,,https://www.redfin.com/MD/Gaithersburg/17515-Amity-Dr-20877/home/10794561,BRIGHT MLS,MDMC754940,N,Y,39.143393,-77.166336
PAST SALE,,Condo/Co-op,625 Kingfisher Ave #625,Gaithersburg,MD,20877,396000,,,,1868,,2007,,212,,,,,https://www.redfin.com/MD/Gaithersburg/625-Kingfisher-Ave-20877/unit-625/home/12450855,,,N,Y,39.1545727,-77.1900716
PAST SALE,November-6-2020,Single Family Residential,14 Mills Rd,Gaithersburg,MD,20877,412000,3,2.0,BROWNS ADD,1820,9138,1958,394,226,,Sold,,,https://www.redfin.com/MD/Gaithersburg/14-Mills-Rd-20877/home/10746895,BRIGHT MLS,MDMC726902,N,Y,39.1373571,-77.200836
PAST SALE,December-2-2019,Condo/Co-op,112 Duvall Ln Unit 83-103,Gaithersburg,MD,20877,94000,2,2.0,FIRESIDE,1053,,1974,734,89,776,Sold,,,https://www.redfin.com/MD/Gaithersburg/112-Duvall-Ln-20877/unit-83-103/home/45395792,BRIGHT MLS,MDMC679230,N,Y,39.1290389,-77.202422
PAST SALE,March-25-2021,Condo/Co-op,100 Duvall Ln Unit 14-102,Gaithersburg,MD,20877,129600,2,2.0,FIRESIDE,1024,,1974,255,127,776,Sold,,,https://www.redfin.com/MD/Gaithersburg/100-Duvall-Ln-20877/unit-14-102/home/45397563,BRIGHT MLS,MDMC746932,N,Y,39.1299366,-77.2033728
PAST SALE,April-17-2020,Single Family Residential,8901 Emory Grove Rd,Gaithersburg,MD,20877,426000,3,3.0,MEADOWVALE,1939,7990,1991,597,220,8,Sold,,,https://www.redfin.com/MD/Gaithersburg/8901-Emory-Grove-Rd-20877/home/10859268,BRIGHT MLS,MDMC697990,N,Y,39.1589578,-77.1818338
PAST SALE,May-31-2021,Single Family Residential,104 Water St,Gaithersburg,MD,20877,379900,3,2.5,GAITHERSBURG TOWN,1792,13038,1937,188,212,,Sold,,,https://www.redfin.com/MD/Gaithersburg/104-Water-St-20877/home/10745348,BRIGHT MLS,MDMC726932,N,Y,39.1382506,-77.2031264
PAST SALE,December-10-2019,Single Family Residential,10 Oceania Ct,Gaithersburg,MD,20877,536000,4,2.5,BROWNS ADD,2376,8840,1997,726,226,,Sold,,,https://www.redfin.com/MD/Gaithersburg/10-Oceania-Ct-20877/home/10860615,BRIGHT MLS,MDMC487320,N,Y,39.1355672,-77.1998478
PAST SALE,February-8-2021,Townhouse,95 Bralan Ct,Gaithersburg,MD,20877,363000,3,3.5,BRIGHTON EAST TH,1995,1591,1981,300,182,104,Sold,,,https://www.redfin.com/MD/Gaithersburg/95-Bralan-Ct-20877/home/10785593,BRIGHT MLS,MDMC740974,N,Y,39.1247275,-77.1997507
PAST SALE,October-31-2019,Townhouse,28 Starboard Ct,Gaithersburg,MD,20877,315000,3,3.0,AUDUBON SQUARE,1260,1800,1985,766,250,57,Sold,,,https://www.redfin.com/MD/Gaithersburg/28-Starboard-Ct-20877/home/10793912,BRIGHT MLS,MDMC100451,N,Y,39.143758,-77.183547
PAST SALE,August-20-2021,Single Family Residential,8 Shipwright Ct,Gaithersburg,MD,20877,575000,4,2.5,SAYBROOKE,2158,10411,1989,107,266,73,Sold,,,https://www.redfin.com/MD/Gaithersburg/8-Shipwright-Ct-20877/home/10853147,BRIGHT MLS,MDMC2007334,N,Y,39.1522893,-77.1779701
PAST SALE,November-23-2021,Townhouse,8402 Meadow Green Way,Gaithersburg,MD,20877,420000,3,3.5,FLOWER HILL,2230,1650,1989,12,188,63,Sold,,,https://www.redfin.com/MD/Gaithersburg/8402-Meadow-Green-Way-20877/home/10852247,BRIGHT MLS,MDMC2020828,N,Y,39.1537562,-77.1713094
PAST SALE,August-3-2020,Townhouse,6 Benji Ct #140,Gaithersburg,MD,20877,224000,4,2.0,NEWPORT EST SEC 2 CODM,1019,,1974,489,220,200,Sold,,,https://www.redfin.com/MD/Gaithersburg/6-Benji-Ct-20877/unit-140/home/10770916,BRIGHT MLS,MDMC714196,N,Y,39.1447284,-77.182302
PAST SALE,June-4-2021,Single Family Residential,8305 Shady Spring Dr,Gaithersburg,MD,20877,380900,5,2.0,MINERAL SPRING VILLAGE,1008,,1976,184,378,28,Sold,,,https://www.redfin.com/MD/Gaithersburg/8305-Shady-Spring-Dr-20877/home/10769067,BRIGHT MLS,MDMC742152,N,Y,39.1468574,-77.1644011
PAST SALE,September-30-2021,Single Family Residential,9537 Emory Grove Rd,Gaithersburg,MD,20877,530000,4,2.5,SHARON WOODS,2752,23335,1975,66,193,,Sold,,,https://www.redfin.com/MD/Gaithersburg/9537-Emory-Grove-Rd-20877/home/10744260,BRIGHT MLS,MDMC750790,N,Y,39.1675036,-77.1963452
PAST SALE,,Condo/Co-op,126 Duvall Ln Unit 163-20,Gaithersburg,MD,20877,83000,,1.0,,788,,1974,,105,,,,,https://www.redfin.com/MD/Gaithersburg/126-Duvall-Ln-20877/unit-163-20/home/10774877,,,N,Y,39.1279578,-77.2014628
PAST SALE,January-26-2021,Single Family Residential,202 Rolling Rd,Gaithersburg,MD,20877,460000,3,2.0,DEER PARK,1620,23592,1964,313,284,,Sold,,,https://www.redfin.com/MD/Gaithersburg/202-Rolling-Rd-20877/home/10749235,BRIGHT MLS,MDMC731518,N,Y,39.1401374,-77.1870002
PAST SALE,,Condo/Co-op,126 Duvall Ln #104,Gaithersburg,MD,20877,77000,,1.0,,788,,1974,,98,,,,,https://www.redfin.com/MD/Gaithersburg/126-Duvall-Ln-20877/unit-104/home/10774865,,,N,Y,39.1279578,-77.2014628
PAST SALE,September-24-2020,Single Family Residential,107 Meem Ave,Gaithersburg,MD,20877,305000,2,1.0,MEEMS ADD,1200,7800,1953,437,254,,Sold,,,https://www.redfin.com/MD/Gaithersburg/107-Meem-Ave-20877/home/10750961,BRIGHT MLS,MDMC720880,N,Y,39.1418666,-77.2050583
PAST SALE,October-20-2021,Single Family Residential,9505 Emory Grove Rd,Gaithersburg,MD,20877,455000,4,3.0,SHARON WOODS,2076,20580,1974,46,219,,Sold,,,https://www.redfin.com/MD/Gaithersburg/9505-Emory-Grove-Rd-20877/home/10744235,BRIGHT MLS,MDMC2017714,N,Y,39.1653841,-77.1969954
PAST SALE,May-6-2020,Condo/Co-op,418 Girard St #302,Gaithersburg,MD,20877,130000,3,2.0,VILLA RIDGE,1247,,1975,578,104,701,Sold,,,https://www.redfin.com/MD/Gaithersburg/418-Girard-St-20877/unit-302/home/82022163,BRIGHT MLS,MDMC698362,N,Y,39.147341,-77.186794
PAST SALE,May-31-2019,Townhouse,17720 Topfield Dr Unit 3-A,Gaithersburg,MD,20877,255000,3,2.5,HAMLET NORTH,1312,,1968,919,194,220,Sold,,,https://www.redfin.com/MD/Gaithersburg/17720-Topfield-Dr-20877/unit-3-A/home/10761738,BRIGHT MLS,MDMC637218,N,Y,39.1451614,-77.1672893
PAST SALE,,Townhouse,49 Maple Hill Ct,Gaithersburg,MD,20877,368962,,2.5,,1740,1588,2014,,212,,,,,https://www.redfin.com/MD/Gaithersburg/49-Maple-Hill-Ct-20877/home/49782269,,,N,Y,39.1588441,-77.1856293
PAST SALE,June-28-2019,Single Family Residential,108 Floral Dr,Gaithersburg,MD,20877,400000,4,2.0,MEEMS ADD,1768,5700,1954,891,226,,Sold,,,https://www.redfin.com/MD/Gaithersburg/108-Floral-Dr-20877/home/10751022,BRIGHT MLS,MDMC659732,N,Y,39.1405976,-77.2055501
PAST SALE,,Condo/Co-op,408 Girard St #51,Gaithersburg,MD,20877,135000,,1.0,,1247,,1975,,108,,,,,https://www.redfin.com/MD/Gaithersburg/408-Girard-St-20877/unit-51/home/10772901,,,N,Y,39.1471717,-77.1863231
PAST SALE,March-10-2021,Condo/Co-op,8 Russell Ave #304,Gaithersburg,MD,20877,165000,2,1.0,NO. 8 RUSSELL AVE CODM,1064,,1988,270,155,450,Sold,,,https://www.redfin.com/MD/Gaithersburg/8-Russell-Ave-20877/unit-304/home/10860149,BRIGHT MLS,MDMC739922,N,Y,39.1429447,-77.1969505
PAST SALE,May-20-2021,Single Family Residential,319 Summit Hall Rd,Gaithersburg,MD,20877,540000,5,3.0,BRIGHTON EAST,2793,12367,1971,199,193,,Sold,,,https://www.redfin.com/MD/Gaithersburg/319-Summit-Hall-Rd-20877/home/10745833,BRIGHT MLS,MDMC752770,N,Y,39.1279216,-77.196928
PAST SALE,May-14-2020,Townhouse,525 Odendhal Ave,Gaithersburg,MD,20877,425000,3,3.0,HIDDEN CREEK,1900,1310,2006,570,224,97,Sold,,,https://www.redfin.com/MD/Gaithersburg/525-Odendhal-Ave-20877/home/11758904,BRIGHT MLS,MDMC671800,N,Y,39.1523458,-77.191818
PAST SALE,December-27-2018,Single Family Residential,219 Cedar Ave,Gaithersburg,MD,20877,399000,4,2.0,BROWNS ADD,3392,10426,1962,1074,118,,Sold,,,https://www.redfin.com/MD/Gaithersburg/219-Cedar-Ave-20877/home/10746772,BRIGHT MLS,1005942301,N,Y,39.1356271,-77.2007462
PAST SALE,July-29-2021,Single Family Residential,19 Brighton Ter,Gaithersburg,MD,20877,567500,3,3.5,BRIGHTON EAST,1874,12523,1973,129,303,,Sold,,,https://www.redfin.com/MD/Gaithersburg/19-Brighton-Ter-20877/home/10745594,BRIGHT MLS,MDMC2002410,N,Y,39.1310018,-77.2001622
PAST SALE,June-24-2021,Single Family Residential,108 Woodland Rd,Gaithersburg,MD,20877,475000,3,2.0,DEER PARK,1812,18523,1960,164,262,,Sold,,,https://www.redfin.com/MD/Gaithersburg/108-Woodland-Rd-20877/home/10749237,BRIGHT MLS,MDMC755666,N,Y,39.1407324,-77.189471
PAST SALE,April-9-2021,Townhouse,17733 Topfield Dr Unit 5-G,Gaithersburg,MD,20877,314000,3,3.5,HAMLET NORTH,1310,,1968,240,240,240,Sold,,,https://www.redfin.com/MD/Montgomery-Village/17733-Topfield-Dr-20877/unit-5-G/home/10761791,BRIGHT MLS,MDMC747350,N,Y,39.1453881,-77.1670163
PAST SALE,May-17-2019,Townhouse,18035 Fence Post Ct,Gaithersburg,MD,20877,345900,3,3.0,EMORY GROVE PARK,1854,1650,1989,933,187,41,Sold,,,https://www.redfin.com/MD/Gaithersburg/18035-Fence-Post-Ct-20877/home/10851091,BRIGHT MLS,MDMC623612,N,Y,39.1523449,-77.171479
PAST SALE,June-11-2021,Townhouse,7531 Laytonia Dr,Gaithersburg,MD,20877,308000,3,1.5,LAYTONIA TOWNHOUSES,1136,2000,1970,177,271,54,Sold,,,https://www.redfin.com/MD/Gaithersburg/7531-Laytonia-Dr-20877/home/10739329,BRIGHT MLS,MDMC756256,N,Y,39.153574,-77.1546075
PAST SALE,June-4-2021,Single Family Residential,9 Peony Dr,Gaithersburg,MD,20877,510000,4,3.0,DEER PARK,2765,10500,1951,184,184,,Sold,,,https://www.redfin.com/MD/Gaithersburg/9-Peony-Dr-20877/home/10748979,BRIGHT MLS,MDMC750150,N,Y,39.1382476,-77.1919417
PAST SALE,June-26-2019,Single Family Residential,227 Summit Hall Rd,Gaithersburg,MD,20877,469000,5,3.0,BRIGHTON EAST,2732,10019,1972,893,172,,Sold,,,https://www.redfin.com/MD/Gaithersburg/227-Summit-Hall-Rd-20877/home/10745721,BRIGHT MLS,MDMC660122,N,Y,39.1302294,-77.1973548
PAST SALE,December-23-2020,Condo/Co-op,444 Girard St #289,Gaithersburg,MD,20877,169500,3,2.0,VILLA RIDGE SEC 3 CODM,1321,,1976,347,128,753,Sold,,,https://www.redfin.com/MD/Gaithersburg/444-Girard-St-20877/unit-289/home/10779444,BRIGHT MLS,MDMC732040,N,Y,39.1472377,-77.1854214
PAST SALE,October-30-2020,Single Family Residential,18020 Driftwood Ct,Gaithersburg,MD,20877,365000,3,2.5,LAYTONIA,1590,7946,1970,401,230,41,Sold,,,https://www.redfin.com/MD/Gaithersburg/18020-Driftwood-Ct-20877/home/10739390,BRIGHT MLS,MDMC725580,N,Y,39.1525885,-77.157706
PAST SALE,September-14-2021,Townhouse,17731 Meadow Vista Way,Gaithersburg,MD,20877,399900,3,3.5,MINERAL SPRINGS VILL TH,1580,1420,1994,82,253,83,Sold,,,https://www.redfin.com/MD/Gaithersburg/17731-Meadow-Vista-Way-20877/home/10865485,BRIGHT MLS,MDMC2005254,N,Y,39.147125,-77.165901
PAST SALE,September-21-2020,Single Family Residential,205 Cedar Ave,Gaithersburg,MD,20877,405000,4,2.0,BROWNS ADD,2017,14561,1957,440,201,,Sold,,,https://www.redfin.com/MD/Gaithersburg/205-Cedar-Ave-20877/home/10747066,BRIGHT MLS,MDMC713254,N,Y,39.1367122,-77.199713
PAST SALE,November-18-2019,Townhouse,8 Nina Ct #161,Gaithersburg,MD,20877,277000,4,2.5,NEWPORT EST SEC 3 CODM,1535,,1974,748,180,265,Sold,,,https://www.redfin.com/MD/Gaithersburg/8-Nina-Ct-20877/unit-161/home/10771343,BRIGHT MLS,MDMC681560,N,Y,39.1444496,-77.1815762
PAST SALE,March-30-2021,Townhouse,513 Girard St,Gaithersburg,MD,20877,450000,3,2.5,HIDDEN CREEK,2600,1524,2010,250,173,123,Sold,,,https://www.redfin.com/MD/Gaithersburg/513-Girard-St-20877/home/24545736,BRIGHT MLS,MDMC745096,N,Y,39.1501473,-77.1893418
PAST SALE,April-29-2020,Townhouse,8417 Meadow Green Way,Gaithersburg,MD,20877,354000,3,3.0,FLOWER HILL,2094,2250,1989,585,169,56,Sold,,,https://www.redfin.com/MD/Gaithersburg/8417-Meadow-Green-Way-20877/home/10852211,BRIGHT MLS,MDMC698800,N,Y,39.153796,-77.172098
PAST SALE,March-29-2019,Condo/Co-op,104 Duvall Ln #26,Gaithersburg,MD,20877,83000,2,2.0,FIRESIDE,1024,,1974,982,81,776,Sold,,,https://www.redfin.com/MD/Gaithersburg/104-Duvall-Ln-20877/unit-26/home/28616468,BRIGHT MLS,MDMC621170,N,Y,39.1293657,-77.203132
PAST SALE,November-9-2021,Townhouse,8207 Amity Cir,Gaithersburg,MD,20877,350000,3,3.5,HAMLET NORTH,2030,1600,1985,26,172,93,Sold,,,https://www.redfin.com/MD/Gaithersburg/8207-Amity-Cir-20877/home/10833706,BRIGHT MLS,MDMC2017628,N,Y,39.145244,-77.1684
PAST SALE,October-28-2021,Single Family Residential,9101 Eugene Dr,Gaithersburg,MD,20877,500000,5,3.0,ROSEMONT,2303,26083,1966,38,217,,Sold,,,https://www.redfin.com/MD/Gaithersburg/9101-Eugene-Dr-20877/home/10735850,BRIGHT MLS,MDMC2017026,N,Y,39.1255915,-77.1871349
PAST SALE,August-14-2019,Condo/Co-op,108 Duvall Ln Unit 60-204,Gaithersburg,MD,20877,84000,1,1.0,FIRESIDE,788,,1974,844,107,558,Sold,,,https://www.redfin.com/MD/Gaithersburg/108-Duvall-Ln-20877/unit-60-204/home/45394772,BRIGHT MLS,1008354086,N,Y,39.1288316,-77.2026604
PAST SALE,April-12-2019,Single Family Residential,130 Hutton St,Gaithersburg,MD,20877,408000,4,2.0,DEER PARK,1657,10029,1956,968,246,,Sold,,,https://www.redfin.com/MD/Gaithersburg/130-Hutton-St-20877/home/10748944,BRIGHT MLS,MDMC622654,N,Y,39.1390924,-77.1873146
PAST SALE,January-17-2019,Condo/Co-op,132 Duvall Ln Unit 205-101,Gaithersburg,MD,20877,95025,3,2.0,FIRESIDE,1278,,1974,1053,74,904,Sold,,,https://www.redfin.com/MD/Gaithersburg/132-Duvall-Ln-20877/unit-205-101/home/147861836,BRIGHT MLS,1010004352,N,Y,39.127387,-77.2005355
PAST SALE,May-31-2019,Single Family Residential,403 Saybrooke View Dr,Gaithersburg,MD,20877,380000,4,2.5,SAYBROOKE,1870,9508,1988,919,203,68,Sold,,,https://www.redfin.com/MD/Gaithersburg/403-Saybrooke-View-Dr-20877/home/10846856,BRIGHT MLS,1009919040,N,Y,39.1474954,-77.1776556
PAST SALE,April-30-2020,Townhouse,6 Autumn Hill Way,Gaithersburg,MD,20877,320000,3,2.5,FOXWOOD,1533,1971,1980,584,209,78,Sold,,,https://www.redfin.com/MD/Gaithersburg/6-Autumn-Hill-Way-20877/home/10790575,BRIGHT MLS,MDMC699442,N,Y,39.1321863,-77.2050583
PAST SALE,December-10-2019,Single Family Residential,508 Saybrooke View Dr,Gaithersburg,MD,20877,379900,3,2.5,SAYBROOKE,1880,5543,1988,726,202,70,Sold,,,https://www.redfin.com/MD/Gaithersburg/508-Saybrooke-View-Dr-20877/home/10846767,BRIGHT MLS,MDMC681986,N,Y,39.148822,-77.17947
PAST SALE,March-20-2019,Condo/Co-op,416 Girard St #103,Gaithersburg,MD,20877,109900,2,1.0,VILLA RIDGE,1025,,1975,991,107,574,Sold,,,https://www.redfin.com/MD/Gaithersburg/416-Girard-St-20877/unit-103/home/160368090,BRIGHT MLS,MDMC547728,N,Y,39.147149,-77.187028
PAST SALE,November-26-2021,Townhouse,8134 Pepperwood Ln Unit C7,Gaithersburg,MD,20877,335000,3,3.5,HAMLET NORTH,1334,43560,1968,9,251,240,Sold,,,https://www.redfin.com/MD/Montgomery-Village/8134-Pepperwood-Ln-20877/unit-C7/home/10761829,BRIGHT MLS,MDMC2018188,N,Y,39.1447644,-77.1674705
PAST SALE,October-15-2021,Single Family Residential,18007 Silver Leaf Dr,Gaithersburg,MD,20877,600000,4,3.5,EMORY GROVE PARK,2805,9068,1988,51,214,28,Sold,,,https://www.redfin.com/MD/Gaithersburg/18007-Silver-Leaf-Dr-20877/home/10794868,BRIGHT MLS,MDMC2013208,N,Y,39.1528419,-77.1682204
PAST SALE,November-2-2021,Single Family Residential,206 Rolling Rd,Gaithersburg,MD,20877,426000,4,1.5,DEER PARK,1620,22251,1964,33,263,,Sold,,,https://www.redfin.com/MD/Gaithersburg/206-Rolling-Rd-20877/home/10748734,BRIGHT MLS,MDMC2015894,N,Y,39.1399404,-77.1862456
PAST SALE,August-18-2021,Condo/Co-op,114 Duvall Ln Unit 105-301,Gaithersburg,MD,20877,145000,3,2.0,FIRESIDE,1278,,1974,109,113,903,Sold,,,https://www.redfin.com/MD/Gaithersburg/114-Duvall-Ln-20877/unit-105-301/home/40255936,BRIGHT MLS,MDMC762706,N,Y,39.1286706,-77.2026374
PAST SALE,November-16-2021,Townhouse,146 Deer Park,Gaithersburg,MD,20877,395000,3,3.5,BRIGHTON EAST TH,2212,1612,1983,19,179,103,Sold,,,https://www.redfin.com/MD/Gaithersburg/146-E-Deer-Park-Dr-20877/home/176724756,BRIGHT MLS,MDMC2019198,N,Y,39.1353625,-77.1835346
PAST SALE,,Condo/Co-op,408 Girard St #45,Gaithersburg,MD,20877,115000,,1.0,,1349,,1975,,85,,,,,https://www.redfin.com/MD/Gaithersburg/408-Girard-St-20877/unit-45/home/10772878,,,N,Y,39.1471717,-77.1863231
PAST SALE,December-28-2018,Townhouse,18022 Fence Post Ct,Gaithersburg,MD,20877,345000,3,3.0,EMORY GROVE PARK,2041,3649,1989,1073,169,37,Sold,,,https://www.redfin.com/MD/Gaithersburg/18022-Fence-Post-Ct-20877/home/10851056,BRIGHT MLS,MDMC100340,N,Y,39.1520129,-77.1708264
PAST SALE,August-31-2021,Condo/Co-op,406 Girard St #28,Gaithersburg,MD,20877,140000,2,1.0,VILLA RIDGE,883,,1975,96,159,545,Sold,,,https://www.redfin.com/MD/Gaithersburg/406-Girard-St-20877/unit-28/home/143327522,BRIGHT MLS,MDMC2005220,N,Y,39.1465086,-77.1851244
PAST SALE,September-15-2021,Townhouse,18016 Fence Post Ct,Gaithersburg,MD,20877,410000,3,3.0,EMORY GROVE PARK,2005,3647,1989,81,204,38,Sold,,,https://www.redfin.com/MD/Gaithersburg/18016-Fence-Post-Ct-20877/home/10851046,BRIGHT MLS,MDMC2005256,N,Y,39.1521878,-77.1706017
PAST SALE,June-11-2021,Single Family Residential,12 Hutton St,Gaithersburg,MD,20877,562000,4,3.0,GAITHERSBURG TOWN,2310,9516,1962,177,243,,Sold,,,https://www.redfin.com/MD/Gaithersburg/12-Hutton-St-20877/home/10745273,BRIGHT MLS,MDMC754126,N,Y,39.1391575,-77.1922113
PAST SALE,,Single Family Residential,217 Cedar Ave,Gaithersburg,MD,20877,329000,,2.0,,1486,6668,1964,,221,,,,,https://www.redfin.com/MD/Gaithersburg/217-Cedar-Ave-20877/home/10746784,,,N,Y,39.1357721,-77.2006114
PAST SALE,May-30-2019,Condo/Co-op,102 Duvall Ln Unit 10-302,Gaithersburg,MD,20877,96500,2,2.0,FIRESIDE,1053,,1974,920,92,776,Sold,,,https://www.redfin.com/MD/Gaithersburg/102-Duvall-Ln-20877/unit-10-302/home/143288976,BRIGHT MLS,MDMC388938,N,Y,39.1296512,-77.2032524
PAST SALE,February-5-2021,Townhouse,622 Whispering Wind Ct,Gaithersburg,MD,20877,300000,3,2.5,AUDUBON SQUARE,1407,1800,1984,303,213,70,Sold,,,https://www.redfin.com/MD/Gaithersburg/622-Whispering-Wind-Ct-20877/home/10793652,BRIGHT MLS,MDMC739326,N,Y,39.145213,-77.184765
PAST SALE,October-22-2021,Single Family Residential,313 Hidden Forest Ct,Gaithersburg,MD,20877,645000,4,3.5,HIDDEN CREEK,3444,5341,2003,44,187,95,Sold,,,https://www.redfin.com/MD/Gaithersburg/313-Hidden-Forest-Ct-20877/home/11193232,BRIGHT MLS,MDMC2013744,N,Y,39.1566836,-77.1815193
PAST SALE,June-7-2019,Townhouse,17915 Cottonwood Ter,Gaithersburg,MD,20877,325000,3,3.0,MINERAL SPRINGS VILL TH,1620,1500,1990,912,201,74,Sold,,,https://www.redfin.com/MD/Gaithersburg/17915-Cottonwood-Ter-20877/home/10856362,BRIGHT MLS,MDMC624122,N,Y,39.148554,-77.164124
PAST SALE,March-23-2021,Single Family Residential,18713 Capella Ln,Gaithersburg,MD,20877,545000,6,3.0,MEADOWVALE,3010,9845,1987,257,181,17,Sold,,,https://www.redfin.com/MD/Gaithersburg/18713-Capella-Ln-20877/home/10842511,BRIGHT MLS,MDMC742614,N,Y,39.1589326,-77.1801715
PAST SALE,September-30-2021,Single Family Residential,205 E Deer Park Dr,Gaithersburg,MD,20877,410000,3,1.5,DEER PARK,1266,20496,1947,66,324,,Sold,,,https://www.redfin.com/MD/Gaithersburg/205-E-Deer-Park-Dr-20877/home/10749456,BRIGHT MLS,MDMC2013876,N,Y,39.1360472,-77.1829569
PAST SALE,March-22-2019,Townhouse,402 Skidmore Blvd,Gaithersburg,MD,20877,390000,3,2.5,GATEWAY COMMONS,1922,1789,1992,989,203,64,Sold,,,https://www.redfin.com/MD/Gaithersburg/402-Skidmore-Blvd-20877/home/10864087,BRIGHT MLS,MDMC558946,N,Y,39.127161,-77.179768
PAST SALE,March-26-2021,Single Family Residential,412 Belle Grove Rd,Gaithersburg,MD,20877,565000,4,2.5,WHETSTONE RUN,2750,9000,1982,254,205,,Sold,,,https://www.redfin.com/MD/Gaithersburg/412-Belle-Grove-Rd-20877/home/10795713,BRIGHT MLS,MDMC744826,N,Y,39.1485959,-77.1828671
PAST SALE,September-27-2019,Single Family Residential,217 Water St,Gaithersburg,MD,20877,400000,3,3.0,BROWNS ADD,1688,18088,1942,800,237,,Sold,,,https://www.redfin.com/MD/Gaithersburg/217-Water-St-20877/home/10746898,BRIGHT MLS,MDMC666412,N,Y,39.1349115,-77.2051033
PAST SALE,May-31-2019,Townhouse,212 Sapling Hill Way,Gaithersburg,MD,20877,400000,3,2.5,HIDDEN CREEK,1972,1804,2003,919,203,94,Sold,,,https://www.redfin.com/MD/Gaithersburg/212-Sapling-Hill-Way-20877/home/11189117,BRIGHT MLS,MDMC486324,N,Y,39.1593373,-77.1906698
PAST SALE,November-8-2019,Townhouse,518 Whetstone Glen St,Gaithersburg,MD,20877,427750,3,2.5,HIDDEN CREEK,2700,1330,2008,758,158,123,Sold,,,https://www.redfin.com/MD/Gaithersburg/518-Whetstone-Glen-St-20877/home/16848841,BRIGHT MLS,MDMC677814,N,Y,39.1518714,-77.188902
PAST SALE,November-26-2019,Townhouse,655 Cedar Spring St,Gaithersburg,MD,20877,360700,3,2.5,HIDDEN CREEK CODM,2894,,2006,740,125,262,Sold,,,https://www.redfin.com/MD/Gaithersburg/655-Cedar-Spring-St-20877/home/21728568,BRIGHT MLS,MDMC677774,N,Y,39.1541377,-77.1900774
PAST SALE,August-2-2021,Single Family Residential,303 Woodland Rd,Gaithersburg,MD,20877,485000,4,2.5,DEER PARK,2204,15721,1965,125,220,,Sold,,,https://www.redfin.com/MD/Gaithersburg/303-Woodland-Rd-20877/home/10749534,BRIGHT MLS,MDMC2005408,N,Y,39.1384924,-77.1869552
PAST SALE,August-10-2021,Single Family Residential,610 Poplarwood Pl,Gaithersburg,MD,20877,540000,4,2.5,OAKMONT MANOR,2180,13905,1981,117,248,,Sold,,,https://www.redfin.com/MD/Gaithersburg/610-Poplarwood-Pl-20877/home/10795545,BRIGHT MLS,MDMC2004692,N,Y,39.1310071,-77.1840351
PAST SALE,August-26-2021,Single Family Residential,19 Brighton Dr,Gaithersburg,MD,20877,500000,4,2.5,BRIGHTON EAST,2040,9000,1971,101,245,,Sold,,,https://www.redfin.com/MD/Gaithersburg/19-Brighton-Dr-20877/home/10745861,BRIGHT MLS,MDMC2007122,N,Y,39.1299993,-77.198882
PAST SALE,December-11-2019,Single Family Residential,8216 Langport Ter,Gaithersburg,MD,20877,460000,4,3.0,MILL CREEK SOUTH,2370,9375,1980,725,194,,Sold,,,https://www.redfin.com/MD/Gaithersburg/8216-Langport-Ter-20877/home/10794711,BRIGHT MLS,MDMC680396,N,Y,39.1405295,-77.1682653
PAST SALE,January-30-2019,Condo/Co-op,17 - B Water St #23,Gaithersburg,MD,20877,64000,1,1.0,LILAC GARDENS,608,,1950,1040,105,355,Sold,,,https://www.redfin.com/MD/Gaithersburg/17B-Water-St-20877/unit-23/home/147469426,BRIGHT MLS,MDMC436396,N,Y,39.1394376,-77.2021265
PAST SALE,April-23-2021,Condo/Co-op,8 Russell Ave #204,Gaithersburg,MD,20877,169500,2,1.0,NO. 8 RUSSELL AVE CODM,1063,,1988,226,159,450,Sold,,,https://www.redfin.com/MD/Gaithersburg/8-Russell-Ave-20877/unit-204/home/10860142,BRIGHT MLS,MDMC745674,N,Y,39.1429447,-77.1969505
PAST SALE,August-26-2021,Single Family Residential,8 Walker Ave,Gaithersburg,MD,20877,570000,5,2.0,WALKERS ADD,2320,20513,1900,101,246,,Sold,,,https://www.redfin.com/MD/Gaithersburg/8-Walker-Ave-20877/home/10752476,BRIGHT MLS,MDMC752048,N,Y,39.1447269,-77.2002072
PAST SALE,November-30-2020,Condo/Co-op,440 Girard St #304,Gaithersburg,MD,20877,138000,2,1.0,VILLA RIDGE SEC 3 CODM,1037,,1976,370,133,585,Sold,,,https://www.redfin.com/MD/Gaithersburg/440-Girard-St-20877/unit-304/home/173495277,BRIGHT MLS,MDMC731084,N,Y,39.1477943,-77.1881732
PAST SALE,April-19-2019,Single Family Residential,17724 Calabar Dr,Gaithersburg,MD,20877,510000,4,3.5,MINERAL SPRING VILLAGE,3146,6267,1990,961,162,45,Sold,,,https://www.redfin.com/MD/Gaithersburg/17724-Calabar-Dr-20877/home/10855804,BRIGHT MLS,MDMC623594,N,Y,39.1475673,-77.1646707
PAST SALE,December-7-2018,Townhouse,117 Goucher Ter,Gaithersburg,MD,20877,405000,4,3.0,GATEWAY COMMONS,1424,3301,1994,1094,284,80,Sold,,,https://www.redfin.com/MD/Gaithersburg/117-Goucher-Ter-20877/home/10864182,BRIGHT MLS,1009970612,N,Y,39.126923,-77.178991
PAST SALE,August-24-2020,Single Family Residential,307 Swarthmore Ave,Gaithersburg,MD,20877,589000,5,3.5,GATEWAY COMMONS,4150,4660,1995,468,142,65,Sold,,,https://www.redfin.com/MD/Gaithersburg/307-Swarthmore-Ave-20877/home/10864108,BRIGHT MLS,MDMC708730,N,Y,39.127852,-77.1780037
PAST SALE,April-22-2021,Condo/Co-op,448 Girard St #201,Gaithersburg,MD,20877,125000,1,1.0,VILLA RIDGE SEC 3 CODM,905,,1976,227,138,544,Sold,,,https://www.redfin.com/MD/Gaithersburg/448-Girard-St-20877/unit-201/home/143296104,BRIGHT MLS,MDMC751466,N,Y,39.1480917,-77.1860793
PAST SALE,March-11-2021,Townhouse,62 State Ct #110,Gaithersburg,MD,20877,265000,4,2.5,NEWPORT EST SEC 2 CODM,1286,,1974,269,206,200,Sold,,,https://www.redfin.com/MD/Gaithersburg/62-State-Ct-20877/unit-110/home/10770801,BRIGHT MLS,MDMC741878,N,Y,39.1432953,-77.1803026
PAST SALE,April-1-2021,Townhouse,40 Federal Ct,Gaithersburg,MD,20877,265000,3,2.5,NEWPORT ESTATES,1365,,1973,248,194,311,Sold,,,https://www.redfin.com/MD/Gaithersburg/40-Federal-Ct-20877/unit-44/home/10768952,BRIGHT MLS,MDMC729630,N,Y,39.1429469,-77.1800194
PAST SALE,,Condo/Co-op,128 Duvall Ln Unit T3,Gaithersburg,MD,20877,90000,,1.0,,1024,,1974,,88,,,,,https://www.redfin.com/MD/Gaithersburg/128-Duvall-Ln-20877/unit-T3/home/10774908,,,N,Y,39.1277029,-77.2009268
PAST SALE,August-30-2019,Single Family Residential,16700 Shea Ln,Gaithersburg,MD,20877,395000,4,2.5,WALNUT HILL,2548,9550,1968,828,155,,Sold,,,https://www.redfin.com/MD/Gaithersburg/16700-Shea-Ln-20877/home/10739621,BRIGHT MLS,MDMC664500,N,Y,39.1299518,-77.1806657
PAST SALE,July-6-2020,Single Family Residential,413 Woodland Rd,Gaithersburg,MD,20877,412000,4,2.0,DEER PARK,1452,10594,1964,517,284,,Sold,,,https://www.redfin.com/MD/Gaithersburg/413-Woodland-Rd-20877/home/10749510,BRIGHT MLS,MDMC703700,N,Y,39.1358375,-77.1868205
PAST SALE,November-12-2019,Condo/Co-op,446 Girard St #316,Gaithersburg,MD,20877,145000,3,2.0,VILLA RIDGE SEC 3 CODM,1349,,1976,754,107,739,Sold,,,https://www.redfin.com/MD/Gaithersburg/446-Girard-St-20877/unit-316/home/10782198,BRIGHT MLS,MDMC680144,N,Y,39.1472587,-77.1877822
PAST SALE,April-8-2021,Single Family Residential,224 Rolling Rd,Gaithersburg,MD,20877,578000,5,3.0,DEER PARK,2941,28965,1964,241,197,,Sold,,,https://www.redfin.com/MD/Gaithersburg/224-Rolling-Rd-20877/home/10749089,BRIGHT MLS,MDMC746506,N,Y,39.1392322,-77.1842598
PAST SALE,May-20-2021,Townhouse,509 Cedar Spring St,Gaithersburg,MD,20877,500000,5,3.5,HIDDEN CREEK,2700,1057,2007,199,185,123,Sold,,,https://www.redfin.com/MD/Gaithersburg/509-Cedar-Spring-St-20877/home/35615218,BRIGHT MLS,MDMC753470,N,Y,39.1516036,-77.1900618
PAST SALE,October-15-2019,Townhouse,622 Pelican Ave,Gaithersburg,MD,20877,377507,3,2.5,HIDDEN CREEK CODM,2914,,2007,782,130,261,Sold,,,https://www.redfin.com/MD/Gaithersburg/622-Pelican-Ave-20877/home/40051009,BRIGHT MLS,MDMC100585,N,Y,39.1541614,-77.1898592
PAST SALE,August-21-2020,Townhouse,112 Deer Park Way,Gaithersburg,MD,20877,317500,3,3.5,BRIGHTON EAST TH,2268,1546,1979,471,140,103,Sold,,,https://www.redfin.com/MD/Gaithersburg/112-Deer-Park-Way-20877/home/10785422,BRIGHT MLS,MDMC715164,N,Y,39.127242,-77.199048
PAST SALE,June-30-2020,Townhouse,334 Park Ave #15,Gaithersburg,MD,20877,352000,3,2.5,SUMMIT CROSSING CODM,2258,2258,2013,523,156,260,Sold,,,https://www.redfin.com/MD/Gaithersburg/334-Park-Ave-20877/unit-15/home/167081352,BRIGHT MLS,MDMC699778,N,Y,39.1457884,-77.1942089
PAST SALE,June-24-2021,Single Family Residential,194 Hidden Forest Ct,Gaithersburg,MD,20877,661000,5,3.5,HIDDEN CREEK,4024,4422,2003,164,164,95,Sold,,,https://www.redfin.com/MD/Gaithersburg/194-Hidden-Forest-Ct-20877/home/11193197,BRIGHT MLS,MDMC758806,N,Y,39.157886,-77.1835185
PAST SALE,December-18-2018,Townhouse,7603 Laytonia Dr,Gaithersburg,MD,20877,233000,3,1.5,LAYTONIA TOWNHOUSES,1350,2000,1970,1083,173,49,Sold,,,https://www.redfin.com/MD/Gaithersburg/7603-Laytonia-Dr-20877/home/10739045,BRIGHT MLS,1009980650,N,Y,39.153319,-77.155235
PAST SALE,,Condo/Co-op,430 Girard St #202,Gaithersburg,MD,20877,156000,,1.0,,1127,,1975,,138,,,,,https://www.redfin.com/MD/Gaithersburg/430-Girard-St-20877/unit-202/home/10778630,,,N,Y,39.1483555,-77.1883107
PAST SALE,August-31-2020,Condo/Co-op,408 Girard St Unit T4,Gaithersburg,MD,20877,135000,2,2.0,VILLA RIDGE,1103,,1975,461,122,649,Sold,,,https://www.redfin.com/MD/Gaithersburg/408-Girard-St-20877/unit-T4/home/172078431,BRIGHT MLS,MDMC712016,N,Y,39.1471717,-77.1863231
PAST SALE,September-24-2021,Townhouse,14 Brian Ct #244,Gaithersburg,MD,20877,292000,3,2.5,NEWPORT EST SEC 3 CODM,1343,,1974,72,217,252,Sold,,,https://www.redfin.com/MD/Gaithersburg/14-Brian-Ct-20877/unit-244/home/10771634,BRIGHT MLS,MDMC758132,N,Y,39.1454625,-77.1820564
PAST SALE,September-15-2020,Single Family Residential,18709 Capella Ln,Gaithersburg,MD,20877,515000,4,3.5,MEADOWVALE,2160,8931,1988,446,238,37,Sold,,,https://www.redfin.com/MD/Gaithersburg/18709-Capella-Ln-20877/home/10842453,BRIGHT MLS,MDMC718202,N,Y,39.1585227,-77.1800816
PAST SALE,October-4-2019,Townhouse,535 Summit Hall Rd,Gaithersburg,MD,20877,196624,3,2.5,CEDAR VILLAGE,1411,,1971,793,139,,Sold,,,https://www.redfin.com/MD/Gaithersburg/535-Summit-Hall-Rd-20877/unit-535/home/10782470,BRIGHT MLS,MDMC673618,N,Y,39.1269941,-77.1980115
PAST SALE,February-19-2019,Townhouse,490 W Deer Park Rd Unit 17-A,Gaithersburg,MD,20877,260000,4,2.5,BRIGHTON EAST CODM #1,1500,,1971,1020,173,375,Sold,,,https://www.redfin.com/MD/Gaithersburg/490-W-Deer-Park-Rd-20877/unit-17-A/home/10746252,BRIGHT MLS,MDMC100330,N,Y,39.1284141,-77.2004607
PAST SALE,,Single Family Residential,35 Maryland Ave,Gaithersburg,MD,20877,320000,,2.0,,1430,6791,1939,,224,,,,,https://www.redfin.com/MD/Gaithersburg/35-Maryland-Ave-20877/home/10749573,,,N,Y,39.1468005,-77.1989831
PAST SALE,October-18-2021,Single Family Residential,220 Hutton St,Gaithersburg,MD,20877,485000,3,2.0,DEER PARK,1912,10964,1958,48,254,,Sold,,,https://www.redfin.com/MD/Gaithersburg/220-Hutton-St-20877/home/10749563,BRIGHT MLS,MDMC2016578,N,Y,39.1380023,-77.1843496
PAST SALE,October-30-2020,Condo/Co-op,136 Duvall Ln Unit 237-103,Gaithersburg,MD,20877,102000,2,2.0,FIRESIDE,1053,,1974,401,97,776,Sold,,,https://www.redfin.com/MD/Gaithersburg/136-Duvall-Ln-20877/unit-237-103/home/56247365,BRIGHT MLS,MDMC720564,N,Y,39.1273512,-77.2000002
PAST SALE,November-18-2021,Townhouse,629 Pelican Ave,Gaithersburg,MD,20877,395000,3,2.5,HIDDEN CREEK CODM,1912,,2006,17,207,263,Sold,,,https://www.redfin.com/MD/Gaithersburg/629-Pelican-Ave-20877/unit-629/home/11759245,BRIGHT MLS,MDMC2013820,N,Y,39.1538118,-77.1899339
PAST SALE,July-7-2021,Single Family Residential,17905 Hazelcrest Dr,Gaithersburg,MD,20877,590000,4,2.5,EMORY GROVE PARK,2180,7552,1988,151,271,29,Sold,,,https://www.redfin.com/MD/Gaithersburg/17905-Hazelcrest-Dr-20877/home/10820201,BRIGHT MLS,MDMC760310,N,Y,39.1509817,-77.1700962
PAST SALE,August-19-2020,Condo/Co-op,436 Girard St Unit T4,Gaithersburg,MD,20877,109000,1,1.0,VILLA RIDGE SEC 2 CODM,883,,1975,473,123,544,Sold,,,https://www.redfin.com/MD/Gaithersburg/436-Girard-St-20877/unit-T-4/home/167104652,BRIGHT MLS,MDMC713402,N,Y,39.1480609,-77.1860881
PAST SALE,October-30-2020,Condo/Co-op,8 Russell Ave #212,Gaithersburg,MD,20877,178000,2,2.0,NO. 8 RUSSELL AVE CODM,1116,,1988,401,159,482,Sold,,,https://www.redfin.com/MD/Gaithersburg/8-Russell-Ave-20877/unit-212/home/10860224,BRIGHT MLS,MDMC725810,N,Y,39.1429447,-77.1969505
PAST SALE,July-30-2020,Single Family Residential,10 Swan Stream Ct,Gaithersburg,MD,20877,417000,5,3.0,EMORY GROVE PARK,1474,8966,1985,493,283,41,Sold,,,https://www.redfin.com/MD/Gaithersburg/10-Swan-Stream-Ct-20877/home/10799536,BRIGHT MLS,MDMC712970,N,Y,39.1558526,-77.1582901
PAST SALE,August-5-2020,Single Family Residential,101 Lower Country Dr,Gaithersburg,MD,20877,528000,4,3.5,SAYBROOKE,3228,6777,1989,487,164,73,Sold,,,https://www.redfin.com/MD/Gaithersburg/101-Lower-Country-Dr-20877/home/10851586,BRIGHT MLS,MDMC705062,N,Y,39.1527299,-77.182283
PAST SALE,August-28-2020,Single Family Residential,5 Calabar Ct,Gaithersburg,MD,20877,535000,4,4.0,MINERAL SPRING VILLAGE,2648,7438,1992,464,202,47,Sold,,,https://www.redfin.com/MD/Gaithersburg/5-Calabar-Ct-20877/home/10855851,BRIGHT MLS,MDMC708952,N,Y,39.1465519,-77.1623791
PAST SALE,September-21-2020,Single Family Residential,18048 Cactus Ct,Gaithersburg,MD,20877,439000,4,2.5,LAYTONIA,1846,14675,1970,440,238,40,Sold,,,https://www.redfin.com/MD/Gaithersburg/18048-Cactus-Ct-20877/home/10739544,BRIGHT MLS,MDMC718932,N,Y,39.151615,-77.156569
PAST SALE,July-28-2021,Townhouse,18 Federal Ct #55,Gaithersburg,MD,20877,274000,3,2.0,NEWPORT EST SEC 2 CODM,1350,,1974,130,203,110,Sold,,,https://www.redfin.com/MD/Gaithersburg/18-Federal-Ct-20877/unit-55/home/10770590,BRIGHT MLS,MDMC758700,N,Y,39.1425671,-77.179867
PAST SALE,December-9-2020,Single Family Residential,509 Paradise Ct,Gaithersburg,MD,20877,584250,4,3.5,OAKMONT MANOR,2634,13721,1986,361,222,,Sold,,,https://www.redfin.com/MD/Gaithersburg/509-Paradise-Ct-20877/home/10799583,BRIGHT MLS,MDMC730608,N,Y,39.1338423,-77.1839902
PAST SALE,August-19-2020,Townhouse,16 Autumn Hill Way,Gaithersburg,MD,20877,320000,3,3.5,FOXWOOD,1596,1971,1980,473,201,78,Sold,,,https://www.redfin.com/MD/Gaithersburg/16-Autumn-Hill-Way-20877/home/10790561,BRIGHT MLS,MDMC715436,N,Y,39.1322262,-77.2054177
PAST SALE,,Single Family Residential,7629 Creekstone Ct,Gaithersburg,MD,20877,462000,,2.5,,2182,5500,1985,,212,,,,,https://www.redfin.com/MD/Gaithersburg/7629-Creekstone-Ct-20877/home/10799492,,,N,Y,39.1541731,-77.1579306
PAST SALE,June-23-2021,Single Family Residential,403 Sanders Ln,Gaithersburg,MD,20877,500000,3,2.5,WHETSTONE RUN,1866,11454,1987,165,268,,Sold,,,https://www.redfin.com/MD/Gaithersburg/403-Sanders-Ln-20877/home/10795729,BRIGHT MLS,MDMC757462,N,Y,39.1480559,-77.1816091
PAST SALE,September-30-2020,Condo/Co-op,418 Girard St #104,Gaithersburg,MD,20877,149900,2,2.0,VILLA RIDGE,1127,,1975,431,133,649,Sold,,,https://www.redfin.com/MD/Gaithersburg/418-Girard-St-20877/unit-104/home/10773076,BRIGHT MLS,MDMC726312,N,Y,39.147341,-77.186794
PAST SALE,December-10-2019,Condo/Co-op,402 Girard St #304,Gaithersburg,MD,20877,134000,3,2.0,VILLA RIDGE,1349,,1975,726,99,739,Sold,,,https://www.redfin.com/MD/Gaithersburg/402-Girard-St-20877/unit-304/home/108563677,BRIGHT MLS,MDMC674308,N,Y,39.1466536,-77.1860334
PAST SALE,July-9-2020,Single Family Residential,15 Brighton Ter,Gaithersburg,MD,20877,477800,5,3.0,BRIGHTON EAST,3254,13839,1973,514,147,,Sold,,,https://www.redfin.com/MD/Gaithersburg/15-Brighton-Ter-20877/home/10745563,BRIGHT MLS,MDMC708094,N,Y,39.1317219,-77.1990842
PAST SALE,March-25-2021,Single Family Residential,16509 Walnut Hill Rd,Gaithersburg,MD,20877,483500,5,2.0,WALNUT HILL,2200,12114,1959,255,220,,Sold,,,https://www.redfin.com/MD/Gaithersburg/16509-Walnut-Hill-Rd-20877/home/10739814,BRIGHT MLS,MDMC744560,N,Y,39.1281267,-77.1818787
PAST SALE,,Single Family Residential,211 E Deer Park Dr,Gaithersburg,MD,20877,493000,,3.0,,2258,10470,1987,,218,,,,,https://www.redfin.com/MD/Gaithersburg/211-E-Deer-Park-Dr-20877/home/10842168,,,N,Y,39.1366121,-77.1819236
PAST SALE,August-28-2020,Single Family Residential,9500 Emory Grove Rd,Gaithersburg,MD,20877,650000,4,3.5,SHARON WOODS,3946,36648,1968,464,165,,Sold,,,https://www.redfin.com/MD/Gaithersburg/9500-Emory-Grove-Rd-20877/home/10744216,BRIGHT MLS,MDMC716526,N,Y,39.1645684,-77.197618
PAST SALE,,Townhouse,81 Maple Hill Ct,Gaithersburg,MD,20877,368962,4,3.0,,1748,1780,2014,,211,,,,,https://www.redfin.com/MD/Gaithersburg/81-Maple-Hill-Ct-20877/home/49782265,,,N,Y,39.1590843,-77.1852073
PAST SALE,September-30-2021,Single Family Residential,105 Pembrooke View Ln,Gaithersburg,MD,20877,586000,5,2.5,SAYBROOKE,2420,7460,1987,66,242,,Sold,,,https://www.redfin.com/MD/Gaithersburg/105-Pembrooke-View-Ln-20877/home/10844537,BRIGHT MLS,MDMC2009982,N,Y,39.1489544,-77.1738816
PAST SALE,,Single Family Residential,307 Saybrooke View Dr,Gaithersburg,MD,20877,595000,,2.5,,3292,9030,1988,,181,,,,,https://www.redfin.com/MD/Gaithersburg/307-Saybrooke-View-Dr-20877/home/10846817,,,N,Y,39.1475701,-77.1758135
PAST SALE,July-20-2021,Townhouse,361 Belt Pl #35,Gaithersburg,MD,20877,365000,3,2.5,SUMMIT CROSSING CODM,2945,,2008,138,124,280,Sold,,,https://www.redfin.com/MD/Gaithersburg/361-Belt-Pl-20877/unit-35/home/23468489,BRIGHT MLS,MDMC762480,N,Y,39.145731,-77.193354
PAST SALE,,Condo/Co-op,444 Girard St #294,Gaithersburg,MD,20877,151000,,1.0,,1247,,1976,,121,,,,,https://www.redfin.com/MD/Gaithersburg/444-Girard-St-20877/unit-294/home/10779461,,,N,Y,39.1472377,-77.1854214
PAST SALE,July-29-2020,Condo/Co-op,106 Duvall Ln Unit 52-304,Gaithersburg,MD,20877,90000,1,1.0,FIRESIDE,788,,1974,494,114,558,Sold,,,https://www.redfin.com/MD/Gaithersburg/106-Duvall-Ln-20877/unit-52-304/home/28945971,BRIGHT MLS,MDMC711464,N,Y,39.1290724,-77.2028919
PAST SALE,June-26-2020,Condo/Co-op,8 State Ct,Gaithersburg,MD,20877,213000,4,3.0,NEWPORT EST SEC 2 CODM,1019,,1974,527,209,200,Sold,,,https://www.redfin.com/MD/Gaithersburg/8-State-Ct-20877/unit-77/home/10770677,BRIGHT MLS,MDMC694844,N,Y,39.1429645,-77.1804569
PAST SALE,April-10-2020,Single Family Residential,9 Deer Park Ln,Gaithersburg,MD,20877,500000,4,2.5,BRIGHTON EAST,2040,11153,1974,604,245,,Sold,,,https://www.redfin.com/MD/Gaithersburg/9-Deer-Park-Ln-20877/home/10745713,BRIGHT MLS,MDMC698138,N,Y,39.1277865,-77.1982307
PAST SALE,June-30-2020,Townhouse,17628 Larchmont Ter,Gaithersburg,MD,20877,276000,3,3.0,TOWNE CREST,1152,1530,1976,523,240,73,Sold,,,https://www.redfin.com/MD/Gaithersburg/17628-Larchmont-Ter-20877/home/10768394,BRIGHT MLS,MDMC707470,N,Y,39.146932,-77.172642
PAST SALE,February-17-2021,Condo/Co-op,434 Girard St #304,Gaithersburg,MD,20877,145000,2,2.0,VILLA RIDGE SEC 2 CODM,1127,,1975,291,129,649,Sold,,,https://www.redfin.com/MD/Gaithersburg/434-Girard-St-20877/unit-304/home/147784639,BRIGHT MLS,MDMC727604,N,Y,39.1480125,-77.1879204
PAST SALE,October-18-2019,Single Family Residential,18062 Cactus Ct,Gaithersburg,MD,20877,324500,3,1.5,LAYTONIA,1590,6800,1970,779,204,42,Sold,,,https://www.redfin.com/MD/Gaithersburg/18062-Cactus-Ct-20877/home/10739263,BRIGHT MLS,MDMC678560,N,Y,39.152593,-77.156313
PAST SALE,December-20-2018,Single Family Residential,8912 Westland Dr,Gaithersburg,MD,20877,450000,4,2.5,WALNUT HILL,1824,12626,1968,1081,247,,Sold,,,https://www.redfin.com/MD/Gaithersburg/8912-N-Westland-Dr-20877/home/10739762,BRIGHT MLS,1010013104,N,Y,39.1294518,-77.182283
PAST SALE,December-4-2020,Townhouse,17918 Cottonwood Ter,Gaithersburg,MD,20877,335500,3,3.0,MINERAL SPRINGS VILL TH,1620,1875,1993,366,207,74,Sold,,,https://www.redfin.com/MD/Gaithersburg/17918-Cottonwood-Ter-20877/home/10856414,BRIGHT MLS,MDMC728764,N,Y,39.149109,-77.164252
PAST SALE,,Condo/Co-op,440 Girard St #263,Gaithersburg,MD,20877,149900,,1.0,,1127,,1976,,133,,,,,https://www.redfin.com/MD/Gaithersburg/440-Girard-St-20877/unit-263/home/10779351,,,N,Y,39.1477943,-77.1881732
PAST SALE,June-28-2019,Single Family Residential,18318 Quondal Ct,Gaithersburg,MD,20877,379900,4,2.0,EMORY GROVE PARK,1696,6279,1978,891,224,5,Sold,,,https://www.redfin.com/MD/Gaithersburg/18318-Quondal-Ct-20877/home/10779540,BRIGHT MLS,MDMC659186,N,Y,39.155819,-77.1619298
PAST SALE,April-30-2021,Single Family Residential,4 Cedar Ave,Gaithersburg,MD,20877,518000,4,2.0,OBSERVATORY HEIGHTS,2671,12593,1954,219,194,,Sold,,,https://www.redfin.com/MD/Gaithersburg/4-Cedar-Ave-20877/home/10751103,BRIGHT MLS,MDMC749358,N,Y,39.1393324,-77.1973772
PAST SALE,November-18-2019,Single Family Residential,4 Brighton Dr,Gaithersburg,MD,20877,485000,7,5.5,BRIGHTON EAST,3200,13253,1972,748,152,,Sold,,,https://www.redfin.com/MD/Gaithersburg/4-Brighton-Dr-20877/home/10745525,BRIGHT MLS,MDMC676080,N,Y,39.1307466,-77.2011055
PAST SALE,May-8-2019,Single Family Residential,12 Grantchester Pl,Gaithersburg,MD,20877,508000,5,3.5,SAYBROOKE,3320,7856,1989,942,153,70,Sold,,,https://www.redfin.com/MD/Gaithersburg/12-Grantchester-Pl-20877/home/10850160,BRIGHT MLS,MDMC648778,N,Y,39.1493104,-77.1803063
PAST SALE,,Condo/Co-op,392 W Deer Park Rd Unit 13-B,Gaithersburg,MD,20877,255000,,1.0,,1500,,1971,,170,,,,,https://www.redfin.com/MD/Gaithersburg/392-W-Deer-Park-Rd-20877/unit-13-B/home/10746385,,,N,Y,39.1292943,-77.2018938
PAST SALE,April-12-2019,Single Family Residential,108 Cedar Ave,Gaithersburg,MD,20877,350000,4,2.5,OBSERVATORY HEIGHTS,2188,7800,1929,968,160,,Sold,,,https://www.redfin.com/MD/Gaithersburg/108-Cedar-Ave-20877/home/10751220,BRIGHT MLS,MDMC602610,N,Y,39.1377973,-77.1990393
PAST SALE,,Condo/Co-op,324 Park Ave Unit 10-324,Gaithersburg,MD,20877,360000,,,,2593,,2013,,139,,,,,https://www.redfin.com/MD/Gaithersburg/324-Park-Ave-20877/unit-10-324/home/64364579,,,N,Y,39.146005,-77.193315
PAST SALE,October-16-2019,Townhouse,22 Chestnut St,Gaithersburg,MD,20877,221000,2,1.0,MEEMS ADD,819,4791,1955,781,270,,Sold,,,https://www.redfin.com/MD/Gaithersburg/22-Chestnut-St-20877/home/10751060,BRIGHT MLS,MDMC676086,N,Y,39.1420471,-77.2036821
PAST SALE,September-16-2019,Townhouse,913 Hidden Marsh St,Gaithersburg,MD,20877,432000,4,3.0,HIDDEN CREEK,2380,2541,2005,811,182,93,Sold,,,https://www.redfin.com/MD/Gaithersburg/913-Hidden-Marsh-St-20877/home/11205374,BRIGHT MLS,MDMC674354,N,Y,39.1544952,-77.1896724
PAST SALE,August-31-2020,Condo/Co-op,114 Duvall Ln Unit 100-104,Gaithersburg,MD,20877,90000,1,1.0,FIRESIDE,788,,1974,461,114,564,Sold,,,https://www.redfin.com/MD/Gaithersburg/114-Duvall-Ln-20877/unit-100-104/home/172673452,BRIGHT MLS,MDMC720058,N,Y,39.128884,-77.202264
PAST SALE,December-29-2020,Single Family Residential,210 Fairgrove Cir,Gaithersburg,MD,20877,513970,3,2.5,SAYBROOKE,2404,4150,1988,341,214,73,Sold,,,https://www.redfin.com/MD/Gaithersburg/210-Fairgrove-Cir-20877/home/10847535,BRIGHT MLS,MDMC727720,N,Y,39.1495251,-77.178644
PAST SALE,April-30-2020,Townhouse,897 Hidden Marsh St,Gaithersburg,MD,20877,435000,6,3.5,HIDDEN CREEK,2680,3874,2005,584,162,94,Sold,,,https://www.redfin.com/MD/Gaithersburg/897-Hidden-Marsh-St-20877/home/11205381,BRIGHT MLS,MDMC700134,N,Y,39.154868,-77.189905
PAST SALE,May-7-2021,Condo/Co-op,458 Girard St #390,Gaithersburg,MD,20877,155000,2,2.0,VILLA RIDGE SEC 3 CODM,1103,,1976,212,141,649,Sold,,,https://www.redfin.com/MD/Gaithersburg/458-Girard-St-20877/unit-390/home/10782310,BRIGHT MLS,MDMC742658,N,Y,39.1465693,-77.1889094
PAST SALE,April-10-2020,Townhouse,242 N Summit Ave #21,Gaithersburg,MD,20877,305000,3,2.5,SUMMIT CROSSING CODM,1963,,2008,604,155,270,Sold,,,https://www.redfin.com/MD/Gaithersburg/242-N-Summit-Ave-20877/unit-21/home/169476921,BRIGHT MLS,MDMC694954,N,Y,39.145351,-77.191274
PAST SALE,August-20-2021,Single Family Residential,18222 Swan Stream Dr,Gaithersburg,MD,20877,450000,4,2.0,EMORY GROVE PARK,1858,4950,1985,107,242,41,Sold,,,https://www.redfin.com/MD/Gaithersburg/18222-Swan-Stream-Dr-20877/home/10799320,BRIGHT MLS,MDMC761468,N,Y,39.1546232,-77.1587395
PAST SALE,April-9-2021,Single Family Residential,16501 Walnut Hill Rd,Gaithersburg,MD,20877,495000,4,5.0,WALNUT HILL,1608,11814,1960,240,308,,Sold,,,https://www.redfin.com/MD/Gaithersburg/16501-Walnut-Hill-Rd-20877/home/10739580,BRIGHT MLS,MDMC727562,N,Y,39.1277916,-77.1813845
PAST SALE,August-13-2021,Townhouse,46 Anna Ct #272,Gaithersburg,MD,20877,280000,5,3.5,NEWPORT EST SEC 3 CODM,1535,,1974,114,182,265,Sold,,,https://www.redfin.com/MD/Gaithersburg/46-Anna-Ct-20877/unit-272/home/10771723,BRIGHT MLS,MDMC2001316,N,Y,39.1460847,-77.1836181
PAST SALE,March-31-2020,Single Family Residential,7916 Bounding Bend Ct,Rockville,MD,20855,588500,5,3.0,MILL CREEK SOUTH,4188,28540,1985,614,141,,Sold,,,https://www.redfin.com/MD/Rockville/7916-Bounding-Bend-Ct-20855/home/10818552,BRIGHT MLS,MDMC696160,N,Y,39.1385335,-77.1658001
PAST SALE,September-18-2020,Single Family Residential,16713 Shea Ln,Gaithersburg,MD,20877,483000,3,2.5,WALNUT HILL,2225,12107,1969,443,217,,Sold,,,https://www.redfin.com/MD/Gaithersburg/16713-Shea-Ln-20877/home/10739740,BRIGHT MLS,MDMC720560,N,Y,39.1299367,-77.1798121
PAST SALE,August-6-2021,Townhouse,601 Raven Ave,Gaithersburg,MD,20877,550000,3,2.5,HIDDEN CREEK,2610,1130,2009,121,211,125,Sold,,,https://www.redfin.com/MD/Gaithersburg/601-Raven-Ave-20877/home/25664778,BRIGHT MLS,MDMC2002118,N,Y,39.1512044,-77.1901086
PAST SALE,August-31-2021,Townhouse,246 N Summit Ave #19,Gaithersburg,MD,20877,360000,3,2.5,SUMMIT CROSSING CODM,1979,,2008,96,182,280,Sold,,,https://www.redfin.com/MD/Gaithersburg/246-N-Summit-Ave-20877/unit-19/home/23470728,BRIGHT MLS,MDMC2003664,N,Y,39.1469935,-77.1929538
PAST SALE,July-31-2020,Condo/Co-op,440 Girard St #265,Gaithersburg,MD,20877,138000,2,1.0,VILLA RIDGE,1000,,1976,492,138,1150,Sold,,,https://www.redfin.com/MD/Gaithersburg/440-Girard-St-20877/unit-265/home/10779359,BRIGHT MLS,MDMC716974,N,Y,39.1477943,-77.1881732
PAST SALE,,Condo/Co-op,334 Park Ave Unit 15-334,Gaithersburg,MD,20877,352000,,,,2258,,2013,,156,,,,,https://www.redfin.com/MD/Gaithersburg/334-Park-Ave-20877/unit-15-334/home/64364576,,,N,Y,39.146149,-77.193117
PAST SALE,September-10-2020,Condo/Co-op,438 Girard St Unit T-3,Gaithersburg,MD,20877,170000,3,2.0,VILLA RIDGE SEC 3 CODM,1321,,1976,451,129,753,Sold,,,https://www.redfin.com/MD/Gaithersburg/438-Girard-St-20877/unit-T3/home/20442925,BRIGHT MLS,MDMC712976,N,Y,39.1480786,-77.1860674
PAST SALE,December-14-2020,Single Family Residential,18009 Cactus Ct,Gaithersburg,MD,20877,395000,3,2.5,LAYTONIA,1590,9473,1970,356,248,41,Sold,,,https://www.redfin.com/MD/Gaithersburg/18009-Cactus-Ct-20877/home/10739121,BRIGHT MLS,MDMC724362,N,Y,39.1521427,-77.1551446
PAST SALE,October-23-2020,Single Family Residential,7724 Laytonia Dr,Gaithersburg,MD,20877,330000,3,1.5,LAYTONIA,2240,5041,1970,408,147,40,Sold,,,https://www.redfin.com/MD/Gaithersburg/7724-Laytonia-Dr-20877/home/10739490,BRIGHT MLS,MDMC723194,N,Y,39.152416,-77.158242
PAST SALE,July-12-2019,Townhouse,500 W Deer Park Rd Unit 17-F,Gaithersburg,MD,20877,224000,4,3.5,BRIGHTON EAST CODM #1,1500,,1971,877,149,370,Sold,,,https://www.redfin.com/MD/Gaithersburg/500-W-Deer-Park-Rd-20877/unit-17-F/home/10746273,BRIGHT MLS,MDMC244946,N,Y,39.127546,-77.1994571
PAST SALE,,Single Family Residential,16617 Chestnut St,Gaithersburg,MD,20877,430000,,2.5,,2450,9178,1967,,176,,,,,https://www.redfin.com/MD/Gaithersburg/16617-Chestnut-St-20877/home/10739662,,,N,Y,39.1304165,-77.1776556
PAST SALE,April-20-2020,Single Family Residential,18025 Snow Creek Dr,Gaithersburg,MD,20877,376000,6,2.0,LAYTONIA,1620,6250,1985,594,232,,Sold,,,https://www.redfin.com/MD/Gaithersburg/18025-Snow-Creek-Dr-20877/home/10739241,BRIGHT MLS,MDMC699894,N,Y,39.1526191,-77.1535686
PAST SALE,August-26-2020,Single Family Residential,16709 Chestnut St,Gaithersburg,MD,20877,525000,5,2.5,WALNUT HILL,2950,9189,1967,466,178,,Sold,,,https://www.redfin.com/MD/Gaithersburg/16709-Chestnut-St-20877/home/10739589,BRIGHT MLS,MDMC726856,N,Y,39.1308766,-77.1781947
PAST SALE,December-6-2019,Townhouse,40 Brian Ct #233,Gaithersburg,MD,20877,265000,3,3.5,NEWPORT EST SEC 3 CODM,1343,,1974,730,197,249,Sold,,,https://www.redfin.com/MD/Gaithersburg/40-Brian-Ct-20877/unit-233/home/10771592,BRIGHT MLS,MDMC684576,N,Y,39.1451303,-77.1821602
PAST SALE,July-9-2021,Townhouse,63 Bralan Ct,Gaithersburg,MD,20877,383000,3,2.5,BRIGHTON EAST TH,1428,1550,1980,149,268,103,Sold,,,https://www.redfin.com/MD/Gaithersburg/63-Bralan-Ct-20877/home/10785542,BRIGHT MLS,MDMC759580,N,Y,39.125293,-77.198447
PAST SALE,,Condo/Co-op,432 Girard St #214,Gaithersburg,MD,20877,140000,,1.0,,1127,,1975,,124,,,,,https://www.redfin.com/MD/Gaithersburg/432-Girard-St-20877/unit-214/home/10778676,,,N,Y,39.1481272,-77.1880163
PAST SALE,,Condo/Co-op,440 Girard St #274,Gaithersburg,MD,20877,138000,,1.0,,1037,,1976,,133,,,,,https://www.redfin.com/MD/Gaithersburg/440-Girard-St-20877/unit-274/home/10779395,,,N,Y,39.1477943,-77.1881732
PAST SALE,July-23-2021,Townhouse,310 Skidmore Blvd,Gaithersburg,MD,20877,450000,3,3.5,GATEWAY COMMONS,1715,1660,1992,135,262,65,Sold,,,https://www.redfin.com/MD/Gaithersburg/310-Skidmore-Blvd-20877/home/10864303,BRIGHT MLS,MDMC2000766,N,Y,39.126803,-77.180068
PAST SALE,September-10-2019,Single Family Residential,9541 Emory Grove Rd,Gaithersburg,MD,20877,441000,5,3.5,SHARON WOODS,3122,38856,1976,817,141,,Sold,,,https://www.redfin.com/MD/Gaithersburg/9541-Emory-Grove-Rd-20877/home/10744257,BRIGHT MLS,MDMC670772,N,Y,39.167831,-77.19664
PAST SALE,July-30-2021,Single Family Residential,190 Hidden Forest Ct,Gaithersburg,MD,20877,678000,5,3.5,HIDDEN CREEK,3744,4318,2004,128,181,95,Sold,,,https://www.redfin.com/MD/Gaithersburg/190-Hidden-Forest-Ct-20877/home/11193192,BRIGHT MLS,MDMC762222,N,Y,39.157906,-77.1836982
PAST SALE,May-10-2019,Single Family Residential,9420 Emory Grove Rd,Gaithersburg,MD,20877,485000,5,3.0,SHARON WOODS,2592,30735,1964,940,187,,Sold,,,https://www.redfin.com/MD/Gaithersburg/9420-Emory-Grove-Rd-20877/home/10744313,BRIGHT MLS,MDMC646184,N,Y,39.162276,-77.1960919
PAST SALE,June-28-2019,Single Family Residential,9308 Emory Grove Rd,Gaithersburg,MD,20877,449900,4,2.5,SHARON WOODS,2508,23997,1963,891,179,,Sold,,,https://www.redfin.com/MD/Gaithersburg/9308-Emory-Grove-Rd-20877/home/10744195,BRIGHT MLS,MDMC650226,N,Y,39.160939,-77.193905
PAST SALE,November-16-2021,Townhouse,622 Hurdle Mill Pl,Gaithersburg,MD,20877,511000,3,2.5,HIDDEN CREEK,2700,1177,2007,19,189,126,Sold,,,https://www.redfin.com/MD/Gaithersburg/622-Hurdle-Mill-Pl-20877/home/35615271,BRIGHT MLS,MDMC2017844,N,Y,39.1518328,-77.1893702
PAST SALE,April-23-2020,Single Family Residential,206 Russell Ave,Gaithersburg,MD,20877,371000,4,2.0,GAITHERSBURG TOWN,1889,9993,1937,591,196,,Sold,,,https://www.redfin.com/MD/Gaithersburg/206-Russell-Ave-20877/home/10745252,BRIGHT MLS,MDMC698402,N,Y,39.1466268,-77.1985901
PAST SALE,,Condo/Co-op,40 N Summit Ave,Gaithersburg,MD,20877,689000,,,,4200,,1952,,164,,,,,https://www.redfin.com/MD/Gaithersburg/40-N-Summit-Ave-20877/home/10745376,,,N,Y,39.1440222,-77.1931546
PAST SALE,,Single Family Residential,18031 Snow Creek Dr,Gaithersburg,MD,20877,350000,,3.0,,1844,7756,2007,,190,,,,,https://www.redfin.com/MD/Gaithersburg/18031-Snow-Creek-Dr-20877/home/10739232,,,N,Y,39.1529965,-77.1531225
PAST SALE,,Single Family Residential,4 Brighton Ter,Gaithersburg,MD,20877,486000,,2.5,,2415,9350,1973,,201,,,,,https://www.redfin.com/MD/Gaithersburg/4-Brighton-Ter-20877/home/10745535,,,N,Y,39.1313868,-77.2003868
PAST SALE,September-10-2020,Single Family Residential,9 Brighton Ter,Gaithersburg,MD,20877,520000,6,3.5,BRIGHTON EAST,2726,13372,1973,451,191,,Sold,,,https://www.redfin.com/MD/Gaithersburg/9-Brighton-Ter-20877/home/10745548,BRIGHT MLS,MDMC718164,N,Y,39.132172,-77.199174
PAST SALE,April-5-2019,Single Family Residential,11 Brighton Ter,Gaithersburg,MD,20877,464000,4,3.5,BRIGHTON EAST,2843,17135,1974,975,163,,Sold,,,https://www.redfin.com/MD/Gaithersburg/11-Brighton-Ter-20877/home/10745556,BRIGHT MLS,MDMC606940,N,Y,39.132262,-77.1985451
PAST SALE,September-27-2019,Single Family Residential,14 Brighton Ter,Gaithersburg,MD,20877,457000,4,2.5,BRIGHTON EAST,2790,14317,1972,800,164,,Sold,,,https://www.redfin.com/MD/Gaithersburg/14-Brighton-Ter-20877/home/10745562,BRIGHT MLS,MDMC673620,N,Y,39.131722,-77.1987248
PAST SALE,October-1-2020,Townhouse,226 W Deer Park Rd Unit 28-B,Gaithersburg,MD,20877,285000,4,2.5,BRIGHTON EAST CODM #3,2171,,1972,430,131,194,Sold,,,https://www.redfin.com/MD/Gaithersburg/226-W-Deer-Park-Rd-20877/unit-28-B/home/10760661,BRIGHT MLS,MDMC717624,N,Y,39.1331096,-77.2029589
PAST SALE,October-18-2019,Single Family Residential,6 Brighton Ln,Gaithersburg,MD,20877,469000,5,3.5,BRIGHTON EAST,2986,9240,1973,779,157,,Sold,,,https://www.redfin.com/MD/Gaithersburg/6-Brighton-Ln-20877/home/10745579,BRIGHT MLS,MDMC671270,N,Y,39.1308318,-77.1989943
PAST SALE,July-9-2021,Single Family Residential,7 Duvall Ln,Gaithersburg,MD,20877,530000,5,3.0,BRIGHTON EAST,2332,11784,1972,149,227,,Sold,,,https://www.redfin.com/MD/Gaithersburg/7-Duvall-Ln-20877/home/10745621,BRIGHT MLS,MDMC757722,N,Y,39.1296867,-77.1991291
PAST SALE,August-2-2021,Single Family Residential,18013 Driftwood Ct,Gaithersburg,MD,20877,421000,4,3.0,LAYTONIA,1740,4800,1970,125,242,41,Sold,,,https://www.redfin.com/MD/Gaithersburg/18013-Driftwood-Ct-20877/home/10739429,BRIGHT MLS,MDMC747536,N,Y,39.1521635,-77.1571218
PAST SALE,April-6-2020,Single Family Residential,7 Deer Park Ln,Gaithersburg,MD,20877,479000,4,2.5,BRIGHTON EAST,2790,10105,1974,608,172,,Sold,,,https://www.redfin.com/MD/Gaithersburg/7-Deer-Park-Ln-20877/home/10745709,BRIGHT MLS,MDMC691972,N,Y,39.1282391,-77.1981633
PAST SALE,August-6-2021,Townhouse,27 Briarstone Ln,Gaithersburg,MD,20877,370000,3,3.5,FOXWOOD,1933,2067,1984,121,191,78,Sold,,,https://www.redfin.com/MD/Gaithersburg/27-Briarstone-Ln-20877/home/10790585,BRIGHT MLS,MDMC755400,N,Y,39.1338614,-77.2053728
PAST SALE,,Single Family Residential,115 Harmony Hall Rd,Gaithersburg,MD,20877,340000,,2.0,,1788,7250,1971,,190,,,,,https://www.redfin.com/MD/Gaithersburg/115-Harmony-Hall-Rd-20877/home/10746619,,,N,Y,39.1345371,-77.200297
PAST SALE,,Single Family Residential,110 Spring St,Gaithersburg,MD,20877,370000,,1.5,,1520,6152,1965,,243,,,,,https://www.redfin.com/MD/Gaithersburg/110-Spring-St-20877/home/10746669,,,N,Y,39.1373956,-77.2026323
PAST SALE,July-30-2019,Single Family Residential,313 Summit Hall Rd,Gaithersburg,MD,20877,564500,5,3.0,BRIGHTON EAST,3084,11243,1971,859,183,,Sold,,,https://www.redfin.com/MD/Gaithersburg/313-Summit-Hall-Rd-20877/home/10745837,BRIGHT MLS,MDMC660152,N,Y,39.1285467,-77.1971526
PAST SALE,May-17-2019,Townhouse,8404 Towne Crest Ct,Gaithersburg,MD,20877,240000,3,2.5,TOWNE CREST,1320,1700,1972,933,182,52,Sold,,,https://www.redfin.com/MD/Gaithersburg/8404-Towne-Crest-Ct-20877/home/10757822,BRIGHT MLS,MDMC625254,N,Y,39.145859,-77.172361
PAST SALE,January-30-2019,Vacant Land,Cedar Ave,Gaithersburg,MD,20877,92500,,,BROWNS ADD,,12157,,1040,,,Sold,,,https://www.redfin.com/MD/GAITHERSBURG/CEDAR-AVE-20877/home/10746679,BRIGHT MLS,1001539428,N,Y,39.133836,-77.203989
PAST SALE,August-13-2020,Townhouse,340 W Deer Park Rd Unit 4-E,Gaithersburg,MD,20877,310000,4,3.5,BIRGHTON EAST CODM #2,1500,,1971,479,207,302,Sold,,,https://www.redfin.com/MD/Gaithersburg/340-W-Deer-Park-Rd-20877/unit-4-E/home/10745990,BRIGHT MLS,MDMC715282,N,Y,39.1304685,-77.2029329
PAST SALE,November-3-2020,Single Family Residential,116 Spring St,Gaithersburg,MD,20877,458000,4,3.0,BROWNS ADD,2042,6600,1964,397,224,,Sold,,,https://www.redfin.com/MD/Gaithersburg/116-Spring-St-20877/home/10746825,BRIGHT MLS,MDMC725256,N,Y,39.1370769,-77.2029921
PAST SALE,March-8-2021,Townhouse,440 W Deer Park Rd Unit 9-D,Gaithersburg,MD,20877,315300,5,3.5,BIRGHTON EAST CODM #2,1386,,1971,272,227,278,Sold,,,https://www.redfin.com/MD/Gaithersburg/440-W-Deer-Park-Rd-20877/unit-9-D/home/10746072,BRIGHT MLS,MDMC742166,N,Y,39.12964,-77.202211
PAST SALE,July-8-2021,Single Family Residential,115 Spring St,Gaithersburg,MD,20877,425000,3,2.0,BROWNS ADD,1416,6000,1965,150,300,,Sold,,,https://www.redfin.com/MD/Gaithersburg/115-Spring-St-20877/home/10746955,BRIGHT MLS,MDMC758384,N,Y,39.1367906,-77.2025874
PAST SALE,,Single Family Residential,111 Water St,Gaithersburg,MD,20877,375000,,1.0,,1704,7210,1961,,220,,,,,https://www.redfin.com/MD/Gaithersburg/111-Water-St-20877/home/10746993,,,N,Y,39.1376656,-77.2029018
PAST SALE,April-27-2021,Single Family Residential,103 Rawlings Rd,Gaithersburg,MD,20877,465000,3,3.0,BROWNS ADD,1684,8586,1966,222,276,,Sold,,,https://www.redfin.com/MD/Gaithersburg/103-Rawlings-Rd-20877/home/10747108,BRIGHT MLS,MDMC747012,N,Y,39.1369808,-77.2010601
PAST SALE,February-21-2020,Single Family Residential,41 Harmony Hall Rd,Gaithersburg,MD,20877,412000,5,2.0,BROWNS ADD,1500,9307,1966,653,275,,Sold,,,https://www.redfin.com/MD/Gaithersburg/41-Harmony-Hall-Rd-20877/home/10747123,BRIGHT MLS,MDMC692458,N,Y,39.1356569,-77.2020938
PAST SALE,March-24-2021,Single Family Residential,121 Rawlings Rd,Gaithersburg,MD,20877,420000,4,2.0,BROWNS ADD,2040,7228,1966,256,206,,Sold,,,https://www.redfin.com/MD/Gaithersburg/121-Rawlings-Rd-20877/home/10746871,BRIGHT MLS,MDMC744590,N,Y,39.1360157,-77.2020933
PAST SALE,May-1-2020,Single Family Residential,215 Cedar Ave,Gaithersburg,MD,20877,330000,2,2.0,BROWNS ADD,1440,6668,1955,583,229,,Sold,,,https://www.redfin.com/MD/Gaithersburg/215-Cedar-Ave-20877/home/10746909,BRIGHT MLS,MDMC701572,N,Y,39.1359221,-77.2005216
PAST SALE,September-18-2019,Single Family Residential,400 Gaither St,Gaithersburg,MD,20877,420000,3,1.0,DEER PARK,1964,10062,1957,809,214,,Sold,,,https://www.redfin.com/MD/Gaithersburg/400-Gaither-St-20877/home/10748746,BRIGHT MLS,MDMC672516,N,Y,39.1371126,-77.1903694
PAST SALE,December-11-2018,Single Family Residential,214 Hutton St,Gaithersburg,MD,20877,340000,3,1.0,DEER PARK,1500,10367,1958,1090,227,,Sold,,,https://www.redfin.com/MD/Gaithersburg/214-Hutton-St-20877/home/10748678,BRIGHT MLS,1001899690,N,Y,39.1385073,-77.1849336
PAST SALE,September-19-2019,Single Family Residential,114 Tulip Dr,Gaithersburg,MD,20877,312000,3,2.0,DEER PARK,1128,12188,1955,808,277,,Sold,,,https://www.redfin.com/MD/Gaithersburg/114-Tulip-Dr-20877/home/10748638,BRIGHT MLS,MDMC619580,N,Y,39.1376525,-77.1891116
PAST SALE,September-4-2020,Single Family Residential,3 Tulip Dr,Gaithersburg,MD,20877,425000,4,2.0,DEER PARK,1365,11233,1957,457,311,,Sold,,,https://www.redfin.com/MD/Gaithersburg/3-Tulip-Dr-20877/home/10748692,BRIGHT MLS,MDMC716840,N,Y,39.1375276,-77.1915824
PAST SALE,,Single Family Residential,112 Tulip Dr,Gaithersburg,MD,20877,380000,,2.0,,1298,12188,1955,,293,,,,,https://www.redfin.com/MD/Gaithersburg/112-Tulip-Dr-20877/home/10748890,,,N,Y,39.13766,-77.1893587
PAST SALE,February-20-2019,Townhouse,7643 Laytonia Dr,Gaithersburg,MD,20877,199900,3,1.5,LAYTONIA TOWNHOUSES,1350,2000,1970,1019,148,49,Sold,,,https://www.redfin.com/MD/Gaithersburg/7643-Laytonia-Dr-20877/home/10739479,BRIGHT MLS,1000115316,N,Y,39.1537239,-77.155838
PAST SALE,August-22-2019,Single Family Residential,7428 Muncaster Mill Rd,Gaithersburg,MD,20877,300000,2,2.0,LAYTONIA,1420,17565,1954,836,211,,Sold,,,https://www.redfin.com/MD/Gaithersburg/7428-Muncaster-Mill-Rd-20877/home/10739477,BRIGHT MLS,MDMC668994,N,Y,39.1528574,-77.152372
PAST SALE,April-6-2020,Single Family Residential,505 Woodland Rd,Gaithersburg,MD,20877,420000,3,2.0,DEER PARK,1696,11397,1964,608,248,,Sold,,,https://www.redfin.com/MD/Gaithersburg/505-Woodland-Rd-20877/home/10748952,BRIGHT MLS,MDMC683910,N,Y,39.1346774,-77.1864611
PAST SALE,July-29-2019,Single Family Residential,110 Tulip Dr,Gaithersburg,MD,20877,400000,3,2.0,DEER PARK,1328,12188,1955,860,301,,Sold,,,https://www.redfin.com/MD/Gaithersburg/110-Tulip-Dr-20877/home/10749043,BRIGHT MLS,MDMC660012,N,Y,39.1376625,-77.1895608
PAST SALE,February-27-2019,Single Family Residential,408 Woodland Rd,Gaithersburg,MD,20877,443000,4,3.0,DEER PARK,2225,9656,1964,1012,199,,Sold,,,https://www.redfin.com/MD/Gaithersburg/408-Woodland-Rd-20877/home/10749087,BRIGHT MLS,MDMC100690,N,Y,39.1359774,-77.1862814
PAST SALE,February-22-2019,Single Family Residential,103 Rolling Rd,Gaithersburg,MD,20877,370000,3,2.0,DEER PARK,1738,10335,1956,1017,213,,Sold,,,https://www.redfin.com/MD/Gaithersburg/103-Rolling-Rd-20877/home/10749101,BRIGHT MLS,MDMC488286,N,Y,39.1395375,-77.1902347
PAST SALE,April-23-2021,Single Family Residential,446 Gaither St,Gaithersburg,MD,20877,433000,3,2.0,DEER PARK,2016,10890,1958,226,215,,Sold,,,https://www.redfin.com/MD/Gaithersburg/446-Gaither-St-20877/home/10749241,BRIGHT MLS,MDMC749256,N,Y,39.1337624,-77.1875842
PAST SALE,December-18-2020,Single Family Residential,120 Woodland Rd,Gaithersburg,MD,20877,397500,4,1.0,DEER PARK,1782,18422,1960,352,223,,Sold,,,https://www.redfin.com/MD/Gaithersburg/120-Woodland-Rd-20877/home/10749363,BRIGHT MLS,MDMC732648,N,Y,39.1405168,-77.1878981
PAST SALE,,Condo/Co-op,112 Duvall Ln Unit T1,Gaithersburg,MD,20877,105000,,1.0,,763,,1974,,138,,,,,https://www.redfin.com/MD/Gaithersburg/112-Duvall-Ln-20877/unit-T1/home/10774553,,,N,Y,39.128379,-77.2020225
PAST SALE,December-31-2020,Vacant Land,305 Central Ave,Gaithersburg,MD,20877,230000,,,GAITHERSBURG OUTSIDE,,20000,,339,,,Sold,,,https://www.redfin.com/MD/Gaithersburg/305-Central-Ave-20877/home/167700609,BRIGHT MLS,MDMC735700,N,Y,39.1363256,-77.1802387
PAST SALE,September-30-2020,Single Family Residential,100 Oakton Rd,Gaithersburg,MD,20877,477650,6,4.0,DEER PARK,2334,15000,1969,431,205,,Sold,,,https://www.redfin.com/MD/Gaithersburg/100-Oakton-Rd-20877/home/10749448,BRIGHT MLS,MDMC714082,N,Y,39.1353924,-77.1856974
PAST SALE,May-21-2021,Single Family Residential,132 Tulip Dr,Gaithersburg,MD,20877,500000,4,3.0,DEER PARK,1203,10009,1955,198,416,,Sold,,,https://www.redfin.com/MD/Gaithersburg/132-Tulip-Dr-20877/home/10749567,BRIGHT MLS,MDMC750826,N,Y,39.1375425,-77.1870451
PAST SALE,October-28-2019,Single Family Residential,16 Peony Dr,Gaithersburg,MD,20877,355000,3,2.5,DEER PARK,2046,9431,1952,769,174,,Sold,,,https://www.redfin.com/MD/Gaithersburg/16-Peony-Dr-20877/home/10749633,BRIGHT MLS,MDMC678552,N,Y,39.1375905,-77.1926413
PAST SALE,September-10-2020,Single Family Residential,240 Rolling Rd,Gaithersburg,MD,20877,455000,4,2.0,DEER PARK,1620,23185,1965,451,281,,Sold,,,https://www.redfin.com/MD/Gaithersburg/240-Rolling-Rd-20877/home/10749653,BRIGHT MLS,MDMC717906,N,Y,39.1380372,-77.1828671
PAST SALE,,Single Family Residential,7536 Laytonia Dr,Gaithersburg,MD,20877,349000,,1.5,,1590,6201,1969,,219,,,,,https://www.redfin.com/MD/Gaithersburg/7536-Laytonia-Dr-20877/home/10739042,,,N,Y,39.152566,-77.1545492
PAST SALE,July-29-2019,Single Family Residential,21 Maryland Ave,Gaithersburg,MD,20877,420000,3,2.5,REALTY PARK,1971,12000,1929,860,213,,Sold,,,https://www.redfin.com/MD/Gaithersburg/21-Maryland-Ave-20877/home/10751300,BRIGHT MLS,MDMC667424,N,Y,39.1462117,-77.2002521
