SALE TYPE,SOLD DATE,PROPERTY TYPE,ADDRESS,CITY,STATE OR PROVINCE,ZIP OR POSTAL CODE,PRICE,BEDS,BATHS,LOCATION,SQUARE FEET,LOT SIZE,YEAR BUILT,DAYS ON MARKET,$/SQUARE FEET,HOA/MONTH,STATUS,NEXT OPEN HOUSE START TIME,NEXT OPEN HOUSE END TIME,URL (SEE https://www.redfin.com/buy-a-home/comparative-market-analysis FOR INFO ON PRICING),SOURCE,MLS#,FAVORITE,INTERESTED,LATITUDE,LONGITUDE
PAST SALE,November-9-2020,Single Family Residential,17446 Madison Ave,Hamilton,VA,20158,800000,5,3.5,HAMILTON ACRES,4230,132858,1985,390,189,8,Sold,,,https://www.redfin.com/VA/Hamilton/17446-Madison-Ave-20158/home/12019209,BRIGHT MLS,VALO423116,N,Y,39.1352686,-77.674237
PAST SALE,February-6-2019,Single Family Residential,17642 Hamilton Heights Ct,Hamilton,VA,20158,582000,4,3.5,RADFORD SUBDIVISION,3694,11326,2014,1032,158,50,Sold,,,https://www.redfin.com/VA/Hamilton/17642-Hamilton-Heights-Ct-20158/home/28670174,BRIGHT MLS,1009912576,N,Y,39.1290793,-77.6719779
MLS Listing,,Vacant Land,39501 Meadowlark Dr,Hamilton,VA,20158,775000,,,Hamilton,,276170,,400,,,Active,,,https://www.redfin.com/VA/Hamilton/39501-Meadowlark-Dr-20158/home/12047770,BRIGHT MLS,VALO424846,N,Y,39.1396693,-77.6384822
PAST SALE,June-17-2020,Single Family Residential,17663 Hamilton Heights Ct,Hamilton,VA,20158,560000,4,2.5,RADFORD SUBDIVISION,2486,12197,2013,535,225,54,Sold,,,https://www.redfin.com/VA/Hamilton/17663-Hamilton-Heights-Ct-20158/home/17527967,BRIGHT MLS,VALO410642,N,Y,39.1276165,-77.6721568
PAST SALE,July-14-2021,Single Family Residential,17658 Hamilton Heights Ct,Hamilton,VA,20158,752000,4,2.5,RADFORD SUBDIVISION,4415,11326,2013,143,170,50,Sold,,,https://www.redfin.com/VA/Hamilton/17658-Hamilton-Heights-Ct-20158/home/17527968,BRIGHT MLS,VALO441346,N,Y,39.128014,-77.6717542
PAST SALE,,Single Family Residential,113 S Hughes St,Hamilton,VA,20158,400000,3,1.5,,1761,14810,1962,,227,,,,,https://www.redfin.com/VA/Hamilton/113-S-Hughes-St-20158/home/12019434,,,N,Y,39.1301643,-77.6712621
PAST SALE,January-14-2021,Single Family Residential,17580 Wadell Ct,Hamilton,VA,20158,599900,4,3.5,FRANCIS DIVISION,3232,15246,1994,324,186,5,Sold,,,https://www.redfin.com/VA/Hamilton/17580-Wadell-Ct-20158/home/12019452,BRIGHT MLS,VALO423918,N,Y,39.1299839,-77.6697634
PAST SALE,June-3-2021,Single Family Residential,17618 Coachman Dr,Hamilton,VA,20158,687051,5,3.5,FRANCIS DIVISION,3988,18731,1990,184,172,4,Sold,,,https://www.redfin.com/VA/Hamilton/17618-Coachman-Dr-20158/home/12019453,BRIGHT MLS,VALO435428,N,Y,39.1288848,-77.6697858
PAST SALE,August-9-2019,Single Family Residential,38419 Wooded Hollow Dr,Hamilton,VA,20158,865000,4,3.5,FAWN MEADOW,6248,158994,2006,848,138,,Sold,,,https://www.redfin.com/VA/Hamilton/38419-Wooded-Hollow-Dr-20158/home/12101698,BRIGHT MLS,VALO380302,N,Y,39.1153277,-77.6733646
PAST SALE,July-27-2020,Single Family Residential,245 S Saint Paul St,Hamilton,VA,20158,470000,4,2.0,FRANCIS DIVISION,2940,29621,1963,495,160,,Sold,,,https://www.redfin.com/VA/Hamilton/245-S-St-Paul-St-20158/home/14368381,BRIGHT MLS,VALO413758,N,Y,39.1291788,-77.6680411
PAST SALE,,Single Family Residential,247 S St Paul St,Hamilton,VA,20158,525000,,4.5,,1758,266587,1994,,299,,,,,https://www.redfin.com/VA/Hamilton/247-S-St-Paul-St-20158/home/12019471,,,N,Y,39.1285893,-77.6677726
PAST SALE,September-17-2021,Single Family Residential,38258 Wildflower Meadow Ct,Hamilton,VA,20158,1330000,5,6.0,FAWN MEADOW,9168,214315,2006,78,145,,Sold,,,https://www.redfin.com/VA/Hamilton/38258-Wildflower-Meadow-Ct-20158/home/12101692,BRIGHT MLS,VALO2004534,N,Y,39.1156524,-77.680522
PAST SALE,July-24-2020,Single Family Residential,38392 Wooded Hollow Dr,Hamilton,VA,20158,745000,5,4.5,FAWN MEADOW,5423,133729,2006,498,137,,Sold,,,https://www.redfin.com/VA/Hamilton/38392-Wooded-Hollow-Dr-20158/home/12101696,BRIGHT MLS,VALO407482,N,Y,39.1164854,-77.6751988
PAST SALE,July-9-2021,Single Family Residential,38515 Wooded Hollow Dr,Hamilton,VA,20158,950000,4,4.5,FAWN MEADOW,5899,135036,2006,148,161,,Sold,,,https://www.redfin.com/VA/Hamilton/38515-Wooded-Hollow-Dr-20158/home/12101704,BRIGHT MLS,VALO436866,N,Y,39.1186671,-77.6734989
PAST SALE,,Single Family Residential,308 Orchard Cir,Hamilton,VA,20158,282000,,3.0,,2262,10019,1974,,125,,,,,https://www.redfin.com/VA/Hamilton/308-Orchard-Cir-20158/home/12017983,,,N,Y,39.1350882,-77.6603908
PAST SALE,September-28-2020,Single Family Residential,37934 Wright Farm Dr,Purcellville,VA,20132,895000,4,4.5,WRIGHT FARM,6118,143748,2006,432,146,90,Sold,,,https://www.redfin.com/VA/Purcellville/37934-Wright-Farm-Dr-20132/home/12076835,BRIGHT MLS,VALO419912,N,Y,39.1526743,-77.6915255
PAST SALE,March-9-2020,Single Family Residential,37974 Highland Farm Pl,Purcellville,VA,20132,735000,4,4.0,WRIGHT FARM,5732,132422,2004,635,128,55,Sold,,,https://www.redfin.com/VA/Purcellville/37974-Highland-Farm-Pl-20132/home/12080725,BRIGHT MLS,VALO394100,N,Y,39.1525694,-77.6899824
PAST SALE,July-29-2021,Single Family Residential,16785 Falconhurst Dr,Purcellville,VA,20132,1200000,5,4.5,WRIGHT FARM,5586,138085,2004,128,215,55,Sold,,,https://www.redfin.com/VA/Purcellville/16785-Falconhurst-Dr-20132/home/12081898,BRIGHT MLS,VALO440696,N,Y,39.1528011,-77.6882156
PAST SALE,October-29-2020,Single Family Residential,16947 Wetherfield Ct,Purcellville,VA,20132,755000,4,3.5,WRIGHT FARM,4400,168577,2010,401,172,57,Sold,,,https://www.redfin.com/VA/PURCELLVILLE/16947-WETHERFIELD-CT-20132/home/39881753,BRIGHT MLS,VALO420740,N,Y,39.147973,-77.689608
PAST SALE,August-26-2019,Single Family Residential,16939 Wetherfield Ct,Purcellville,VA,20132,675000,5,4.5,WRIGHT FARM,4402,184694,2010,831,153,55,Sold,,,https://www.redfin.com/VA/PURCELLVILLE/16939-WETHERFIELD-CT-20132/home/28904728,BRIGHT MLS,VALO391180,N,Y,39.14899,-77.689363
PAST SALE,,Single Family Residential,16946 WETHERFIELD CT,PURCELLVILLE,VA,20132,417500,,4.5,,3919,202118,2010,,107,,,,,https://www.redfin.com/VA/PURCELLVILLE/16946-WETHERFIELD-CT-20132/home/39601886,,,N,Y,39.147752,-77.688446
PAST SALE,September-23-2020,Single Family Residential,37922 Wright Farm Dr,Purcellville,VA,20132,955000,4,6.5,WRIGHT FARM,7518,138956,2003,437,127,92,Sold,,,https://www.redfin.com/VA/Purcellville/37922-Wright-Farm-Dr-20132/home/12076845,BRIGHT MLS,VALO418696,N,Y,39.1510884,-77.691861
PAST SALE,November-1-2021,Single Family Residential,37962 Highland Farm Pl,Purcellville,VA,20132,1265000,4,4.5,WRIGHT FARM,6405,130680,2004,33,198,55,Sold,,,https://www.redfin.com/VA/Purcellville/37962-Highland-Farm-Pl-20132/home/12080371,BRIGHT MLS,VALO2009534,N,Y,39.151189,-77.6898035
PAST SALE,April-9-2021,Single Family Residential,16821 Falconhurst Dr,Purcellville,VA,20132,905000,4,4.5,WRIGHT FARM,5245,130680,2005,239,173,55,Sold,,,https://www.redfin.com/VA/Purcellville/16821-Falconhurst-Dr-20132/home/12083350,BRIGHT MLS,VALO431574,N,Y,39.1519029,-77.6876789
PAST SALE,October-15-2021,Single Family Residential,38060 Highland Farm Pl,Purcellville,VA,20132,1049000,4,4.5,WRIGHT FARM,6176,130680,2005,50,170,55,Sold,,,https://www.redfin.com/VA/Purcellville/38060-Highland-Farm-Pl-20132/home/12083322,BRIGHT MLS,VALO2005272,N,Y,39.1502971,-77.6865159
PAST SALE,June-30-2021,Single Family Residential,17462 Francis Farm Pl,Hamilton,VA,20158,1275000,6,5.5,FRANCIS FARM SUBDIVISION,7352,134165,2001,157,173,,Sold,,,https://www.redfin.com/VA/Hamilton/17462-Francis-Farm-Pl-20158/home/12044899,BRIGHT MLS,VALO440088,N,Y,39.1336967,-77.6842571
PAST SALE,November-18-2020,Single Family Residential,17479 Francis Farm Pl,Hamilton,VA,20158,957500,5,5.5,FRANCIS FARM SUBDIVISION,4705,144184,2002,381,204,,Sold,,,https://www.redfin.com/VA/Hamilton/17479-Francis-Farm-Pl-20158/home/12044903,BRIGHT MLS,VALO421800,N,Y,39.1339357,-77.6864936
PAST SALE,May-26-2021,Single Family Residential,17702 Karen Hope Ct,Hamilton,VA,20158,975000,5,4.5,STONE EDEN FARM,4554,150282,2002,192,214,,Sold,,,https://www.redfin.com/VA/Hamilton/17702-Karen-Hope-Ct-20158/home/12063225,BRIGHT MLS,VALO437494,N,Y,39.1273435,-77.6827138
PAST SALE,May-10-2019,Single Family Residential,38373 Valley Ridge Pl,Hamilton,VA,20158,860000,4,4.5,HARMONY VISTA ESTATES,6219,106722,2016,939,138,80,Sold,,,https://www.redfin.com/VA/Hamilton/38373-Valley-Ridge-Pl-20158/home/56518900,BRIGHT MLS,VALO354904,N,Y,39.138759,-77.6762796
PAST SALE,June-28-2019,Single Family Residential,254 E Colonial Hwy,Hamilton,VA,20158,473000,4,1.5,TOWN OF HAMILTON,2066,9583,1890,890,229,,Sold,,,https://www.redfin.com/VA/Hamilton/254-E-Colonial-Hwy-20158/home/12018006,BRIGHT MLS,VALO385102,N,Y,39.133387,-77.658888
PAST SALE,November-5-2019,Single Family Residential,38529 Broadoak Pl,Hamilton,VA,20158,849000,5,4.5,BROADOAK,5844,145926,2004,760,145,12,Sold,,,https://www.redfin.com/VA/Hamilton/38529-Broadoak-Pl-20158/home/12080093,BRIGHT MLS,VALO391106,N,Y,39.142546,-77.6703897
PAST SALE,May-31-2019,Single Family Residential,32 King St N,Hamilton,VA,20158,79500,3,2.0,HAMILTON,1365,,1989,918,58,,Sold,,,https://www.redfin.com/VA/Hamilton/32-N-King-St-20158/home/39527911,BRIGHT MLS,VALO379884,N,Y,39.135548,-77.662456
PAST SALE,November-30-2020,Single Family Residential,109 S Hughes St,Hamilton,VA,20158,550000,3,3.0,FRANCIS DIVISION,2392,14810,2004,369,230,,Sold,,,https://www.redfin.com/VA/Hamilton/109-S-Hughes-St-20158/home/12018964,BRIGHT MLS,VALO424562,N,Y,39.1303598,-77.6712174
PAST SALE,,Single Family Residential,93 S Hughes St,Hamilton,VA,20158,520000,3,2.0,,2053,14810,1965,,253,,,,,https://www.redfin.com/VA/Hamilton/93-S-Hughes-St-20158/home/12018965,,,N,Y,39.1308661,-77.6710831
PAST SALE,January-29-2021,Single Family Residential,17583 Coachman Dr,Hamilton,VA,20158,595000,4,2.5,FRANCIS DIVISION,2768,14810,1989,309,215,5,Sold,,,https://www.redfin.com/VA/Hamilton/17583-Coachman-Dr-20158/home/12019012,BRIGHT MLS,VALO427670,N,Y,39.1306224,-77.6676832
PAST SALE,January-31-2019,Single Family Residential,41 Saint Paul St S,Hamilton,VA,20158,560000,4,2.5,TOWN OF HAMILTON,2584,13504,1930,1038,217,,Sold,,,https://www.redfin.com/VA/Hamilton/41-S-St-Paul-St-20158/home/12019075,BRIGHT MLS,1003289962,N,Y,39.1333924,-77.6632541
PAST SALE,January-28-2021,Single Family Residential,51 S Saint Paul St,Hamilton,VA,20158,410000,2,1.5,TOWN OF HAMILTON,2091,12197,1954,310,196,,Sold,,,https://www.redfin.com/VA/Hamilton/51-S-St-Paul-St-20158/home/12019071,BRIGHT MLS,VALO423672,N,Y,39.1331664,-77.6633883
PAST SALE,,Single Family Residential,9 Burke Cir Unit A,Hamilton,VA,20158,260000,,2.0,,2080,20473,1920,,125,,,,,https://www.redfin.com/VA/Hamilton/9-Burke-Cir-20158/unit-A/home/12019139,,,N,Y,39.1336832,-77.6693384
PAST SALE,September-4-2020,Single Family Residential,17827 Sands Rd,Hamilton,VA,20158,705000,4,3.5,BROWN DIVISION,3611,52708,1998,456,195,,Sold,,,https://www.redfin.com/VA/Hamilton/17827-Sands-Rd-20158/home/12019387,BRIGHT MLS,VALO414682,N,Y,39.1227843,-77.6752882
PAST SALE,July-5-2019,Single Family Residential,38822 Bettis Dr,Hamilton,VA,20158,683000,5,5.0,ROSE HILL ESTATES,4908,58806,2007,883,139,,Sold,,,https://www.redfin.com/VA/Hamilton/38822-Bettis-Dr-20158/home/14365939,BRIGHT MLS,VALO380290,N,Y,39.1420932,-77.6599881
PAST SALE,,Condo/Co-op,16796 Birdham Dr,Hamilton,VA,20158,320000,2,2.0,,1510,,2001,,212,,,,,https://www.redfin.com/VA/Hamilton/16796-Birdham-Dr-20158/home/134158398,,,N,Y,39.1520881,-77.6720002
PAST SALE,July-22-2021,Single Family Residential,14 W Colonial Hwy,Hamilton,VA,20158,680000,4,3.0,TOWN OF HAMILTON,2296,13504,1870,135,296,,Sold,,,https://www.redfin.com/VA/Hamilton/14-W-Colonial-Hwy-20158/home/12019188,BRIGHT MLS,VALO439924,N,Y,39.1353061,-77.6650436
PAST SALE,December-7-2018,Single Family Residential,43 Hughes St S,Hamilton,VA,20158,430000,4,2.0,FRANCIS,2577,43560,1965,1093,167,,Sold,,,https://www.redfin.com/VA/Hamilton/43-S-Hughes-St-20158/home/12018963,BRIGHT MLS,1009943110,N,Y,39.132883,-77.6712174
PAST SALE,,Townhouse,16 Sydnor St,Hamilton,VA,20158,280000,,1.5,,1260,2614,1973,,222,,,,,https://www.redfin.com/VA/Hamilton/16-Sydnor-St-20158/home/12019272,,,N,Y,39.1365423,-77.6684549
PAST SALE,July-2-2019,Single Family Residential,16773 Birdham Dr,Hamilton,VA,20158,895000,5,4.5,HEATHER KNOLLS,6892,140263,2006,886,130,,Sold,,,https://www.redfin.com/VA/Hamilton/16773-Birdham-Dr-20158/home/12104197,BRIGHT MLS,VALO377058,N,Y,39.1527185,-77.6735883
PAST SALE,September-5-2019,Single Family Residential,38068 W Colonial Hwy,Hamilton,VA,20158,686000,3,2.5,HAMILTON,3297,142441,1799,821,208,,Sold,,,https://www.redfin.com/VA/Hamilton/38068-W-Colonial-Hwy-20158/home/12020511,BRIGHT MLS,VALO387500,N,Y,39.1361176,-77.6866725
PAST SALE,,Single Family Residential,593 Curry Springs Pl,Hamilton,VA,20158,405000,,2.0,,2244,14810,1969,,180,,,,,https://www.redfin.com/VA/Hamilton/593-Curry-Springs-Pl-20158/home/12018998,,,N,Y,39.1319293,-77.6686674
PAST SALE,July-12-2021,Single Family Residential,17205 Dewpoint Pl,Hamilton,VA,20158,1075000,4,4.5,ROSE HILL ESTATES,6448,58370,2006,145,167,,Sold,,,https://www.redfin.com/VA/Hamilton/17205-Dewpoint-Pl-20158/home/12104183,BRIGHT MLS,VALO440372,N,Y,39.1411734,-77.6588405
PAST SALE,February-27-2019,Single Family Residential,38732 Rambling Farm Dr,Hamilton,VA,20158,684000,5,6.0,ROSE HILL ESTATES,5136,143312,2006,1011,133,,Sold,,,https://www.redfin.com/VA/Hamilton/38732-Rambling-Farm-Dr-20158/home/12104202,BRIGHT MLS,1002772230,N,Y,39.1437469,-77.6627172
PAST SALE,August-22-2019,Single Family Residential,16807 Heather Knolls Pl,Hamilton,VA,20158,675000,4,4.5,HEATHER KNOLLS,5336,131987,2002,835,126,61,Sold,,,https://www.redfin.com/VA/Hamilton/16807-Heather-Knolls-Pl-20158/home/12063195,BRIGHT MLS,VALO389702,N,Y,39.1516735,-77.6671911
PAST SALE,October-29-2020,Townhouse,22 Sydnor St,Hamilton,VA,20158,273500,3,2.5,WAVERLY PARK,1700,3485,1973,401,161,,Sold,,,https://www.redfin.com/VA/Hamilton/22-Sydnor-St-20158/home/12019274,BRIGHT MLS,VALO420216,N,Y,39.1367577,-77.6684101
PAST SALE,November-27-2019,Single Family Residential,105 S Saint Paul St,Hamilton,VA,20158,335000,3,2.0,HAMILTON,1686,26136,1973,738,199,,Sold,,,https://www.redfin.com/VA/Hamilton/105-S-St-Paul-St-20158/home/12018902,BRIGHT MLS,VALO391046,N,Y,39.1314265,-77.6639699
PAST SALE,May-21-2021,Single Family Residential,16960 Ivandale Rd,Hamilton,VA,20158,1349000,4,3.5,BREDIMUS FAMILY SUBDIVIS,2618,829382,1860,197,515,,Sold,,,https://www.redfin.com/VA/Hamilton/16960-Ivandale-Rd-20158/home/177209069,BRIGHT MLS,VALO436382,N,Y,39.1477814,-77.6678621
PAST SALE,,Single Family Residential,16708 Ivandale Rd,Hamilton,VA,20158,4000000,,1.0,,2118,5710280,1860,,1889,,,,,https://www.redfin.com/VA/Hamilton/16708-Ivandale-Rd-20158/home/14368421,,,N,Y,39.151908,-77.660464
PAST SALE,,Townhouse,44 Sydnor St,Hamilton,VA,20158,310000,,2.0,,1260,2614,1974,,246,,,,,https://www.redfin.com/VA/Hamilton/44-Sydnor-St-20158/home/12019288,,,N,Y,39.1374699,-77.6681417
PAST SALE,July-18-2019,Single Family Residential,180 S Hughes St,Hamilton,VA,20158,393500,4,3.0,HAMILTON ACRES,1896,16553,1969,870,208,,Sold,,,https://www.redfin.com/VA/Hamilton/180-S-Hughes-St-20158/home/12018959,BRIGHT MLS,VALO379522,N,Y,39.1305469,-77.6718437
PAST SALE,,Single Family Residential,16940 Ivandale Rd,Hamilton,VA,20158,1349000,,1.0,,1160,829382,1860,,1163,,,,,https://www.redfin.com/VA/Hamilton/16940-Ivandale-Rd-20158/home/14368422,,,N,Y,39.1482394,-77.6692696
PAST SALE,December-21-2020,Townhouse,30 Sydnor St,Hamilton,VA,20158,292500,3,2.5,WAVERLY PARK,1970,4792,1974,348,148,,Sold,,,https://www.redfin.com/VA/Hamilton/30-Sydnor-St-20158/home/12019278,BRIGHT MLS,VALO427530,N,Y,39.1370309,-77.668343
PAST SALE,October-21-2020,Single Family Residential,136 W Colonial Hwy,Hamilton,VA,20158,695000,3,2.5,TOWN OF HAMILTON,2367,49223,1870,409,294,,Sold,,,https://www.redfin.com/VA/Hamilton/136-W-Colonial-Hwy-20158/home/12019292,BRIGHT MLS,VALO421660,N,Y,39.1359234,-77.6678174
PAST SALE,September-18-2020,Single Family Residential,18 Ladysmith Ct,Hamilton,VA,20158,530000,4,3.5,LADYSMITH COURT,3188,6970,2013,442,166,31,Sold,,,https://www.redfin.com/VA/Hamilton/18-Ladysmith-Ct-20158/home/12544302,BRIGHT MLS,VALO416716,N,Y,39.1366468,-77.6652226
PAST SALE,November-29-2021,Single Family Residential,38382 Grainmill Ct,Hamilton,VA,20158,1249500,5,5.0,FAWN MEADOW,6007,133294,2006,5,208,,Sold,,,https://www.redfin.com/VA/Hamilton/38382-Grainmill-Ct-20158/home/12101701,BRIGHT MLS,VALO2009108,N,Y,39.118376,-77.6756461
PAST SALE,December-18-2020,Single Family Residential,337 E Colonial Hwy,Hamilton,VA,20158,475000,3,2.5,TOWN OF HAMILTON,1664,15246,1920,351,285,,Sold,,,https://www.redfin.com/VA/Hamilton/337-E-Colonial-Hwy-20158/home/12018029,BRIGHT MLS,VALO424586,N,Y,39.1339696,-77.6566773
PAST SALE,September-16-2019,Single Family Residential,38369 Downs Ct,Hamilton,VA,20158,646000,4,4.5,HAMILTON ACRES,3684,85813,1987,810,175,8,Sold,,,https://www.redfin.com/VA/Hamilton/38369-Downs-Ct-20158/home/12019421,BRIGHT MLS,VALO386888,N,Y,39.1299075,-77.6756014
PAST SALE,May-4-2020,Single Family Residential,306 E Colonial Hwy,Hamilton,VA,20158,350000,4,2.0,TOWN OF HAMILTON,2504,56628,1850,579,140,,Sold,,,https://www.redfin.com/VA/Hamilton/306-E-Colonial-Hwy-20158/home/12018022,BRIGHT MLS,VALO405202,N,Y,39.133462,-77.657628
PAST SALE,July-28-2021,Single Family Residential,38673 Bettis Dr,Hamilton,VA,20158,845000,4,3.5,ROSE HILL ESTATES,3498,60548,2006,129,242,,Sold,,,https://www.redfin.com/VA/Hamilton/38673-Bettis-Dr-20158/home/12103091,BRIGHT MLS,VALO441286,N,Y,39.1412443,-77.6647752
PAST SALE,August-31-2020,Single Family Residential,17899 Sands Rd,Hamilton,VA,20158,827500,5,4.5,STONE EDEN FARM,5030,290545,2001,460,165,,Sold,,,https://www.redfin.com/VA/Hamilton/17899-Sands-Rd-20158/home/12047831,BRIGHT MLS,VALO416216,N,Y,39.1226069,-77.6831835
PAST SALE,September-8-2021,Single Family Residential,38844 Bettis Dr,Hamilton,VA,20158,980000,5,4.5,ROSE HILL ESTATES,4868,58370,2007,87,201,,Sold,,,https://www.redfin.com/VA/Hamilton/38844-Bettis-Dr-20158/home/14365937,BRIGHT MLS,VALO2005390,N,Y,39.1423656,-77.6595407
PAST SALE,August-27-2021,Single Family Residential,17436 Madison Ave,Hamilton,VA,20158,660000,5,2.5,HAMILTON ACRES,3348,59242,1985,99,197,,Sold,,,https://www.redfin.com/VA/Hamilton/17436-Madison-Ave-20158/home/12019108,BRIGHT MLS,VALO2002416,N,Y,39.1347747,-77.6754224
PAST SALE,April-30-2021,Vacant Land,343 Colonial Hwy,Hamilton,VA,20158,224100,,,TOWN OF HAMILTON,,79714,,218,,,Sold,,,https://www.redfin.com/VA/Hamilton/343-E-Colonial-Hwy-20158/home/12018032,BRIGHT MLS,VALO422862,N,Y,39.13421,-77.656288
PAST SALE,March-16-2021,Vacant Land,Unknown,Hamilton,VA,20158,400000,,,Hamilton,,967468,,263,,,Sold,,,https://www.redfin.com/VA/Hamilton/53-E-Colonial-Hwy-20158/home/174671553,BRIGHT MLS,VALO432742,N,Y,39.1346042,-77.6628725
PAST SALE,October-8-2021,Townhouse,27 Sydnor St,Hamilton,VA,20158,379000,3,3.5,WAVERLY PARK,1960,3049,1973,57,193,,Sold,,,https://www.redfin.com/VA/Hamilton/27-Sydnor-St-20158/home/12019252,BRIGHT MLS,VALO2007528,N,Y,39.136939,-77.668978
PAST SALE,May-15-2020,Vacant Land,0 Valley Ridge Unknown,Hamilton,VA,20158,250000,,,HARMONY VISTA ESTATES,,130680,,568,,78,Sold,,,https://www.redfin.com/VA/Blue-Ridge/0-Valley-Ridge-Valley-Ridge-Pl-20158/home/168678660,BRIGHT MLS,VALO392344,N,Y,39.14205185,-77.67944501
PAST SALE,November-2-2020,Single Family Residential,39236 Irene Rd,Hamilton,VA,20158,320000,3,2.0,HAMILTON,1617,51401,1978,397,198,,Sold,,,https://www.redfin.com/VA/Hamilton/39236-Irene-Rd-20158/home/12017930,BRIGHT MLS,VALO424448,N,Y,39.1435845,-77.6451334
PAST SALE,April-14-2021,Single Family Residential,17174 Feeney Ct,Hamilton,VA,20158,904000,4,4.5,ROSE HILL ESTATES,5869,52272,2006,234,154,,Sold,,,https://www.redfin.com/VA/Hamilton/17174-Feeney-Ct-20158/home/12104189,BRIGHT MLS,VALO433116,N,Y,39.1415512,-77.6566102
PAST SALE,April-21-2021,Single Family Residential,39291 E Colonial Hwy,Hamilton,VA,20158,400000,2,1.0,Hamilton,1204,21344,,227,332,,Sold,,,https://www.redfin.com/VA/Hamilton/39291-E-Colonial-Hwy-20158/home/12018045,BRIGHT MLS,VALO433064,N,Y,39.1354799,-77.6431198
PAST SALE,January-17-2020,Single Family Residential,16962 Hamilton Station Rd,Hamilton,VA,20158,500000,2,3.0,HAMILTON,2170,189050,1982,687,230,,Sold,,,https://www.redfin.com/VA/Hamilton/16962-Hamilton-Station-Rd-20158/home/12017946,BRIGHT MLS,VALO396614,N,Y,39.1473254,-77.6479076
PAST SALE,September-21-2020,Single Family Residential,16871 Hamilton Station Rd,Hamilton,VA,20158,550000,4,3.0,LINDEN KNOLLS,1937,130680,1981,439,284,,Sold,,,https://www.redfin.com/VA/Hamilton/16871-Hamilton-Station-Rd-20158/home/12017955,BRIGHT MLS,VALO422016,N,Y,39.1506615,-77.6472812
PAST SALE,December-15-2020,Single Family Residential,16866 Hamilton Station Rd,Hamilton,VA,20158,1250000,6,5.0,Hamilton,4452,436036,2003,354,281,,Sold,,,https://www.redfin.com/VA/Hamilton/16866-Hamilton-Station-Rd-20158/home/12017957,BRIGHT MLS,VALO412996,N,Y,39.1493244,-77.6463863
PAST SALE,January-22-2021,Single Family Residential,103 Lamplighter Ct,Hamilton,VA,20158,786000,6,5.0,HAMILTON MEADOW,6306,15246,2016,316,125,70,Sold,,,https://www.redfin.com/VA/Hamilton/103-Lamplighter-Ct-20158/home/56512743,BRIGHT MLS,VALO427200,N,Y,39.1327709,-77.6589026
PAST SALE,March-24-2020,Single Family Residential,17543 Harmony Church Rd,Hamilton,VA,20158,725635,5,4.5,MANN SUBDIVISION,4050,64904,2019,620,179,,Sold,,,https://www.redfin.com/VA/Hamilton/17543-Harmony-Church-Rd-20158/home/56514897,BRIGHT MLS,VALO399002,N,Y,39.1316729,-77.6553025
PAST SALE,December-23-2019,Single Family Residential,17510 Harmony Church Rd,Hamilton,VA,20158,430000,3,2.0,FOX ACRES,1238,12197,1957,712,347,,Sold,,,https://www.redfin.com/VA/Hamilton/17510-Harmony-Church-Rd-20158/home/12017966,BRIGHT MLS,VALO399008,N,Y,39.1324932,-77.6544849
PAST SALE,August-18-2021,Single Family Residential,17516 Harmony Church Rd,Hamilton,VA,20158,475000,3,1.0,FOX ACRES,1404,12197,1952,108,338,,Sold,,,https://www.redfin.com/VA/Hamilton/17516-Harmony-Church-Rd-20158/home/12017968,BRIGHT MLS,VALO439090,N,Y,39.1322881,-77.6544402
PAST SALE,September-24-2021,Single Family Residential,17538 Harmony Church Rd,Hamilton,VA,20158,352000,3,1.0,FOX ACRES,1348,12197,1947,71,261,,Sold,,,https://www.redfin.com/VA/Hamilton/17538-Harmony-Church-Rd-20158/home/12017971,BRIGHT MLS,VALO2005892,N,Y,39.1316473,-77.6544402
PAST SALE,February-25-2021,Single Family Residential,39315 Karlino Ct,Hamilton,VA,20158,930000,5,5.0,HAMILTON STATION ESTATES,5641,225641,2005,282,165,59,Sold,,,https://www.redfin.com/VA/Hamilton/39315-Karlino-Ct-20158/home/12083635,BRIGHT MLS,VALO428910,N,Y,39.1380078,-77.6414865
PAST SALE,August-17-2020,Single Family Residential,212 E Colonial Hwy,Hamilton,VA,20158,444000,3,2.0,TOWN OF HAMILTON,2208,18731,1873,474,201,,Sold,,,https://www.redfin.com/VA/Hamilton/212-E-Colonial-Hwy-20158/home/12017984,BRIGHT MLS,VALO406982,N,Y,39.1333966,-77.6603013
PAST SALE,August-31-2021,Single Family Residential,220 E Colonial Hwy,Hamilton,VA,20158,503000,3,2.5,TOWN OF HAMILTON,1988,12632,1989,95,253,,Sold,,,https://www.redfin.com/VA/Hamilton/220-E-Colonial-Hwy-20158/home/12017987,BRIGHT MLS,VALO2003096,N,Y,39.1332925,-77.6600776
PAST SALE,July-15-2020,Single Family Residential,303 Orchard Cir,Hamilton,VA,20158,514000,4,3.0,HAMILTON KNOLLS,2712,11326,1974,507,190,16,Sold,,,https://www.redfin.com/VA/Hamilton/303-Orchard-Cir-20158/home/12017989,BRIGHT MLS,VALO412908,N,Y,39.1355,-77.6601223
PAST SALE,July-10-2020,Single Family Residential,103 Orchard Cir,Hamilton,VA,20158,500000,4,3.0,HAMILTON KNOLLS,2124,13504,1976,512,235,15,Sold,,,https://www.redfin.com/VA/Hamilton/103-Orchard-Cir-20158/home/12018000,BRIGHT MLS,VALO411416,N,Y,39.1348787,-77.6591828
PAST SALE,October-14-2019,Single Family Residential,60 N Tavenner Ln,Hamilton,VA,20158,335000,4,2.5,LAYCOCK DIVISION,3504,37897,1979,782,96,,Sold,,,https://www.redfin.com/VA/Hamilton/60-N-Tavenner-Ln-20158/home/12018083,BRIGHT MLS,VALO394020,N,Y,39.1355989,-77.6561851
PAST SALE,December-22-2020,Single Family Residential,207 Orchard Cir,Hamilton,VA,20158,477000,5,2.5,HAMILTON KNOLLS,2204,13504,1975,347,216,16,Sold,,,https://www.redfin.com/VA/Hamilton/207-Orchard-Cir-20158/home/12018053,BRIGHT MLS,VALO424750,N,Y,39.1360254,-77.6601671
PAST SALE,August-6-2020,Single Family Residential,253 E Colonial Hwy,Hamilton,VA,20158,459000,3,2.5,TOWN OF HAMILTON,1822,6098,1920,485,252,,Sold,,,https://www.redfin.com/VA/Hamilton/253-E-Colonial-Hwy-20158/home/12018008,BRIGHT MLS,VALO411254,N,Y,39.1337447,-77.6586906
PAST SALE,April-29-2019,Single Family Residential,203 Orchard Cir,Hamilton,VA,20158,383990,3,2.0,HAMILTON KNOLLS,1836,13504,1978,950,209,15,Sold,,,https://www.redfin.com/VA/Hamilton/203-Orchard-Cir-20158/home/12018057,BRIGHT MLS,VALO268242,N,Y,39.1363492,-77.6594512
PAST SALE,May-5-2021,Single Family Residential,351 E Colonial Hwy,Hamilton,VA,20158,505000,3,2.0,LAYCOCK DIVISION,1356,53143,1957,213,372,,Sold,,,https://www.redfin.com/VA/Hamilton/351-E-Colonial-Hwy-20158/home/12018033,BRIGHT MLS,VALO431870,N,Y,39.1346939,-77.6559614
PAST SALE,May-29-2019,Single Family Residential,38868 Ridge Ct,Hamilton,VA,20158,685000,5,2.5,WINODEE SUBDIVISION,3409,207346,1983,920,201,,Sold,,,https://www.redfin.com/VA/Hamilton/38868-Ridge-Ct-20158/home/12018107,BRIGHT MLS,VALO354248,N,Y,39.1394139,-77.6581538
PAST SALE,May-28-2020,Single Family Residential,38923 Paynes Ln,Hamilton,VA,20158,320000,2,1.0,HAMILTON,1176,24829,1920,555,272,,Sold,,,https://www.redfin.com/VA/Hamilton/38923-Paynes-Ln-20158/home/12018110,BRIGHT MLS,VALO406430,N,Y,39.1403787,-77.6563194
PAST SALE,September-28-2020,Single Family Residential,17239 Twinoaks Pl,Hamilton,VA,20158,795000,5,5.5,HAMILTON STATION ESTATES,5788,98010,2003,432,137,59,Sold,,,https://www.redfin.com/VA/Hamilton/17239-Twinoaks-Pl-20158/home/12076733,BRIGHT MLS,VALO419946,N,Y,39.1406666,-77.6511845
PAST SALE,July-12-2021,Single Family Residential,17240 Twinoaks Pl,Hamilton,VA,20158,1040000,5,4.5,HAMILTON STATION ESTATES,5502,57935,2002,145,189,59,Sold,,,https://www.redfin.com/VA/Hamilton/17240-Twinoaks-Pl-20158/home/12076736,BRIGHT MLS,VALO441050,N,Y,39.1395697,-77.6500777
PAST SALE,January-28-2021,Single Family Residential,17267 Northwoods Pl,Hamilton,VA,20158,851000,4,3.5,HAMILTON STATION ESTATES,4977,120226,2005,310,171,59,Sold,,,https://www.redfin.com/VA/Hamilton/17267-Northwoods-Pl-20158/home/12081888,BRIGHT MLS,VALO427222,N,Y,39.13921,-77.6461625
PAST SALE,February-12-2021,Single Family Residential,17263 Northwoods Pl,Hamilton,VA,20158,970000,5,4.5,HAMILTON STATION ESTATES,5959,249599,2005,295,163,59,Sold,,,https://www.redfin.com/VA/Hamilton/17263-Northwoods-Pl-20158/home/12082968,BRIGHT MLS,VALO423864,N,Y,39.1392561,-77.6456587
PAST SALE,February-5-2021,Single Family Residential,17284 Northwoods Pl,Hamilton,VA,20158,848832,4,3.5,HAMILTON STATION ESTATES,3876,64904,2005,302,219,58,Sold,,,https://www.redfin.com/VA/Hamilton/17284-Northwoods-Pl-20158/home/12083730,BRIGHT MLS,VALO428560,N,Y,39.138728,-77.6454019
PAST SALE,April-30-2020,Single Family Residential,17262 Northwoods Pl,Hamilton,VA,20158,689000,4,2.5,HAMILTON STATION ESTATES,3325,95832,2005,583,207,59,Sold,,,https://www.redfin.com/VA/Hamilton/17262-Northwoods-Pl-20158/home/12083053,BRIGHT MLS,VALO403312,N,Y,39.1394328,-77.6450663
PAST SALE,December-16-2019,Single Family Residential,39278 Karlino Ct,Hamilton,VA,20158,725000,4,3.5,HAMILTON STATION ESTATES,5063,154202,2005,719,143,59,Sold,,,https://www.redfin.com/VA/Hamilton/39278-Karlino-Ct-20158/home/12081889,BRIGHT MLS,VALO394330,N,Y,39.1384896,-77.6439252
PAST SALE,May-24-2021,Single Family Residential,17836 Harmony Church Rd,Hamilton,VA,20158,758500,4,2.5,METES & BOUNDS,3180,131116,,194,239,,Sold,,,https://www.redfin.com/VA/Hamilton/17836-Harmony-Church-Rd-20158/home/12018123,BRIGHT MLS,VALO434366,N,Y,39.1236992,-77.6550218
PAST SALE,March-30-2021,Single Family Residential,17791 Harmony Church Rd,Hamilton,VA,20158,735000,3,1.5,Hamilton,1522,191228,1950,249,483,,Sold,,,https://www.redfin.com/VA/Hamilton/17791-Harmony-Church-Rd-20158/home/12018125,BRIGHT MLS,VALO430294,N,Y,39.1249967,-77.6559167
PAST SALE,November-30-2020,Single Family Residential,112 Applewood Ct,Hamilton,VA,20158,499900,4,2.5,HAMILTON KNOLLS,1960,17860,1979,369,255,15,Sold,,,https://www.redfin.com/VA/Hamilton/112-Applewood-Ct-20158/home/12018086,BRIGHT MLS,VALO423050,N,Y,39.1365296,-77.6562746
PAST SALE,January-13-2021,Single Family Residential,38999 Winodee Way,Hamilton,VA,20158,990000,5,6.5,WINODEE SUBDIVISION,6285,106722,1991,325,158,,Sold,,,https://www.redfin.com/VA/Hamilton/38999-Winodee-Way-20158/home/12018092,BRIGHT MLS,VALO423262,N,Y,39.1380231,-77.6537691
PAST SALE,August-28-2020,Single Family Residential,17365 Twinoaks Pl,Hamilton,VA,20158,880000,5,4.5,HAMILTON STATION ESTATES,5114,116741,2002,463,172,59,Sold,,,https://www.redfin.com/VA/Hamilton/17365-Twinoaks-Pl-20158/home/12065042,BRIGHT MLS,VALO415644,N,Y,39.1366527,-77.6503238
PAST SALE,November-20-2020,Single Family Residential,39084 Merak Ct,Hamilton,VA,20158,635000,4,3.5,HAMILTON STATION ESTATES,5320,43124,2004,379,119,58,Sold,,,https://www.redfin.com/VA/Hamilton/39084-Merak-Ct-20158/home/12079204,BRIGHT MLS,VALO381682,N,Y,39.1361561,-77.6505475
PAST SALE,December-23-2020,Single Family Residential,17322 Vannes Ct,Hamilton,VA,20158,880000,4,3.5,HAMILTON STATION ESTATES,4004,154202,2002,346,220,59,Sold,,,https://www.redfin.com/VA/Hamilton/17322-Vannes-Ct-20158/home/12065046,BRIGHT MLS,VALO426134,N,Y,39.1375791,-77.6481313
PAST SALE,June-27-2019,Single Family Residential,17341 Northwoods Pl,Hamilton,VA,20158,708000,4,3.5,HAMILTON STATION ESTATES,4561,77537,2006,891,155,58,Sold,,,https://www.redfin.com/VA/Hamilton/17341-Northwoods-Pl-20158/home/12102959,BRIGHT MLS,VALO353344,N,Y,39.137126,-77.6465205
PAST SALE,February-21-2020,Single Family Residential,38724 Rambling Farm Dr,Hamilton,VA,20158,695000,4,3.5,ROSE HILL ESTATES,3490,133294,2005,652,199,,Sold,,,https://www.redfin.com/VA/Hamilton/38724-Rambling-Farm-Dr-20158/home/12084317,BRIGHT MLS,VALO401886,N,Y,39.14412,-77.6632094
PAST SALE,February-13-2019,Single Family Residential,17114 Ivandale Rd,Hamilton,VA,20158,624900,3,3.0,LAYCOCK SUBDIVISION,3142,189109,2000,1025,199,,Sold,,,https://www.redfin.com/VA/Hamilton/17114-Ivandale-Rd-20158/home/12018896,BRIGHT MLS,1000400084,N,Y,39.1440109,-77.6681753
PAST SALE,May-15-2019,Single Family Residential,38542 Ditchling Pl,Hamilton,VA,20158,1000000,5,5.0,HEATHER KNOLLS,6982,135472,2005,934,143,,Sold,,,https://www.redfin.com/VA/Hamilton/38542-Ditchling-Pl-20158/home/12084732,BRIGHT MLS,VALO380456,N,Y,39.1529925,-77.6692266
PAST SALE,July-29-2021,Single Family Residential,17176 Westfield Pl,Hamilton,VA,20158,1100000,6,4.5,BROADOAK,6190,47045,2005,128,178,13,Sold,,,https://www.redfin.com/VA/Hamilton/17176-Westfield-Pl-20158/home/12082713,BRIGHT MLS,VALO440152,N,Y,39.1419306,-77.6713739
PAST SALE,November-19-2020,Single Family Residential,17191 Ivandale Rd,Hamilton,VA,20158,675000,4,3.5,Hamilton,2915,152460,1978,380,232,,Sold,,,https://www.redfin.com/VA/Hamilton/17191-Ivandale-Rd-20158/home/12018895,BRIGHT MLS,VALO423546,N,Y,39.1413993,-77.6699647
PAST SALE,February-26-2021,Single Family Residential,38716 Bettis Dr,Hamilton,VA,20158,888000,5,4.5,ROSE HILL ESTATES,5464,83200,2005,281,163,,Sold,,,https://www.redfin.com/VA/Hamilton/38716-Bettis-Dr-20158/home/12083108,BRIGHT MLS,VALO428324,N,Y,39.1419174,-77.6637686
PAST SALE,September-23-2021,Single Family Residential,38573 Rambling Farm Dr,Hamilton,VA,20158,929000,4,4.5,ROSE HILL ESTATES,4874,138521,2006,72,191,,Sold,,,https://www.redfin.com/VA/Hamilton/38573-Rambling-Farm-Dr-20158/home/12102719,BRIGHT MLS,VALO2003290,N,Y,39.1428255,-77.6685108
PAST SALE,March-29-2019,Single Family Residential,38766 Rambling Farm Dr,Hamilton,VA,20158,795000,5,4.5,ROSE HILL ESTATES,4916,132422,2007,981,162,,Sold,,,https://www.redfin.com/VA/Hamilton/38766-Rambling-Farm-Dr-20158/home/14366184,BRIGHT MLS,VALO181596,N,Y,39.1428758,-77.6622475
PAST SALE,July-30-2021,Single Family Residential,17135 Phantom Ln,Hamilton,VA,20158,705000,3,2.5,HALL FAMILY SUBDIVISION,2548,130680,2016,127,277,,Sold,,,https://www.redfin.com/VA/Hamilton/17135-Phantom-Ln-20158/home/56513276,BRIGHT MLS,VALO441546,N,Y,39.1432289,-77.6765855
PAST SALE,May-15-2020,Single Family Residential,110 S St Paul St,Hamilton,VA,20158,400000,3,2.5,HAMILTON TERRACE,1680,16553,1970,568,238,,Sold,,,https://www.redfin.com/VA/Hamilton/110-S-St-Paul-St-20158/home/12019056,BRIGHT MLS,VALO402838,N,Y,39.1317369,-77.6649989
PAST SALE,January-3-2019,Single Family Residential,125 S Saint Paul St,Hamilton,VA,20158,455000,2,2.0,HAMILTON,1344,44431,1954,1066,339,,Sold,,,https://www.redfin.com/VA/Hamilton/125-S-St-Paul-St-20158/home/12019063,BRIGHT MLS,1010009092,N,Y,39.1309154,-77.6640594
PAST SALE,November-15-2019,Single Family Residential,103 S Saint Paul St,Hamilton,VA,20158,377500,3,2.0,TOWN OF HAMILTON,1264,15246,1920,750,299,,Sold,,,https://www.redfin.com/VA/Hamilton/103-S-St-Paul-St-20158/home/12019066,BRIGHT MLS,VALO396642,N,Y,39.1317804,-77.6642831
PAST SALE,September-23-2021,Single Family Residential,100 E Colonial Hwy,Hamilton,VA,20158,717000,5,2.5,TOWN OF HAMILTON,3696,29621,1840,72,194,,Sold,,,https://www.redfin.com/VA/Hamilton/100-E-Colonial-Hwy-20158/home/12019077,BRIGHT MLS,VALO2004424,N,Y,39.1337049,-77.6628067
PAST SALE,November-17-2020,Single Family Residential,154 E Colonial Hwy,Hamilton,VA,20158,480000,3,2.0,TOWN OF HAMILTON,2122,15246,1842,382,226,,Sold,,,https://www.redfin.com/VA/Hamilton/154-E-Colonial-Hwy-20158/home/12019084,BRIGHT MLS,VALO421874,N,Y,39.1333884,-77.6609724
PAST SALE,February-25-2020,Single Family Residential,38219 Adams Ct,Hamilton,VA,20158,460000,4,3.0,HAMILTON ACRES,2512,80150,1982,648,183,8,Sold,,,https://www.redfin.com/VA/Hamilton/38219-Adams-Ct-20158/home/12019089,BRIGHT MLS,VALO401056,N,Y,39.1345955,-77.6812377
PAST SALE,,Single Family Residential,17802 Madison Ave,Hamilton,VA,20158,629000,4,3.5,,3901,40511,1986,,161,,,,,https://www.redfin.com/VA/Hamilton/17802-Madison-Ave-20158/home/12019091,,,N,Y,39.1357349,-77.6806562
PAST SALE,July-1-2021,Single Family Residential,17745 Madison Ave,Hamilton,VA,20158,520000,3,2.5,HAMILTON ACRES,1900,64469,1981,156,274,,Sold,,,https://www.redfin.com/VA/Hamilton/17745-Madison-Ave-20158/home/12019099,BRIGHT MLS,VALO435330,N,Y,39.134449,-77.6794932
PAST SALE,September-30-2021,Single Family Residential,30 S Hughes St,Hamilton,VA,20158,625000,4,2.5,HAMILTON,3577,43560,1974,65,175,,Sold,,,https://www.redfin.com/VA/Hamilton/30-S-Hughes-St-20158/home/12019119,BRIGHT MLS,VALO2007182,N,Y,39.134765,-77.672281
PAST SALE,,Single Family Residential,15 Hamilton Terrace Dr,Hamilton,VA,20158,462300,,2.0,,1648,13068,1979,,281,,,,,https://www.redfin.com/VA/Hamilton/15-Hamilton-Terrace-Dr-20158/home/12019168,,,N,Y,39.1329824,-77.6672805
PAST SALE,October-30-2019,Single Family Residential,319 W Colonial Hwy,Hamilton,VA,20158,500000,3,1.5,TOWN OF HAMILTON,2205,22651,1850,766,227,,Sold,,,https://www.redfin.com/VA/Hamilton/319-W-Colonial-Hwy-20158/home/12019130,BRIGHT MLS,VALO392146,N,Y,39.1359638,-77.6708147
PAST SALE,October-20-2020,Single Family Residential,10 Burke Cir,Hamilton,VA,20158,452000,3,2.5,BUR-WIL HEIGHTS,1644,12197,1980,410,275,,Sold,,,https://www.redfin.com/VA/Hamilton/10-Burke-Cir-20158/home/12019138,BRIGHT MLS,VALO417166,N,Y,39.1340628,-77.6695174
PAST SALE,July-9-2021,Single Family Residential,20 Hamilton Terrace Dr,Hamilton,VA,20158,550000,3,3.0,HAMILTON TERRACE,2115,13068,1974,148,260,,Sold,,,https://www.redfin.com/VA/Hamilton/20-Hamilton-Terrace-Dr-20158/home/12019160,BRIGHT MLS,VALO439034,N,Y,39.1331038,-77.6680411
PAST SALE,,Single Family Residential,582 Curry Springs Pl,Hamilton,VA,20158,460000,,3.0,,2715,17860,1970,,169,,,,,https://www.redfin.com/VA/Hamilton/582-Curry-Springs-Pl-20158/home/12019142,,,N,Y,39.1329575,-77.6692937
PAST SALE,June-28-2019,Single Family Residential,30 S James St,Hamilton,VA,20158,395000,3,1.5,CATALPA LANE SUBDIVISION,1968,9583,1970,890,201,,Sold,,,https://www.redfin.com/VA/Hamilton/30-S-James-St-20158/home/12019147,BRIGHT MLS,VALO372762,N,Y,39.1351781,-77.6687121
PAST SALE,September-14-2020,Single Family Residential,38559 Ditchling Pl,Hamilton,VA,20158,900000,5,4.5,HEATHER KNOLLS,7025,159865,2004,446,128,,Sold,,,https://www.redfin.com/VA/Hamilton/38559-Ditchling-Pl-20158/home/12081894,BRIGHT MLS,VALO415534,N,Y,39.15182,-77.669495
PAST SALE,October-2-2020,Single Family Residential,6 Burke Cir,Hamilton,VA,20158,395000,2,1.0,BUR-WIL HEIGHTS,1650,15246,1960,428,239,,Sold,,,https://www.redfin.com/VA/Hamilton/6-Burke-Cir-20158/home/12019150,BRIGHT MLS,VALO419848,N,Y,39.1336323,-77.6684884
PAST SALE,July-20-2020,Single Family Residential,93 S St Paul St,Hamilton,VA,20158,495000,3,2.5,Hamilton,2032,55757,1920,502,244,,Sold,,,https://www.redfin.com/VA/Hamilton/93-S-St-Paul-St-20158/home/12018903,BRIGHT MLS,VALO410484,N,Y,39.1319967,-77.6640594
PAST SALE,December-21-2018,Single Family Residential,61 Saint Paul St,Hamilton,VA,20158,499900,4,2.0,TOWN OF HAMILTON,2560,20473,1880,1079,195,,Sold,,,https://www.redfin.com/VA/Hamilton/61-S-St-Paul-St-20158/home/12018904,BRIGHT MLS,VALO101552,N,Y,39.1329053,-77.6635673
PAST SALE,,Single Family Residential,38308 Coles Ct,Hamilton,VA,20158,615000,,2.5,,2268,81893,1982,,271,,,,,https://www.redfin.com/VA/Hamilton/38308-Coles-Ct-20158/home/12018921,,,N,Y,39.1316125,-77.6780617
PAST SALE,December-14-2018,Single Family Residential,17637 Madison Ave,Hamilton,VA,20158,510000,3,4.0,HAMILTON ACRES,2680,185566,1981,1086,190,8,Sold,,,https://www.redfin.com/VA/Hamilton/17637-Madison-Ave-20158/home/12018926,BRIGHT MLS,1000273048,N,Y,39.1329635,-77.6772118
PAST SALE,,Single Family Residential,588 Curry Springs Pl,Hamilton,VA,20158,433000,3,2.0,,2520,20909,1969,,172,,,,,https://www.redfin.com/VA/Hamilton/588-Curry-Springs-Pl-20158/home/12018979,,,N,Y,39.132813,-77.6701884
PAST SALE,May-20-2019,Single Family Residential,5 Burke Cir,Hamilton,VA,20158,410000,2,2.0,BUR-WIL HEIGHTS,1805,15246,1958,929,227,,Sold,,,https://www.redfin.com/VA/Hamilton/5-Burke-Cir-20158/home/12019152,BRIGHT MLS,VALO380382,N,Y,39.1339383,-77.6683542
PAST SALE,August-27-2021,Single Family Residential,4 Hamilton Terrace Dr,Hamilton,VA,20158,500000,5,2.0,HAMILTON TERRACE,1920,10019,1976,99,260,,Sold,,,https://www.redfin.com/VA/Hamilton/4-Hamilton-Terrace-Dr-20158/home/12019179,BRIGHT MLS,VALO2002470,N,Y,39.133348,-77.6662068
PAST SALE,October-9-2020,Single Family Residential,17559 Deavers Ct,Hamilton,VA,20158,550000,4,2.5,FRANCIS DIVISION,2173,14810,1994,421,253,5,Sold,,,https://www.redfin.com/VA/Hamilton/17559-Deavers-Ct-20158/home/12018989,BRIGHT MLS,VALO417318,N,Y,39.1309806,-77.6691595
PAST SALE,August-17-2021,Single Family Residential,17542 Deavers Ct,Hamilton,VA,20158,685000,4,2.5,FRANCIS DIVISION,3110,21344,1992,109,220,5,Sold,,,https://www.redfin.com/VA/Hamilton/17542-Deavers-Ct-20158/home/12018992,BRIGHT MLS,VALO2001468,N,Y,39.1322283,-77.6699647
PAST SALE,August-31-2020,Single Family Residential,578 Curry Springs Pl,Hamilton,VA,20158,367000,3,1.5,FRANCIS DIVISION,1176,14810,1969,460,312,,Sold,,,https://www.redfin.com/VA/Hamilton/578-Curry-Springs-Pl-20158/home/12019007,BRIGHT MLS,VALO417030,N,Y,39.1323028,-77.6680411
PAST SALE,November-19-2020,Single Family Residential,17574 Deavers Ct,Hamilton,VA,20158,651000,4,3.5,FRANCIS DIVISION,3305,20473,1989,380,197,5,Sold,,,https://www.redfin.com/VA/Hamilton/17574-Deavers-Ct-20158/home/12019009,BRIGHT MLS,VALO422850,N,Y,39.1304861,-77.6679069
PAST SALE,April-29-2020,Single Family Residential,24 Hamilton Terrace Dr,Hamilton,VA,20158,439000,3,3.0,HAMILTON TERRACE,1472,10019,1975,584,298,,Sold,,,https://www.redfin.com/VA/Hamilton/24-Hamilton-Terrace-Dr-20158/home/12019013,BRIGHT MLS,VALO402684,N,Y,39.1327146,-77.6677726
PAST SALE,February-26-2021,Single Family Residential,18 Hamilton Terrace Dr,Hamilton,VA,20158,505500,3,3.0,HAMILTON TERRACE,2217,10890,1975,281,228,,Sold,,,https://www.redfin.com/VA/Hamilton/18-Hamilton-Terrace-Dr-20158/home/12019161,BRIGHT MLS,VALO429002,N,Y,39.1333393,-77.6679963
PAST SALE,February-19-2020,Single Family Residential,17578 Coachman Dr,Hamilton,VA,20158,560000,5,3.5,FRANCIS DIVISION,3318,25700,1993,654,169,5,Sold,,,https://www.redfin.com/VA/Hamilton/17578-Coachman-Dr-20158/home/12019025,BRIGHT MLS,VALO399062,N,Y,39.1306156,-77.667623
PAST SALE,January-8-2021,Single Family Residential,17576 Coachman Dr,Hamilton,VA,20158,585000,5,3.5,NCIS DIVISION,3105,23522,1993,330,188,5,Sold,,,https://www.redfin.com/VA/Hamilton/17576-Coachman-Dr-20158/home/12019027,BRIGHT MLS,VALO426604,N,Y,39.1305362,-77.6668779
PAST SALE,July-10-2020,Single Family Residential,60 S Rogers St,Hamilton,VA,20158,575000,3,2.5,TOWN OF HAMILTON,2328,21780,1890,512,247,,Sold,,,https://www.redfin.com/VA/Hamilton/60-S-Rogers-St-20158/home/12019181,BRIGHT MLS,VALO413148,N,Y,39.133611,-77.66567
PAST SALE,February-19-2019,Single Family Residential,83 S Rogers St,Hamilton,VA,20158,435000,3,3.0,HAMILTON TERRACE,2640,13939,1979,1019,165,,Sold,,,https://www.redfin.com/VA/Hamilton/83-S-Rogers-St-20158/home/12019038,BRIGHT MLS,VALO220402,N,Y,39.1317573,-77.6659384
PAST SALE,May-1-2020,Single Family Residential,80 S Rogers St,Hamilton,VA,20158,435000,3,3.0,HAMILTON TERRACE,1994,10890,1986,582,218,,Sold,,,https://www.redfin.com/VA/Hamilton/80-S-Rogers-St-20158/home/12019042,BRIGHT MLS,VALO406004,N,Y,39.132749,-77.6658489
PAST SALE,March-15-2019,Single Family Residential,17331 Westham Estates Ct,Hamilton,VA,20158,845000,5,5.5,HARMONY VISTA ESTATES,6907,83200,2014,995,122,82,Sold,,,https://www.redfin.com/VA/Hamilton/17331-Westham-Estates-Ct-20158/home/56518915,BRIGHT MLS,1010015630,N,Y,39.137749,-77.675936
PAST SALE,March-27-2019,Single Family Residential,17339 Westham Estates Ct,Hamilton,VA,20158,719900,4,5.5,HARMONY VISTA,6648,55657,2018,983,108,78,Sold,,,https://www.redfin.com/VA/Hamilton/17339-Westham-Estates-Ct-20158/home/56518917,BRIGHT MLS,1006153304,N,Y,39.1367341,-77.6755418
PAST SALE,February-10-2021,Townhouse,24 Sydnor St,Hamilton,VA,20158,289900,3,1.5,WAVERLY PARK,1692,,1973,297,171,,Sold,,,https://www.redfin.com/VA/Hamilton/24-Sydnor-St-20158/home/12019275,BRIGHT MLS,VALO423630,N,Y,39.1368154,-77.6683878
PAST SALE,September-30-2019,Single Family Residential,17310 Westham Estates Ct,Hamilton,VA,20158,799900,4,4.5,HARMONY VISTA ESTATES,5044,202118,2017,796,159,78,Sold,,,https://www.redfin.com/VA/Hamilton/17310-Westham-Estates-Ct-20158/home/56518919,BRIGHT MLS,VALO384652,N,Y,39.1381914,-77.6746238
PAST SALE,,Single Family Residential,60 N Reid St,Hamilton,VA,20158,385000,,1.5,,1125,23522,1985,,342,,,,,https://www.redfin.com/VA/Hamilton/60-N-Reid-St-20158/home/12019212,,,N,Y,39.137988,-77.672726
PAST SALE,December-14-2018,Townhouse,51 Sydnor St,Hamilton,VA,20158,270000,3,2.5,WAVERLY PARK,1870,13939,1973,1086,144,,Sold,,,https://www.redfin.com/VA/Hamilton/51-Sydnor-St-20158/home/12019263,BRIGHT MLS,1007547536,N,Y,39.1376964,-77.6686674
PAST SALE,September-9-2021,Single Family Residential,12 S Hughes St,Hamilton,VA,20158,475000,4,2.0,TAYLORS SUBDIVISION,1554,32670,1950,86,306,,Sold,,,https://www.redfin.com/VA/Hamilton/12-S-Hughes-St-20158/home/12019219,BRIGHT MLS,VALO432358,N,Y,39.1358767,-77.6722463
PAST SALE,June-28-2019,Single Family Residential,353 W Colonial Hwy,Hamilton,VA,20158,715000,5,3.5,TOWN OF HAMILTON,3367,65776,1850,890,212,,Sold,,,https://www.redfin.com/VA/Hamilton/353-W-Colonial-Hwy-20158/home/14367581,BRIGHT MLS,VALO268548,N,Y,39.1361294,-77.671892
PAST SALE,May-29-2019,Single Family Residential,331 W Colonial Hwy,Hamilton,VA,20158,326000,4,1.5,TOWN OF HAMILTON,1310,20038,1890,920,249,,Sold,,,https://www.redfin.com/VA/Hamilton/331-W-Colonial-Hwy-20158/home/12019224,BRIGHT MLS,VALO354760,N,Y,39.1360421,-77.6711726
PAST SALE,April-1-2021,Single Family Residential,336 W Colonial Hwy,Hamilton,VA,20158,730000,4,2.5,TOWN OF HAMILTON,3216,82764,1890,247,227,,Sold,,,https://www.redfin.com/VA/Hamilton/336-W-Colonial-Hwy-20158/home/12019226,BRIGHT MLS,VALO432062,N,Y,39.1365323,-77.6712621
PAST SALE,May-28-2021,Single Family Residential,17 N Ivandale St,Hamilton,VA,20158,650000,3,3.5,MIGLIARA DIVISION,2992,20038,1990,190,217,,Sold,,,https://www.redfin.com/VA/Hamilton/17-N-Ivandale-St-20158/home/12019232,BRIGHT MLS,VALO434238,N,Y,39.1365872,-77.6702779
PAST SALE,August-7-2020,Townhouse,19 Sydnor St,Hamilton,VA,20158,300000,3,2.5,WAVERLY PARK,1870,3049,1973,484,160,,Sold,,,https://www.redfin.com/VA/Hamilton/19-Sydnor-St-20158/home/12019248,BRIGHT MLS,VALO414816,N,Y,39.1367423,-77.6690141
PAST SALE,December-31-2020,Single Family Residential,69 S Rogers St,Hamilton,VA,20158,450000,3,3.0,HAMILTON TERRACE,1765,10890,1975,338,255,,Sold,,,https://www.redfin.com/VA/Hamilton/69-S-Rogers-St-20158/home/12019184,BRIGHT MLS,VALO423452,N,Y,39.1331369,-77.6653568
PAST SALE,September-25-2019,Single Family Residential,102 N Rogers St,Hamilton,VA,20158,345000,3,3.0,TOWN OF HAMILTON,1192,10890,1800,801,289,,Sold,,,https://www.redfin.com/VA/Hamilton/102-N-Rogers-St-20158/home/12019194,BRIGHT MLS,VALO392638,N,Y,39.1369806,-77.6634778
PAST SALE,January-5-2021,Single Family Residential,104 Peach Tree Ct,Hamilton,VA,20158,540000,4,2.5,ILTON KNOLLS,2937,11326,1977,333,184,16,Sold,,,https://www.redfin.com/VA/Hamilton/104-Peach-Tree-Ct-20158/home/12019195,BRIGHT MLS,VALO426708,N,Y,39.1364639,-77.6616435
PAST SALE,July-6-2020,Single Family Residential,106 Peach Tree Ct,Hamilton,VA,20158,465500,3,2.0,HAMILTON KNOLLS,1496,11326,1979,516,311,16,Sold,,,https://www.redfin.com/VA/Hamilton/106-Peach-Tree-Ct-20158/home/12019196,BRIGHT MLS,VALO408990,N,Y,39.1363102,-77.6613303
PAST SALE,January-15-2019,Single Family Residential,108 Peach Tree Ct,Hamilton,VA,20158,399000,4,3.5,HAMILTON KNOLLS,2492,10454,1977,1054,160,15,Sold,,,https://www.redfin.com/VA/Hamilton/108-Peach-Tree-Ct-20158/home/12019197,BRIGHT MLS,1002226568,N,Y,39.136126,-77.6611066
PAST SALE,May-23-2019,Single Family Residential,102 Peach Tree Ct,Hamilton,VA,20158,445000,4,3.0,HAMILTON KNOLLS,2600,10019,1975,926,171,15,Sold,,,https://www.redfin.com/VA/Hamilton/102-Peach-Tree-Ct-20158/home/12019198,BRIGHT MLS,VALO370264,N,Y,39.1366514,-77.6611514
PAST SALE,March-18-2020,Single Family Residential,300 Orchard Cir,Hamilton,VA,20158,451000,3,3.0,HAMILTON KNOLLS,1885,14375,1977,626,239,16,Sold,,,https://www.redfin.com/VA/Hamilton/300-Orchard-Cir-20158/home/12019201,BRIGHT MLS,VALO404278,N,Y,39.1359323,-77.6607934
PAST SALE,August-7-2020,Single Family Residential,17371 Harmony Vista Dr,Hamilton,VA,20158,785000,4,4.5,HARMONY VISTA ESTATES,5244,65340,2017,484,150,89,Sold,,,https://www.redfin.com/VA/Hamilton/17371-Harmony-Vista-Dr-20158/home/56518910,BRIGHT MLS,VALO413262,N,Y,39.1366776,-77.6787522
PAST SALE,December-11-2020,Single Family Residential,17356 Harmony Vista Dr,Hamilton,VA,20158,853125,4,4.5,HARMONY VISTA ESTATES,5170,73181,2017,358,165,89,Sold,,,https://www.redfin.com/VA/Hamilton/17356-Harmony-Vista-Dr-20158/home/56518911,BRIGHT MLS,VALO424870,N,Y,39.1367215,-77.6771567
PAST SALE,October-4-2019,Single Family Residential,17310 Harmony Vista Dr,Hamilton,VA,20158,826000,5,4.5,HARMONY VISTA ESTATES,6485,62291,2014,792,127,72,Sold,,,https://www.redfin.com/VA/Hamilton/17310-Harmony-Vista-Dr-20158/home/56518913,BRIGHT MLS,VALO388216,N,Y,39.1383434,-77.6773992
PAST SALE,November-2-2020,Single Family Residential,82 N Laycock St,Hamilton,VA,20158,390000,2,1.0,TOWN OF HAMILTON,744,28750,1111,397,524,,Sold,,,https://www.redfin.com/VA/Hamilton/82-N-Laycock-St-20158/home/12019378,BRIGHT MLS,VALO421608,N,Y,39.1387149,-77.6650884
PAST SALE,July-12-2019,Single Family Residential,38274 Alfalfa Ct,Hamilton,VA,20158,682500,4,4.5,FAWN MEADOW,5735,53579,2006,876,119,,Sold,,,https://www.redfin.com/VA/Hamilton/38274-Alfalfa-Ct-20158/home/12101689,BRIGHT MLS,VALO382196,N,Y,39.1214755,-77.6806562
PAST SALE,October-29-2020,Single Family Residential,17939 Taylor Rd,Hamilton,VA,20158,1155000,5,6.0,FAWN MEADOW,6575,141134,2007,401,176,,Sold,,,https://www.redfin.com/VA/Hamilton/17939-Taylor-Rd-20158/home/14367448,BRIGHT MLS,VALO418532,N,Y,39.1206845,-77.6796274
PAST SALE,May-25-2021,Single Family Residential,38392 Midnight Sky Pl,Hamilton,VA,20158,1070000,4,4.5,FAWN MEADOW,5772,135036,2005,193,185,,Sold,,,https://www.redfin.com/VA/Hamilton/38392-Midnight-Sky-Pl-20158/home/12082731,BRIGHT MLS,VALO435922,N,Y,39.120892,-77.6751988
PAST SALE,May-13-2021,Single Family Residential,38444 Midnight Sky Pl,Hamilton,VA,20158,861000,4,3.5,FAWN MEADOW,3869,135907,2005,205,223,,Sold,,,https://www.redfin.com/VA/Hamilton/38444-Midnight-Sky-Pl-20158/home/12082733,BRIGHT MLS,VALO435710,N,Y,39.1213989,-77.6739462
PAST SALE,June-19-2019,Single Family Residential,17969 Battle Peak Ct,Hamilton,VA,20158,715000,4,3.5,BATTLE PEAK FARM,3614,136778,1998,899,198,,Sold,,,https://www.redfin.com/VA/Hamilton/17969-Battle-Peak-Ct-20158/home/12019381,BRIGHT MLS,VALO383064,N,Y,39.1198795,-77.6713516
PAST SALE,March-5-2021,Single Family Residential,17814 Julie Ann Ct,Hamilton,VA,20158,907500,5,3.5,STONE EDEN FARM,4356,153331,2000,274,208,,Sold,,,https://www.redfin.com/VA/Hamilton/17814-Julie-Ann-Ct-20158/home/12044841,BRIGHT MLS,VALO430574,N,Y,39.1248188,-77.6759592
PAST SALE,November-19-2020,Single Family Residential,17850 Battle Peak Ct,Hamilton,VA,20158,710000,4,3.5,BATTLE PEAK FARM,3316,133294,1999,380,214,,Sold,,,https://www.redfin.com/VA/Hamilton/17850-Battle-Peak-Ct-20158/home/12019401,BRIGHT MLS,VALO422932,N,Y,39.123059,-77.6703674
PAST SALE,June-28-2019,Single Family Residential,38238 Stone Eden Dr,Hamilton,VA,20158,809000,5,4.5,STONE EDEN FARM,4978,138085,2002,890,163,,Sold,,,https://www.redfin.com/VA/Hamilton/38238-Stone-Eden-Dr-20158/home/12063203,BRIGHT MLS,VALO381348,N,Y,39.126787,-77.6808799
PAST SALE,February-17-2021,Single Family Residential,38235 Stone Eden Dr,Hamilton,VA,20158,880000,5,4.5,STONE EDEN FARM,4769,138956,2002,290,185,,Sold,,,https://www.redfin.com/VA/Hamilton/38235-Stone-Eden-Dr-20158/home/12063205,BRIGHT MLS,VALO431042,N,Y,39.1259446,-77.6801194
PAST SALE,July-24-2020,Single Family Residential,33 N Laycock St,Hamilton,VA,20158,450000,3,2.0,TOWN OF HAMILTON,1554,11761,1880,498,290,,Sold,,,https://www.redfin.com/VA/Hamilton/33-N-Laycock-St-20158/home/12019301,BRIGHT MLS,VALO411262,N,Y,39.1362346,-77.6666095
PAST SALE,October-21-2020,Single Family Residential,132 W Virginia Ave,Hamilton,VA,20158,800000,5,4.0,TOWN OF HAMILTON,4056,26572,2016,409,197,,Sold,,,https://www.redfin.com/VA/Hamilton/132-W-Virginia-Ave-20158/home/12019317,BRIGHT MLS,VALO421090,N,Y,39.1374861,-77.6655805
PAST SALE,May-15-2020,Single Family Residential,70 N Laycock St,Hamilton,VA,20158,495000,3,2.5,TOWN OF HAMILTON,1792,33106,1940,568,276,,Sold,,,https://www.redfin.com/VA/Hamilton/70-N-Laycock-St-20158/home/12019319,BRIGHT MLS,VALO405880,N,Y,39.1381029,-77.6653568
PAST SALE,July-23-2021,Single Family Residential,122 W Virginia Ave,Hamilton,VA,20158,415000,3,1.0,TOWN OF HAMILTON,1422,30056,1962,134,292,,Sold,,,https://www.redfin.com/VA/Hamilton/122-W-Virginia-Ave-20158/home/12019322,BRIGHT MLS,VALO439778,N,Y,39.1374896,-77.6648647
PAST SALE,November-12-2020,Single Family Residential,13 Ladysmith Ct,Hamilton,VA,20158,600000,4,2.5,LADYSMITH COURT,3432,6970,2013,387,175,31,Sold,,,https://www.redfin.com/VA/Hamilton/13-Ladysmith-Ct-20158/home/16883940,BRIGHT MLS,VALO422206,N,Y,39.1365349,-77.6645515
PAST SALE,June-15-2020,Single Family Residential,38821 Ridge Ct,Hamilton,VA,20158,1325000,5,6.0,WINODEE SUBDIVISION,9519,357192,2005,537,139,,Sold,,,https://www.redfin.com/VA/Hamilton/38821-Ridge-Ct-20158/home/12019327,BRIGHT MLS,VALO403782,N,Y,39.1391054,-77.6614422
PAST SALE,May-20-2020,Single Family Residential,38261 Valley Ridge Pl,Hamilton,VA,20158,988000,5,5.5,HARMONY VISTA ESTATES,7522,147233,2016,563,131,78,Sold,,,https://www.redfin.com/VA/Hamilton/38261-Valley-Ridge-Pl-20158/home/56518890,BRIGHT MLS,VALO402102,N,Y,39.1399566,-77.6798995
PAST SALE,June-4-2019,Single Family Residential,17295 Harmony Vista Dr,Hamilton,VA,20158,769000,5,5.5,HARMONY VISTA ESTATES,4522,73181,2016,914,170,78,Sold,,,https://www.redfin.com/VA/Hamilton/17295-Harmony-Vista-Dr-20158/home/56518895,BRIGHT MLS,VALO356496,N,Y,39.1387806,-77.6786466
PAST SALE,,Single Family Residential,17219 Westfield Pl,Hamilton,VA,20158,1075000,,6.0,,6419,124146,2005,,167,,,,,https://www.redfin.com/VA/Hamilton/17219-Westfield-Pl-20158/home/12082715,,,N,Y,39.1412042,-77.6730068
PAST SALE,December-30-2020,Single Family Residential,17760 Julie Ann Ct,Hamilton,VA,20158,867000,4,3.5,STONE EDEN FARM,4173,145490,2000,339,208,,Sold,,,https://www.redfin.com/VA/Hamilton/17760-Julie-Ann-Ct-20158/home/12044840,BRIGHT MLS,VALO425632,N,Y,39.1260408,-77.6768986
PAST SALE,December-16-2019,Single Family Residential,17233 Ivandale Rd,Hamilton,VA,20158,679000,4,3.5,TOWN OF HAMILTON,3647,44431,2013,719,186,,Sold,,,https://www.redfin.com/VA/Hamilton/17233-Ivandale-Rd-20158/home/12019351,BRIGHT MLS,VALO397888,N,Y,39.1401562,-77.6703226
PAST SALE,November-9-2020,Single Family Residential,252 Maryland Ave,Hamilton,VA,20158,442500,3,2.0,TOWN OF HAMILTON,1728,43560,1987,390,256,,Sold,,,https://www.redfin.com/VA/Hamilton/252-Maryland-Ave-20158/home/12019368,BRIGHT MLS,VALO421318,N,Y,39.1388682,-77.66652
PAST SALE,March-24-2020,Single Family Residential,232 Maryland Ave,Hamilton,VA,20158,675000,4,4.5,TOWN OF HAMILTON,4682,43560,2004,620,144,,Sold,,,https://www.redfin.com/VA/Hamilton/232-Maryland-Ave-20158/home/12019374,BRIGHT MLS,VALO402768,N,Y,39.1384968,-77.66567
PAST SALE,May-28-2020,Single Family Residential,38409 Stone Eden Dr,Hamilton,VA,20158,714900,4,2.5,STONE EDEN FARM,3100,134165,2000,555,231,,Sold,,,https://www.redfin.com/VA/Hamilton/38409-Stone-Eden-Dr-20158/home/12044844,BRIGHT MLS,VALO405680,N,Y,39.1262871,-77.6747067
PAST SALE,August-26-2020,Single Family Residential,283 S Saint Paul St,Hamilton,VA,20158,773800,4,3.5,BATTLE PEAK FARM,4250,60548,1990,465,182,,Sold,,,https://www.redfin.com/VA/Hamilton/283-S-St-Paul-St-20158/home/12019413,BRIGHT MLS,VALO417310,N,Y,39.127358,-77.670059
PAST SALE,,Single Family Residential,17266 Harmony Vista Dr,Hamilton,VA,20158,835000,,4.5,,4948,62726,2017,,169,,,,,https://www.redfin.com/VA/Hamilton/17266-Harmony-Vista-Dr-20158/home/56518898,,,N,Y,39.1391892,-77.6772845
PAST SALE,March-31-2021,Vacant Land,Lot 0 - Hamilton Station Rd,Hamilton,VA,20158,650000,,,Hamilton,,764478,,248,,,Sold,,,https://www.redfin.com/VA/Hamilton/Hamilton-Station-Rd-20158/home/146412695,BRIGHT MLS,VALO430612,N,Y,39.14888063,-77.64322815
PAST SALE,May-8-2019,Single Family Residential,41 S Kerr St,Hamilton,VA,20158,485000,3,2.5,TOWN OF HAMILTON,1850,19602,1947,941,262,,Sold,,,https://www.redfin.com/VA/Hamilton/41-S-Kerr-St-20158/home/12018908,BRIGHT MLS,VALO352688,N,Y,39.1326383,-77.6618225
PAST SALE,March-2-2020,Single Family Residential,17614 Bates Dr,Hamilton,VA,20158,580000,4,2.5,HAMILTON ACRES,2696,130680,1987,642,215,8,Sold,,,https://www.redfin.com/VA/Hamilton/17614-Bates-Dr-20158/home/12019417,BRIGHT MLS,VALO397700,N,Y,39.129577,-77.6796274
PAST SALE,October-8-2021,Single Family Residential,17659 Hamilton Heights Ct,Hamilton,VA,20158,785000,4,3.5,RADFORD SUBDIVISION,4275,12197,2007,57,184,50,Sold,,,https://www.redfin.com/VA/Hamilton/17659-Hamilton-Heights-Ct-20158/home/14365190,BRIGHT MLS,VALO2007432,N,Y,39.1278487,-77.6722686
PAST SALE,June-3-2021,Single Family Residential,38372 Stone Eden Dr,Hamilton,VA,20158,860000,4,4.0,STONE EDEN FARM,4426,141570,2000,184,194,,Sold,,,https://www.redfin.com/VA/Hamilton/38372-Stone-Eden-Dr-20158/home/12044850,BRIGHT MLS,VALO435926,N,Y,39.1275521,-77.6760487
PAST SALE,April-29-2020,Single Family Residential,17625 Evers Ct,Hamilton,VA,20158,476000,3,3.0,HAMILTON ACRES,2794,40511,1980,584,170,8,Sold,,,https://www.redfin.com/VA/Hamilton/17625-Evers-Ct-20158/home/12019427,BRIGHT MLS,VALO405644,N,Y,39.1292307,-77.6737673
