SALE TYPE,SOLD DATE,PROPERTY TYPE,ADDRESS,CITY,STATE OR PROVINCE,ZIP OR POSTAL CODE,PRICE,BEDS,BATHS,LOCATION,SQUARE FEET,LOT SIZE,YEAR BUILT,DAYS ON MARKET,$/SQUARE FEET,HOA/MONTH,STATUS,NEXT OPEN HOUSE START TIME,NEXT OPEN HOUSE END TIME,URL (SEE https://www.redfin.com/buy-a-home/comparative-market-analysis FOR INFO ON PRICING),SOURCE,MLS#,FAVORITE,INTERESTED,LATITUDE,LONGITUDE
MLS Listing,,Single Family Residential,207 Pike Rd,Pasadena,MD,21122,475000,4,2.0,LONG POINT,1992,15800,1962,4,238,,Active,,,https://www.redfin.com/MD/Pasadena/207-Pike-Rd-21122/home/10257895,BRIGHT MLS,MDAA2014056,N,Y,39.0979157,-76.4471169
MLS Listing,,Single Family Residential,7772 Bridge St,Pasadena,MD,21122,399900,4,3.0,GREEN HAVEN,1068,8264,1999,4,374,,Active,December-12-2021 01:00 PM,December-12-2021 03:00 PM,https://www.redfin.com/MD/Pasadena/7772-Bridge-St-21122/home/10245328,BRIGHT MLS,MDAA2015446,N,Y,39.1440153,-76.5435732
PAST SALE,July-27-2021,Single Family Residential,140 Wileys Ln,Pasadena,MD,21122,446000,3,3.0,LONG POINT,1632,15000,1972,131,273,,Sold,,,https://www.redfin.com/MD/Pasadena/140-Wileys-Ln-21122/home/10257956,BRIGHT MLS,MDAA2000732,N,Y,39.1024216,-76.4545237
PAST SALE,December-12-2019,Single Family Residential,7714 Grace Ave,Pasadena,MD,21122,310000,3,3.0,GREEN HAVEN,1908,11282,1992,724,162,,Sold,,,https://www.redfin.com/MD/Pasadena/7714-Grace-Ave-21122/home/10245018,BRIGHT MLS,MDAA397354,N,Y,39.1429908,-76.5431558
PAST SALE,February-12-2021,Townhouse,7750 Middlegate Ct,Pasadena,MD,21122,280000,3,2.0,QUEENS PARK,1722,6963,1980,296,163,,Sold,,,https://www.redfin.com/MD/Pasadena/7750-Middlegate-Ct-21122/home/10275664,BRIGHT MLS,MDAA454340,N,Y,39.142618,-76.535103
PAST SALE,July-15-2019,Townhouse,762 Willowby Run,Pasadena,MD,21122,250000,3,2.5,DEERFIELD,1446,1728,1989,874,173,120,Sold,,,https://www.redfin.com/MD/Pasadena/762-Willowby-Run-21122/unit-762/home/10221947,BRIGHT MLS,MDAA399980,N,Y,39.1206109,-76.528941
PAST SALE,May-22-2020,Single Family Residential,7866 June Dr,Pasadena,MD,21122,480000,5,4.0,RIVIERA ISLE,2768,50930,1965,562,173,,Sold,,,https://www.redfin.com/MD/Pasadena/7866-June-Dr-21122/home/10278661,BRIGHT MLS,MDAA429122,N,Y,39.136451,-76.5189429
PAST SALE,October-23-2020,Single Family Residential,3552 Brickwall Ln,Pasadena,MD,21122,333000,4,3.0,CHESTERFIELD,1960,6678,1987,408,170,,Sold,,,https://www.redfin.com/MD/Pasadena/3552-Brickwall-Ln-21122/home/10209878,BRIGHT MLS,MDAA444574,N,Y,39.1280891,-76.5257233
PAST SALE,March-31-2021,Single Family Residential,1849 Choptank Rd,Pasadena,MD,21122,460000,4,2.5,GREEN GABLES,2206,21000,1998,249,209,,Sold,,,https://www.redfin.com/MD/Pasadena/1849-Choptank-Rd-21122/home/10239888,BRIGHT MLS,MDAA459598,N,Y,39.1156238,-76.4445243
PAST SALE,July-8-2019,Single Family Residential,7679 Water Oak Point Rd,Pasadena,MD,21122,582000,4,2.5,CHANDLER POINT,2996,31122,1989,881,194,,Sold,,,https://www.redfin.com/MD/Pasadena/7679-Water-Oak-Point-Rd-21122/home/10197745,BRIGHT MLS,MDAA400226,N,Y,39.1471856,-76.5105018
PAST SALE,May-22-2020,Single Family Residential,7965 Belhaven Ave,Pasadena,MD,21122,380000,4,1.5,BELHAVEN BEACH,1646,64100,1976,562,231,,Sold,,,https://www.redfin.com/MD/Pasadena/7965-Belhaven-Ave-21122/home/10155928,BRIGHT MLS,MDAA431378,N,Y,39.132908,-76.479011
PAST SALE,December-14-2020,Townhouse,8355 Daydream Cres,Pasadena,MD,21122,340000,2,3.0,CREEKSTONE VILLAGE,1837,1440,2018,356,185,80,Sold,,,https://www.redfin.com/MD/Pasadena/8355-Daydream-Cres-21122/home/110084212,BRIGHT MLS,MDAA451276,N,Y,39.1228085,-76.5797298
PAST SALE,June-26-2019,Single Family Residential,7702 Princess Pl,Pasadena,MD,21122,365000,3,3.0,STONEYBROOKE VILLAGE,1677,7905,1988,893,218,,Sold,,,https://www.redfin.com/MD/Pasadena/7702-Princess-Pl-21122/home/10297162,BRIGHT MLS,MDAA394844,N,Y,39.147578696,-76.5340637
PAST SALE,March-25-2019,Single Family Residential,8308 Loblolly Ln,Pasadena,MD,21122,508500,4,2.5,BELL FOREST,2712,48302,1985,986,188,8,Sold,,,https://www.redfin.com/MD/Pasadena/8308-Loblolly-Ln-21122/home/10153309,BRIGHT MLS,MDAA374240,N,Y,39.1182625,-76.502913
PAST SALE,July-20-2021,Single Family Residential,8579 Main Ave,Pasadena,MD,21122,366000,5,2.0,ROCK CREEK ESTATES,1688,5150,1972,138,217,,Sold,,,https://www.redfin.com/MD/Pasadena/8579-Main-Ave-21122/home/10283381,BRIGHT MLS,MDAA470672,N,Y,39.1604139,-76.5041778
PAST SALE,May-21-2021,Single Family Residential,7804 Bodkin View Dr,Pasadena,MD,21122,275000,2,1.0,BAYSIDE BEACH,924,7500,1955,198,298,,Sold,,,https://www.redfin.com/MD/Pasadena/7804-Bodkin-View-Dr-21122/home/10150896,BRIGHT MLS,MDAA465944,N,Y,39.137603,-76.4426834
PAST SALE,June-10-2020,Single Family Residential,1687 Grandview Rd,Pasadena,MD,21122,340000,2,1.5,LONG POINT,1225,7750,1940,543,278,,Sold,,,https://www.redfin.com/MD/Pasadena/1687-Grandview-Rd-21122/home/10257983,BRIGHT MLS,MDAA433270,N,Y,39.0952532,-76.4445333
PAST SALE,May-24-2021,Single Family Residential,7807 Chesapeake Rd,Pasadena,MD,21122,350000,2,1.0,BAYSIDE BEACH,888,15272,1957,195,394,,Sold,,,https://www.redfin.com/MD/Pasadena/7807-Chesapeake-Rd-21122/home/10150572,BRIGHT MLS,MDAA465718,N,Y,39.1394159,-76.4463774
PAST SALE,March-14-2020,Single Family Residential,1260 Hillside Rd,Pasadena,MD,21122,565000,4,3.0,ROCK HILL,2004,8554,1952,631,282,,Sold,,,https://www.redfin.com/MD/Pasadena/1260-Hillside-Rd-21122/home/10281625,BRIGHT MLS,MDAA421860,N,Y,39.1444249,-76.5203963
PAST SALE,July-31-2020,Townhouse,216 Quiet Ridge Ct,Pasadena,MD,21122,290000,4,3.5,ASPEN PARK,1848,3600,1995,492,157,46,Sold,,,https://www.redfin.com/MD/Pasadena/216-Quiet-Ridge-Ct-21122/home/10139791,BRIGHT MLS,MDAA434572,N,Y,39.1368882,-76.557389
PAST SALE,May-28-2021,Single Family Residential,194 Oak Dr,Pasadena,MD,21122,435000,4,2.5,CHELSEA BEACH,1244,14700,1983,191,350,,Sold,,,https://www.redfin.com/MD/Pasadena/194-Oak-Dr-21122/home/10204198,BRIGHT MLS,MDAA463550,N,Y,39.104936,-76.527115
PAST SALE,August-26-2019,Townhouse,8103 Gray Stone Ln,Pasadena,MD,21122,285000,3,2.5,FARMINGTON VLGE SCHRAMM',1440,1600,1998,832,198,86,Sold,,,https://www.redfin.com/MD/Pasadena/8103-Gray-Stone-Ln-21122/home/10229897,BRIGHT MLS,MDAA408500,N,Y,39.1235112,-76.5556922
PAST SALE,,Townhouse,325 Cool Breeze Ct,Pasadena,MD,21122,252900,,1.5,,1700,2000,1989,,149,,,,,https://www.redfin.com/MD/Pasadena/325-Cool-Breeze-Ct-21122/home/10138009,,,N,Y,39.134056,-76.558725
PAST SALE,October-29-2021,Single Family Residential,8301 Fairwood Dr,Pasadena,MD,21122,610000,4,2.5,FAIRWOOD,2152,23300,1978,37,283,4,Sold,,,https://www.redfin.com/MD/Pasadena/8301-Fairwood-Dr-21122/home/10231423,BRIGHT MLS,MDAA2005774,N,Y,39.1185012,-76.4893152
PAST SALE,June-25-2019,Single Family Residential,7735 Jones Dr,Pasadena,MD,21122,395000,4,2.5,ROCK CREEK PARK,2346,18750,1968,894,168,,Sold,,,https://www.redfin.com/MD/Pasadena/7735-Jones-Dr-21122/home/10280953,BRIGHT MLS,MDAA398856,N,Y,39.1455871,-76.487734
PAST SALE,January-8-2021,Townhouse,8361 Daydream Cres,Pasadena,MD,21122,360000,2,2.5,CREEKSTONE VILLAGE,1892,1776,2019,331,190,80,Sold,,,https://www.redfin.com/MD/Pasadena/8361-Daydream-Cres-21122/home/110084376,BRIGHT MLS,MDAA453728,N,Y,39.1227462,-76.5798772
PAST SALE,April-14-2021,Single Family Residential,7782 Shore Rd,Pasadena,MD,21122,346000,3,2.0,GREEN HAVEN,1084,11761,2009,235,319,,Sold,,,https://www.redfin.com/MD/Pasadena/7782-W-Shore-Rd-21122/home/10241561,BRIGHT MLS,MDAA460906,N,Y,39.139657,-76.5539541
PAST SALE,October-4-2019,Single Family Residential,7710 Grace Ave,Pasadena,MD,21122,305000,4,2.0,GREEN HAVEN,1887,5009,1992,793,162,,Sold,,,https://www.redfin.com/MD/Pasadena/7710-Grace-Ave-21122/home/10245010,BRIGHT MLS,MDAA404812,N,Y,39.143244,-76.543239
PAST SALE,June-11-2021,Single Family Residential,3460 Marble Arch Dr,Pasadena,MD,21122,350000,4,2.0,CHESTERFIELD,2024,4320,1986,177,173,34,Sold,,,https://www.redfin.com/MD/Pasadena/3460-Marble-Arch-Dr-21122/home/10209929,BRIGHT MLS,MDAA467058,N,Y,39.1287549,-76.5265476
PAST SALE,June-21-2019,Single Family Residential,100 Litton Dale Ln,Pasadena,MD,21122,585000,3,3.5,THE DALES,3262,47281,1988,898,179,,Sold,,,https://www.redfin.com/MD/Pasadena/100-Litton-Dale-Ln-21122/home/10220437,BRIGHT MLS,MDAA377442,N,Y,39.105547976,-76.5653746
PAST SALE,July-2-2020,Townhouse,322 Merrymount Ct,Pasadena,MD,21122,286900,4,3.5,ASPEN PARK,1761,2000,1997,521,163,46,Sold,,,https://www.redfin.com/MD/Pasadena/322-Merrymount-Ct-21122/home/10140244,BRIGHT MLS,MDAA432892,N,Y,39.136336,-76.555258
PAST SALE,June-22-2020,Single Family Residential,752 211th St,Pasadena,MD,21122,315000,3,2.5,GREEN HAVEN,1710,5000,1990,531,184,,Sold,,,https://www.redfin.com/MD/Pasadena/752-211th-St-21122/home/10240997,BRIGHT MLS,MDAA434262,N,Y,39.137801,-76.545466
PAST SALE,August-3-2020,Townhouse,8669 Norwalk Harbour,Pasadena,MD,21122,265000,3,1.5,ELIZABETHS LANDING,1400,2000,1983,489,189,103,Sold,,,https://www.redfin.com/MD/Pasadena/8669-Norwalk-Harbour-21122/home/10226529,BRIGHT MLS,MDAA438454,N,Y,39.150827,-76.527154
PAST SALE,August-27-2021,Single Family Residential,926 Longview Ave,Pasadena,MD,21122,235000,2,1.0,GREEN HAVEN,748,5000,1940,100,314,,Sold,,,https://www.redfin.com/MD/Pasadena/926-Longview-Ave-21122/home/10244318,BRIGHT MLS,MDAA2002850,N,Y,39.1474343,-76.5426232
PAST SALE,August-3-2020,Single Family Residential,7816 Harbor Rd,Pasadena,MD,21122,590000,5,3.5,BAYSIDE BEACH,3677,13500,1940,489,160,,Sold,,,https://www.redfin.com/MD/Pasadena/7816-Harbor-Rd-21122/home/10149864,BRIGHT MLS,MDAA431696,N,Y,39.136712,-76.442486
PAST SALE,January-10-2020,Single Family Residential,7701 Whays Ln,Pasadena,MD,21122,399900,5,3.0,POWHATTAN BEACH,3420,34574,1970,695,117,,Sold,,,https://www.redfin.com/MD/Pasadena/7701-Whays-Ln-21122/home/10273820,BRIGHT MLS,MDAA415838,N,Y,39.1414706,-76.5637692
PAST SALE,October-4-2021,Townhouse,145 Dunlap Rd,Pasadena,MD,21122,275000,3,2.0,ROCK CREEK ESTATES,1159,4500,1971,62,237,,Sold,,,https://www.redfin.com/MD/Pasadena/145-Dunlap-Rd-21122/home/10283022,BRIGHT MLS,MDAA2006276,N,Y,39.157196,-76.506261
PAST SALE,April-20-2020,Single Family Residential,9179 Rolling Meadow Run,Pasadena,MD,21122,480000,4,2.5,HAMPTON CHASE,2396,41818,1990,594,200,7,Sold,,,https://www.redfin.com/MD/Pasadena/9179-Rolling-Meadow-Run-21122/home/10247050,BRIGHT MLS,MDAA418078,N,Y,39.1439742,-76.4762356
PAST SALE,March-12-2021,Single Family Residential,2006 Poplar Ridge Rd,Pasadena,MD,21122,655000,2,3.0,POPLAR RIDGE,1780,11000,1957,268,368,,Sold,,,https://www.redfin.com/MD/Pasadena/2006-Poplar-Ridge-Rd-21122/home/10273538,BRIGHT MLS,MDAA457888,N,Y,39.1303768,-76.4565572
PAST SALE,November-4-2020,Single Family Residential,314 Cockey Dr,Pasadena,MD,21122,741000,3,2.5,LAUREL ACRES,3553,25975,1955,396,209,,Sold,,,https://www.redfin.com/MD/Pasadena/314-Cockey-Dr-21122/home/10255013,BRIGHT MLS,MDAA445234,N,Y,39.09619,-76.5213305
PAST SALE,May-14-2021,Single Family Residential,7851 E Shore Rd,Pasadena,MD,21122,344000,3,1.0,GREEN HAVEN,1212,7875,1972,205,284,,Sold,,,https://www.redfin.com/MD/Pasadena/7851-E-Shore-Rd-21122/home/173935574,BRIGHT MLS,MDAA462316,N,Y,39.1376034,-76.5427841
PAST SALE,July-9-2021,Townhouse,7912 Lupine Ct,Pasadena,MD,21122,329000,2,3.0,PEARMAN'S OVERLOOK AT LI,1877,,2015,149,175,240,Sold,,,https://www.redfin.com/MD/Pasadena/7912-Lupine-Ct-21122/home/18987885,BRIGHT MLS,MDAA471384,N,Y,39.1327091,-76.5728709
PAST SALE,November-6-2020,Townhouse,104 Dark Sky Xing,Pasadena,MD,21122,400000,3,3.0,CREEKSTONE VILLAGE,2454,1600,2014,394,163,69,Sold,,,https://www.redfin.com/MD/Pasadena/104-Dark-Sky-Xing-21122/home/69075144,BRIGHT MLS,MDAA448264,N,Y,39.1276599,-76.584071
PAST SALE,November-15-2021,Single Family Residential,165 Meadow Rd,Pasadena,MD,21122,330000,4,2.0,RIVIERA BEACH,1392,6250,1940,20,237,,Sold,,,https://www.redfin.com/MD/Pasadena/165-Meadow-Rd-21122/home/10280182,BRIGHT MLS,MDAA2011042,N,Y,39.1632927,-76.5150882
PAST SALE,June-10-2021,Townhouse,8011 Apple Valley Dr,Pasadena,MD,21122,356000,3,2.5,APPLEGATE NORTH,2224,2400,2002,178,160,50,Sold,,,https://www.redfin.com/MD/Pasadena/8011-Apple-Valley-Dr-21122/home/10472269,BRIGHT MLS,MDAA466426,N,Y,39.1298004,-76.5141265
PAST SALE,May-17-2019,Single Family Residential,1447 Old Fort Smallwood Rd,Pasadena,MD,21122,590000,6,3.5,BAY'S REACH,4300,16969,2018,933,137,10,Sold,,,https://www.redfin.com/MD/Pasadena/1447-Old-Fort-Smallwood-Rd-21122/home/145991507,BRIGHT MLS,MDAA373928,N,Y,39.1344005,-76.5098583
PAST SALE,September-24-2020,Single Family Residential,251 Meadow Rd,Pasadena,MD,21122,370000,3,2.0,RIVIERA BEACH,1872,10000,1957,437,198,0,Sold,,,https://www.redfin.com/MD/Pasadena/251-Meadow-Rd-21122/home/10280135,BRIGHT MLS,MDAA438060,N,Y,39.1675391,-76.5099694
PAST SALE,May-4-2021,Townhouse,8063 Wolsey Ct,Pasadena,MD,21122,275000,3,2.0,CHESTERFIELD,1260,2669,1987,215,218,60,Sold,,,https://www.redfin.com/MD/Pasadena/8063-Wolsey-Ct-21122/home/10209438,BRIGHT MLS,MDAA463216,N,Y,39.1301844,-76.52077
PAST SALE,July-15-2019,Single Family Residential,759 205th St,Pasadena,MD,21122,337000,5,3.0,GREEN HAVEN,1972,7500,1989,874,171,,Sold,,,https://www.redfin.com/MD/Pasadena/759-205th-St-21122/home/10244723,BRIGHT MLS,MDAA401650,N,Y,39.140946,-76.5471749
PAST SALE,March-22-2019,Single Family Residential,8007 Pine Ridge Rd,Pasadena,MD,21122,276000,3,1.0,SANDY OAKS,918,7000,1992,989,301,,Sold,,,https://www.redfin.com/MD/Pasadena/8007-Pine-Ridge-Rd-21122/home/10284678,BRIGHT MLS,MDAA343962,N,Y,39.1367052,-76.5651915
PAST SALE,September-16-2020,Single Family Residential,828 Swift Rd,Pasadena,MD,21122,650000,4,3.5,LAKE SHORE,3519,59677,2007,445,185,,Sold,,,https://www.redfin.com/MD/Pasadena/828-Swift-Rd-21122/home/10481754,BRIGHT MLS,MDAA441482,N,Y,39.101915,-76.5097569
PAST SALE,March-27-2020,Single Family Residential,771 205th St,Pasadena,MD,21122,325000,5,2.0,GREEN HAVEN,1770,7500,1989,618,184,,Sold,,,https://www.redfin.com/MD/Pasadena/771-205th-St-21122/home/10244698,BRIGHT MLS,MDAA425292,N,Y,39.141289,-76.546234
PAST SALE,October-5-2021,Townhouse,154 Dunlap Rd,Pasadena,MD,21122,205000,3,1.5,ROCK CREEK ESTATES,1159,4500,1971,61,177,,Sold,,,https://www.redfin.com/MD/Pasadena/154-Dunlap-Rd-21122/home/10283513,BRIGHT MLS,MDAA2010120,N,Y,39.157649,-76.506395
PAST SALE,September-17-2019,Single Family Residential,8393 Armstrong Dr,Pasadena,MD,21122,465000,4,2.5,OAK HOLLOW,2156,18858,1985,810,216,,Sold,,,https://www.redfin.com/MD/Pasadena/8393-Armstrong-Dr-21122/home/10267617,BRIGHT MLS,MDAA407322,N,Y,39.1066797,-76.5511261
PAST SALE,April-30-2021,Townhouse,8270 White Star Xing,Pasadena,MD,21122,395000,3,3.0,CREEKSTONE VILLAGE,2328,1600,2018,219,170,79,Sold,,,https://www.redfin.com/MD/Pasadena/8270-White-Star-Xing-21122/home/69075112,BRIGHT MLS,MDAA461566,N,Y,39.125219,-76.582731
PAST SALE,May-22-2020,Single Family Residential,8014 Forest Glen Dr,Pasadena,MD,21122,475000,2,2.0,FOREST GLEN,1206,20008,1952,562,394,,Sold,,,https://www.redfin.com/MD/Pasadena/8014-Forest-Glen-Dr-21122/home/10232148,BRIGHT MLS,MDAA428394,N,Y,39.123518,-76.473012
PAST SALE,December-21-2018,Single Family Residential,7868 Kings Bench Pl,Pasadena,MD,21122,299000,3,2.5,QUEENS PARK,1364,6413,1988,1080,219,1,Sold,,,https://www.redfin.com/MD/Pasadena/7868-Kings-Bench-Pl-21122/home/10276275,BRIGHT MLS,MDAA101486,N,Y,39.138727,-76.5347108
PAST SALE,December-21-2018,Single Family Residential,212 Hickory Point Rd,Pasadena,MD,21122,345000,3,2.0,SYLVAN VIEW ON MAGOTHY,1486,19700,1969,1080,232,,Sold,,,https://www.redfin.com/MD/Pasadena/212-Hickory-Point-Rd-21122/home/10295183,BRIGHT MLS,MDAA100502,N,Y,39.097941,-76.46445
PAST SALE,October-15-2020,Townhouse,320 Merrymount Ct,Pasadena,MD,21122,288000,4,3.5,ASPEN PARK,1920,2000,1997,416,150,46,Sold,,,https://www.redfin.com/MD/Pasadena/320-Merrymount-Ct-21122/home/10140253,BRIGHT MLS,MDAA444680,N,Y,39.136348,-76.555327
PAST SALE,June-1-2021,Single Family Residential,8340 Dock Rd,Pasadena,MD,21122,460000,4,3.0,GREEN GABLES,2216,21600,1989,187,208,,Sold,,,https://www.redfin.com/MD/Pasadena/8340-Dock-Rd-21122/home/10239806,BRIGHT MLS,MDAA457444,N,Y,39.1123479,-76.4506373
PAST SALE,August-9-2019,Single Family Residential,8435 Main Ave,Pasadena,MD,21122,289900,3,1.5,RIVIERA BEACH,1070,7812,1955,849,271,,Sold,,,https://www.redfin.com/MD/Pasadena/8435-Main-Ave-21122/home/10279917,BRIGHT MLS,MDAA403774,N,Y,39.166229,-76.5144509
PAST SALE,August-26-2019,Single Family Residential,8077 Outing Ave,Pasadena,MD,21122,252247,2,2.0,GREEN HAVEN,1107,5000,1987,832,228,,Sold,,,https://www.redfin.com/MD/Pasadena/8077-Outing-Ave-21122/home/10244085,BRIGHT MLS,MDAA408334,N,Y,39.126257,-76.5490146
PAST SALE,September-3-2021,Single Family Residential,7778 Old House Rd,Pasadena,MD,21122,375000,4,3.5,GREEN HAVEN,1990,5500,1994,93,188,,Sold,,,https://www.redfin.com/MD/Pasadena/7778-Old-House-Rd-21122/home/10245290,BRIGHT MLS,MDAA2001618,N,Y,39.1446417,-76.534756
PAST SALE,August-23-2019,Single Family Residential,695 209th St,Pasadena,MD,21122,351500,3,3.5,GREEN HAVEN,2149,5000,2005,835,164,,Sold,,,https://www.redfin.com/MD/Pasadena/695-209th-St-21122/home/11223925,BRIGHT MLS,MDAA405770,N,Y,39.1372519,-76.5493876
PAST SALE,August-8-2019,Townhouse,8101 Gray Stone Ln,Pasadena,MD,21122,285000,3,3.0,FARMINGTON VLGE SCHRAMM',1460,2400,1998,850,195,82,Sold,,,https://www.redfin.com/MD/Pasadena/8101-Gray-Stone-Ln-21122/home/10229894,BRIGHT MLS,MDAA395320,N,Y,39.1235918,-76.5556851
PAST SALE,May-24-2021,Single Family Residential,682 Wise Ave,Pasadena,MD,21122,350000,4,3.0,GREEN HAVEN,1938,8553,1999,195,181,,Sold,,,https://www.redfin.com/MD/Pasadena/682-Wise-Ave-21122/home/10246125,BRIGHT MLS,MDAA465696,N,Y,39.1426592,-76.5519164
PAST SALE,May-25-2021,Townhouse,7902 Blue Anchor Ct,Pasadena,MD,21122,260000,3,1.5,CHESTERFIELD,1780,1880,1983,194,146,40,Sold,,,https://www.redfin.com/MD/Pasadena/7902-Blue-Anchor-Ct-21122/home/10207506,BRIGHT MLS,MDAA462812,N,Y,39.133836,-76.526234
PAST SALE,August-25-2020,Single Family Residential,7813 Mallow Ct,Pasadena,MD,21122,400000,4,3.0,ROCK CREEK LANDING,2052,6067,1993,467,195,7,Sold,,,https://www.redfin.com/MD/Pasadena/7813-Mallow-Ct-21122/home/10284137,BRIGHT MLS,MDAA441558,N,Y,39.135562,-76.5301946
PAST SALE,May-28-2021,Single Family Residential,8030 Escalon Ave,Pasadena,MD,21122,315000,3,1.0,GREEN HAVEN,932,5250,1990,191,338,,Sold,,,https://www.redfin.com/MD/Pasadena/8030-Escalon-Ave-21122/home/10244651,BRIGHT MLS,MDAA464018,N,Y,39.1316223,-76.5541741
PAST SALE,,Townhouse,1085 Holmespun Dr,Pasadena,MD,21122,260000,,2.5,,1240,3933,1981,,210,,,,,https://www.redfin.com/MD/Pasadena/1085-Holmespun-Dr-21122/home/10296839,,,N,Y,39.1485092,-76.5332039
PAST SALE,August-31-2021,Townhouse,404 Bright Star Path,Pasadena,MD,21122,398000,3,2.5,CREEKSTONE VILLAGE,1963,2000,2017,96,203,79,Sold,,,https://www.redfin.com/MD/Pasadena/404-Bright-Star-Path-21122/home/69075102,BRIGHT MLS,MDAA471874,N,Y,39.1257856,-76.5824832
PAST SALE,November-30-2021,Single Family Residential,405 Little Marvel Ct,Pasadena,MD,21122,660000,5,3.5,FARMINGTON VLGE SCHRAMM',3374,12750,2000,5,196,62,Sold,,,https://www.redfin.com/MD/Pasadena/405-Little-Marvel-Ct-21122/home/10230889,BRIGHT MLS,MDAA2010758,N,Y,39.1287024,-76.5585784
PAST SALE,October-15-2019,Townhouse,1206 Holmespun Dr,Pasadena,MD,21122,248000,3,2.5,STONEYBROOKE VILLAGE,1280,2000,1986,782,194,42,Sold,,,https://www.redfin.com/MD/Pasadena/1206-Holmespun-Dr-21122/home/10297049,BRIGHT MLS,MDAA411416,N,Y,39.147852,-76.528844
PAST SALE,April-1-2020,Townhouse,8235 Appalachian Dr,Pasadena,MD,21122,235900,3,3.0,ASPEN PARK,1495,2000,1990,613,158,45,Sold,,,https://www.redfin.com/MD/Pasadena/8235-Appalachian-Dr-21122/home/10139395,BRIGHT MLS,MDAA415914,N,Y,39.131845,-76.555013
PAST SALE,August-3-2021,Single Family Residential,268 Riverside Dr,Pasadena,MD,21122,365000,3,2.0,UPPER MAGOTHY BEACH,1484,15600,1941,124,246,8,Sold,,,https://www.redfin.com/MD/Pasadena/268-Riverside-Dr-21122/home/10303973,BRIGHT MLS,MDAA2001732,N,Y,39.0987484,-76.527813
PAST SALE,April-21-2021,Townhouse,8241 Appalachian Dr,Pasadena,MD,21122,300000,3,2.5,ASPEN PARK,1529,3600,1990,228,196,46,Sold,,,https://www.redfin.com/MD/Pasadena/8241-Appalachian-Dr-21122/home/10139415,BRIGHT MLS,MDAA460464,N,Y,39.1316888,-76.5549982
PAST SALE,December-18-2018,Single Family Residential,241 Meadow Rd,Pasadena,MD,21122,294000,3,2.0,RIVIERA BEACH,1170,6250,1958,1083,251,,Sold,,,https://www.redfin.com/MD/Pasadena/241-Meadow-Rd-21122/home/10279228,BRIGHT MLS,MDAA101082,N,Y,39.167215169,-76.51050386
PAST SALE,December-28-2018,Single Family Residential,761 209th St,Pasadena,MD,21122,318150,4,3.5,GREEN HAVEN,1596,5000,2004,1073,199,,Sold,,,https://www.redfin.com/MD/Pasadena/761-209th-St-21122/home/10478348,BRIGHT MLS,MDAA101272,N,Y,39.138741,-76.545607
PAST SALE,October-8-2019,Single Family Residential,7717 Garden Ave,Pasadena,MD,21122,289900,3,1.5,GREEN HAVEN,1955,12500,1956,789,148,,Sold,,,https://www.redfin.com/MD/Pasadena/7717-Garden-Ave-21122/home/10241079,BRIGHT MLS,MDAA404218,N,Y,39.146999,-76.54069
PAST SALE,September-1-2020,Condo/Co-op,3501 Kingsley Ct Unit G,Pasadena,MD,21122,165000,2,1.0,CHESTERFIELD GARDEN COND,915,,1987,460,180,226,Sold,,,https://www.redfin.com/MD/Pasadena/3501-Kingsley-Ct-21122/unit-G/home/143709393,BRIGHT MLS,MDAA441306,N,Y,39.1304917,-76.5281622
PAST SALE,August-16-2021,Single Family Residential,4314 Forsythia Ln,Pasadena,MD,21122,525000,3,3.0,Pasadena,3086,21526,1989,111,170,,Sold,,,https://www.redfin.com/MD/Pasadena/4314-Forsythia-Ln-21122/home/10129288,BRIGHT MLS,MDAA2002232,N,Y,39.1253701,-76.5120828
PAST SALE,October-27-2021,Single Family Residential,312 Nature Walk Ln,Pasadena,MD,21122,379900,3,2.0,SANDY OAKS,1311,5142,1991,39,290,,Sold,,,https://www.redfin.com/MD/Pasadena/312-Nature-Walk-Ln-21122/home/10284776,BRIGHT MLS,MDAA2010304,N,Y,39.1394586,-76.5672233
PAST SALE,October-28-2021,Single Family Residential,206 Mulberry Ave,Pasadena,MD,21122,389000,3,2.0,PASADENA,1872,5000,1964,38,208,,Sold,,,https://www.redfin.com/MD/Pasadena/206-Mulberry-Ave-21122/home/10270236,BRIGHT MLS,MDAA2004822,N,Y,39.105544,-76.572945
PAST SALE,July-19-2019,Single Family Residential,1235 Pekin Rd,Pasadena,MD,21122,324999,4,2.5,MCGINN SUB,2148,16080,1976,870,151,,Sold,,,https://www.redfin.com/MD/Pasadena/1235-Pekin-Rd-21122/home/10263318,BRIGHT MLS,MDAA400560,N,Y,39.137873,-76.526314
PAST SALE,July-9-2021,Single Family Residential,1658 Cornfield Rd,Pasadena,MD,21122,380000,3,1.5,LONG POINT,1368,6000,1950,149,278,,Sold,,,https://www.redfin.com/MD/Pasadena/1658-Cornfield-Rd-21122/home/10257907,BRIGHT MLS,MDAA470774,N,Y,39.097796,-76.445124
PAST SALE,December-14-2020,Townhouse,8349 Daydream Cres,Pasadena,MD,21122,335000,2,2.5,CREEKSTONE VILLAGE,1872,1440,2018,356,179,80,Sold,,,https://www.redfin.com/MD/Pasadena/8349-Daydream-Cres-21122/home/110084429,BRIGHT MLS,MDAA449222,N,Y,39.1229597,-76.579851
PAST SALE,July-29-2021,Single Family Residential,905 9th St,Pasadena,MD,21122,456000,4,2.5,GREEN HAVEN,2042,7150,2007,129,223,,Sold,,,https://www.redfin.com/MD/Pasadena/905-9th-St-21122/home/10245795,BRIGHT MLS,MDAA2000282,N,Y,39.141833,-76.53974
PAST SALE,August-13-2021,Single Family Residential,7767 Tick Neck Rd,Pasadena,MD,21122,335000,3,1.0,MCGINN SUB,1338,12642,1957,114,250,,Sold,,,https://www.redfin.com/MD/Pasadena/7767-Tick-Neck-Rd-21122/home/10263338,BRIGHT MLS,MDAA2001078,N,Y,39.1390213,-76.5280267
PAST SALE,October-22-2021,Single Family Residential,576 Jersey Bronze Way,Pasadena,MD,21122,609000,3,3.0,HARVEST RIDGE,3100,5140,,44,196,50,Sold,,,https://www.redfin.com/MD/Pasadena/576-Jersey-Bronze-Way-21122/home/143870092,BRIGHT MLS,MDAA2007354,N,Y,39.1282699,-76.5550176
PAST SALE,July-26-2019,Townhouse,3637 Seaford Ct,Pasadena,MD,21122,235000,2,1.5,CHESTERFIELD,1185,2663,1985,863,198,45,Sold,,,https://www.redfin.com/MD/Pasadena/3637-Seaford-Ct-21122/home/10208874,BRIGHT MLS,MDAA403032,N,Y,39.12912,-76.520152
PAST SALE,September-25-2019,Townhouse,8058 Croydon Way,Pasadena,MD,21122,241900,3,3.0,CHESTERFIELD,1540,2000,1987,802,157,63,Sold,,,https://www.redfin.com/MD/Pasadena/8058-Croydon-Way-21122/home/10208728,BRIGHT MLS,MDAA406728,N,Y,39.129845,-76.5213
PAST SALE,April-30-2021,Single Family Residential,904 9th St,Pasadena,MD,21122,403000,3,2.0,GREEN HAVEN,2168,7500,1963,219,186,,Sold,,,https://www.redfin.com/MD/Pasadena/904-9th-St-21122/home/10240722,BRIGHT MLS,MDAA461928,N,Y,39.141939,-76.540164
PAST SALE,October-29-2021,Condo/Co-op,739 Deering Rd Unit 6K,Pasadena,MD,21122,210000,2,1.0,DEERFIELD,1112,,1988,37,189,254,Sold,,,https://www.redfin.com/MD/Pasadena/739-Deering-Rd-21122/unit-6K/home/10221412,BRIGHT MLS,MDAA2000091,N,Y,39.1223,-76.52981
PAST SALE,April-23-2019,Single Family Residential,7927 Elizabeth Rd,Pasadena,MD,21122,325000,3,2.5,ROCK VIEW BEACH,1484,26481,1989,957,219,,Sold,,,https://www.redfin.com/MD/Pasadena/7927-Elizabeth-Rd-21122/home/10281808,BRIGHT MLS,MDAA376672,N,Y,39.136659,-76.516236
PAST SALE,August-4-2021,Single Family Residential,220 Maryland Ave,Pasadena,MD,21122,350000,4,1.0,BOULEVARD PARK,1470,10500,1952,123,238,,Sold,,,https://www.redfin.com/MD/Pasadena/220-Maryland-Ave-21122/home/10166135,BRIGHT MLS,MDAA471286,N,Y,39.101123,-76.47544
PAST SALE,,Single Family Residential,251 Carvel Rd,Pasadena,MD,21122,335000,,1.5,,1368,9375,1948,,245,,,,,https://www.redfin.com/MD/Pasadena/251-Carvel-Rd-21122/home/10280789,,,N,Y,39.1632153,-76.5039256
MLS Listing,,Condo/Co-op,3391 Littleton Way Unit 3G,Pasadena,MD,21122,199999,2,1.0,CHESTERFIELD MEWS CONDO,1069,,1988,1,187,256,Active,,,https://www.redfin.com/MD/Pasadena/3391-Littleton-Way-21122/unit-3G/home/10214073,BRIGHT MLS,MDAA2014598,N,Y,39.1279206,-76.5320622
MLS Listing,,Townhouse,8225 White Star Xing,Pasadena,MD,21122,415000,3,2.5,CREEKSTONE VILLAGE,1940,1600,2016,2,214,79,Active,,,https://www.redfin.com/MD/Pasadena/8225-White-Star-Xing-21122/home/69075049,BRIGHT MLS,MDAA2015362,N,Y,39.1269173,-76.5839634
MLS Listing,,Single Family Residential,226 Magothy Beach Rd,Pasadena,MD,21122,300000,2,1.0,CHELSEA BEACH,768,15000,1962,3,391,,Active,,,https://www.redfin.com/MD/Pasadena/226-Magothy-Beach-Rd-21122/home/10202217,BRIGHT MLS,MDAA2015738,N,Y,39.101554,-76.526348
MLS Listing,,Single Family Residential,408 Metropolitan Blvd,Pasadena,MD,21122,399900,3,2.0,MAGOTHY PARK,2069,12500,2001,4,193,,Active,,,https://www.redfin.com/MD/Pasadena/408-Metropolitan-Blvd-21122/home/143318698,BRIGHT MLS,MDAA2014716,N,Y,39.1131717,-76.5488483
MLS Listing,,Single Family Residential,8442 Church Rd,Pasadena,MD,21122,349900,3,1.0,RIVIERA BEACH,1122,6250,1960,4,312,,Active,December-5-2021 01:00 PM,December-5-2021 03:00 PM,https://www.redfin.com/MD/Pasadena/8442-Church-Rd-21122/home/10279201,BRIGHT MLS,MDAA2015320,N,Y,39.163277,-76.517132
MLS Listing,,Townhouse,352 Rambling Ridge Ct,Pasadena,MD,21122,308000,3,1.5,ASPEN PARK,1725,2000,1987,5,179,39,Active,,,https://www.redfin.com/MD/Pasadena/352-Rambling-Ridge-Ct-21122/home/10137784,BRIGHT MLS,MDAA2014280,N,Y,39.13404,-76.557612
MLS Listing,,Single Family Residential,811 202nd St,Pasadena,MD,21122,350000,3,2.5,GREEN HAVEN,1636,5000,1995,6,214,,Active,,,https://www.redfin.com/MD/Pasadena/811-202nd-St-21122/home/10243607,BRIGHT MLS,MDAA2015278,N,Y,39.1434838,-76.5460008
MLS Listing,,Townhouse,223 Seneca Ter,Pasadena,MD,21122,339900,3,3.0,FARMINGTON VLGE SCHRAMM',1824,1600,1999,7,186,90,Active,,,https://www.redfin.com/MD/Pasadena/223-Seneca-Ter-21122/home/10229994,BRIGHT MLS,MDAA2015244,N,Y,39.123636,-76.556633
MLS Listing,,Single Family Residential,1585 Marco Dr,Pasadena,MD,21122,1100000,5,2.5,GREENHILL MANOR,2894,174632,1987,8,380,,Active,,,https://www.redfin.com/MD/Pasadena/1585-Marco-Dr-21122/home/10246726,BRIGHT MLS,MDAA2014852,N,Y,39.122022,-76.458086
MLS Listing,,Single Family Residential,253 Magothy Bridge Rd,Pasadena,MD,21122,394900,5,2.0,MAGOTHY FORGE,2007,10000,1964,10,197,,Active,,,https://www.redfin.com/MD/Pasadena/253-Magothy-Bridge-Rd-21122/home/10260104,BRIGHT MLS,MDAA2012586,N,Y,39.107324,-76.5438317
MLS Listing,,Single Family Residential,7921 Leeds Dr,Pasadena,MD,21122,290000,4,2.0,CHESTERFIELD,1494,4835,1986,12,194,34,Active,,,https://www.redfin.com/MD/Pasadena/7921-Leeds-Dr-21122/home/177323681,BRIGHT MLS,MDAA2013794,N,Y,39.1283776,-76.5285235
MLS Listing,,Single Family Residential,718 213th St,Pasadena,MD,21122,382500,3,2.0,GREEN HAVEN,1147,10000,1959,13,333,,Active,,,https://www.redfin.com/MD/Pasadena/718-213th-St-21122/home/10241575,BRIGHT MLS,MDAA2015012,N,Y,39.136109,-76.546398
MLS Listing,,Single Family Residential,706 215th St,Pasadena,MD,21122,425000,4,3.0,GREEN HAVEN,2160,5000,2004,15,197,,Active,,,https://www.redfin.com/MD/Pasadena/706-215th-St-21122/home/10479480,BRIGHT MLS,MDAA2014484,N,Y,39.134237,-76.547561
MLS Listing,,Vacant Land,8213 Waterford Rd,Pasadena,MD,21122,59500,,,REGULARS,,11326,,16,,,Active,,,https://www.redfin.com/MD/Pasadena/8213-Waterford-Rd-21122/home/10114473,BRIGHT MLS,MDAA2014830,N,Y,39.118495,-76.5840182
MLS Listing,,Townhouse,7918 Allegri Ct,Pasadena,MD,21122,285000,4,2.5,VILLA TOSCANA,1296,1936,1990,17,220,159,Active,,,https://www.redfin.com/MD/Pasadena/7918-Allegri-Ct-21122/home/10306193,BRIGHT MLS,MDAA2014436,N,Y,39.1312982,-76.5296195
MLS Listing,,Single Family Residential,1232 Hillside Rd,Pasadena,MD,21122,725000,4,2.0,ROCK HILL,2690,9180,1949,18,270,,Active,,,https://www.redfin.com/MD/Pasadena/1232-Hillside-Rd-21122/home/10281603,BRIGHT MLS,MDAA2014610,N,Y,39.1455968,-76.5189019
MLS Listing,,Single Family Residential,176 Inlet Dr N,Pasadena,MD,21122,429000,3,3.0,RIVIERA BEACH,1328,7500,1957,19,323,3,Active,,,https://www.redfin.com/MD/Pasadena/176-Inlet-Dr-21122/home/10279226,BRIGHT MLS,MDAA2014318,N,Y,39.1620905,-76.5117899
MLS Listing,,Vacant Land,8149 Waterford Rd,Pasadena,MD,21122,485000,,,REGULARS,,51836,,19,,,Active,,,https://www.redfin.com/MD/Pasadena/8149-Waterford-Rd-21122/home/177207198,BRIGHT MLS,MDAA2014600,N,Y,39.1307995,-76.5628436
MLS Listing,,Single Family Residential,271 Magothy Bridge Rd,Pasadena,MD,21122,599500,4,2.5,MAGOTHY FORGE,1910,22651,2021,20,314,8,Active,,,https://www.redfin.com/MD/Pasadena/271-Magothy-Bridge-Rd-21122/home/177195979,BRIGHT MLS,MDAA2013568,N,Y,39.1092509,-76.5422035
MLS Listing,,Single Family Residential,8079 Belhaven Ave,Pasadena,MD,21122,475000,2,1.5,BELHAVEN BEACH,1436,6500,2008,20,331,,Active,,,https://www.redfin.com/MD/Pasadena/8079-Belhaven-Ave-21122/home/10155766,BRIGHT MLS,MDAA2014558,N,Y,39.1269058,-76.4758967
MLS Listing,,Single Family Residential,119 Cloverhill Rd,Pasadena,MD,21122,465000,4,3.5,SUNSET BEACH,2094,6000,1950,23,222,,Active,,,https://www.redfin.com/MD/Pasadena/119-Cloverhill-Rd-21122/home/10293497,BRIGHT MLS,MDAA2014334,N,Y,39.1558402,-76.5189834
MLS Listing,,Single Family Residential,8067 Woodholme Cir,Pasadena,MD,21122,399900,4,3.5,WOODHOLME,1800,7700,1950,25,222,,Active,,,https://www.redfin.com/MD/Pasadena/8067-Woodholme-Cir-21122/home/10310993,BRIGHT MLS,MDAA2014004,N,Y,39.1298338,-76.5863657
MLS Listing,,Single Family Residential,213 Magothy Beach Rd,Pasadena,MD,21122,424900,3,2.5,CHELSEA BEACH,1716,17800,1968,31,248,,Active,,,https://www.redfin.com/MD/Pasadena/213-Magothy-Beach-Rd-21122/home/10203833,BRIGHT MLS,MDAA2012994,N,Y,39.1032226,-76.5248139
MLS Listing,,Single Family Residential,7801 Elizabeth Rd,Pasadena,MD,21122,249900,2,1.0,ROCK VIEW BEACH,1092,9375,1933,33,229,,Active,,,https://www.redfin.com/MD/Pasadena/7801-Elizabeth-Rd-21122/home/10281819,BRIGHT MLS,MDAA2013626,N,Y,39.143748,-76.5154817
MLS Listing,,Single Family Residential,242 Meadow Rd,Pasadena,MD,21122,410000,7,4.0,RIVIERA BEACH,2598,9375,1954,35,158,,Active,,,https://www.redfin.com/MD/Pasadena/242-Meadow-Rd-21122/home/10280081,BRIGHT MLS,MDAA2012598,N,Y,39.167613,-76.510655
MLS Listing,,Single Family Residential,8147 Elizabeth Rd,Pasadena,MD,21122,450000,4,2.0,BLOSSOM HILLS,1599,17400,1957,37,281,,Active,,,https://www.redfin.com/MD/Pasadena/8147-Elizabeth-Rd-21122/home/10162331,BRIGHT MLS,MDAA2009244,N,Y,39.1254798,-76.516419
MLS Listing,,Single Family Residential,1692 Grandview Rd,Pasadena,MD,21122,250000,2,1.0,LONG POINT,804,6000,1933,37,311,,Active,,,https://www.redfin.com/MD/Pasadena/1692-Grandview-Rd-21122/home/10257837,BRIGHT MLS,MDAA2013384,N,Y,39.0954534,-76.4436409
MLS Listing,,Single Family Residential,8072 Woodholme Cir,Pasadena,MD,21122,375000,3,2.0,WOODHOLME,2124,14025,1960,38,177,,Active,,,https://www.redfin.com/MD/Pasadena/8072-Woodholme-Cir-21122/home/10310864,BRIGHT MLS,MDAA2013154,N,Y,39.128403,-76.5860199
MLS Listing,,Single Family Residential,36 Carroll Rd,Pasadena,MD,21122,399000,3,1.0,MAGOTHY FORGE,1590,13125,1965,38,251,,Active,,,https://www.redfin.com/MD/Pasadena/36-Carroll-Rd-21122/home/10259915,BRIGHT MLS,MDAA2012646,N,Y,39.1048464,-76.5414398
MLS Listing,,Vacant Land,7709 Suitt Dr,Pasadena,MD,21122,39000,,,ROCK CREEK PARK,,18750,,38,,,Active,,,https://www.redfin.com/MD/Pasadena/7709-Suitt-Dr-21122/home/10281191,BRIGHT MLS,MDAA2013228,N,Y,39.147815,-76.495729
MLS Listing,,Single Family Residential,8029 Elizabeth Rd,Pasadena,MD,21122,599900,4,2.5,PASADENA,3000,14375,2021,40,200,,Active,,,https://www.redfin.com/MD/Pasadena/8029-Elizabeth-Rd-21122/home/176972275,BRIGHT MLS,MDAA2013024,N,Y,39.1322371,-76.5161283
MLS Listing,,Single Family Residential,685 Duvall Hwy,Pasadena,MD,21122,339000,3,1.0,GREEN HAVEN,1365,7979,1940,42,248,,Active,,,https://www.redfin.com/MD/Pasadena/685-Duvall-Hwy-21122/home/10242881,BRIGHT MLS,MDAA2012672,N,Y,39.138719,-76.5512381
MLS Listing,,Single Family Residential,603 Riverside Dr,Pasadena,MD,21122,269900,1,1.0,CHELSEA BEACH,1175,6999,1950,43,230,,Active,,,https://www.redfin.com/MD/Pasadena/603-Riverside-Dr-21122/home/10203247,BRIGHT MLS,MDAA2012772,N,Y,39.0988111,-76.5176137
MLS Listing,,Single Family Residential,1604 Coralie Ct,Pasadena,MD,21122,425000,5,3.0,LONG POINT,2534,17500,1973,45,168,,Active,,,https://www.redfin.com/MD/Pasadena/1604-Coralie-Ct-21122/home/10258206,BRIGHT MLS,MDAA2012508,N,Y,39.104342,-76.454677
MLS Listing,,Single Family Residential,684 203rd St,Pasadena,MD,21122,499900,4,2.5,GREEN HAVEN,2000,50137,2021,46,250,,Active,,,https://www.redfin.com/MD/Pasadena/684-203rd-St-21122/home/176793265,BRIGHT MLS,MDAA2012434,N,Y,39.14139,-76.5525409
MLS Listing,,Townhouse,165 Jacobia Dr Unit K-3,Pasadena,MD,21122,339900,4,4.0,PEARMAN'S OVERLOOK AT LI,1782,,2008,47,191,230,Active,,,https://www.redfin.com/MD/Pasadena/165-Jacobia-Dr-21122/unit-K-3/home/17898581,BRIGHT MLS,MDAA2000545,N,Y,39.13324,-76.5754989
MLS Listing,,Condo/Co-op,7904 Blue Phlox Unit L-1,Pasadena,MD,21122,324000,3,2.5,PEARMAN'S OVERLOOK AT LI,1682,,2015,47,193,240,Active,,,https://www.redfin.com/MD/Pasadena/7904-Blue-Phlox-Ct-21122/unit-L-1/home/18987895,BRIGHT MLS,MDAA2012404,N,Y,39.132605,-76.574
MLS Listing,,Single Family Residential,Lot A Bar Harbor Rd,Pasadena,MD,21122,449990,4,3.0,BAR HARBOR,2104,5000,2021,49,214,,Active,,,https://www.redfin.com/MD/Pasadena/Lot-A-21122/home/176745775,BRIGHT MLS,MDAA2012212,N,Y,39.15658977,-76.50619817
MLS Listing,,Townhouse,8616 Black Rock Harbour,Pasadena,MD,21122,295000,3,1.5,ELIZABETHS LANDING,1400,2000,1984,52,211,103,Active,,,https://www.redfin.com/MD/Pasadena/8616-Black-Rock-Harbour-21122/home/10225108,BRIGHT MLS,MDAA2000767,N,Y,39.151548,-76.523829
MLS Listing,,Single Family Residential,Lot 2 Carroll Rd,Pasadena,MD,21122,479990,4,2.5,RIVIERA BEACH,2185,6250,2021,52,220,,Active,,,https://www.redfin.com/MD/Pasadena/2-Carroll-Rd-21122/home/176731456,BRIGHT MLS,MDAA2000853,N,Y,39.1073335,-76.5403306
MLS Listing,,Vacant Land,4655 Mountain Rd,Pasadena,MD,21122,144755,,,BOULEVARD PARK,,81021,,56,,,Active,,,https://www.redfin.com/MD/Pasadena/4655-Mountain-Rd-21122/home/10165584,BRIGHT MLS,MDAA2000463,N,Y,39.105369,-76.476775
MLS Listing,,Single Family Residential,187 9th St,Pasadena,MD,21122,414900,3,2.0,CHELSEA BEACH,1296,11925,1968,58,320,,Active,,,https://www.redfin.com/MD/Pasadena/187-9th-St-21122/home/10203263,BRIGHT MLS,MDAA2010062,N,Y,39.1062254,-76.5185107
MLS Listing,,Single Family Residential,988 Duvall Hwy,Pasadena,MD,21122,369900,5,3.0,GREEN HAVEN,2604,10094,1992,62,142,,Active,,,https://www.redfin.com/MD/Pasadena/988-Duvall-Hwy-21122/home/10242796,BRIGHT MLS,MDAA2011836,N,Y,39.1457419,-76.5373302
MLS Listing,,Single Family Residential,7642 4th St,Pasadena,MD,21122,285000,3,2.0,MT PLEASANT BEACH,1176,6250,1984,62,242,,Active,,,https://www.redfin.com/MD/Pasadena/7642-4th-St-21122/home/10265883,BRIGHT MLS,MDAA2011976,N,Y,39.1510923,-76.5305417
MLS Listing,,Single Family Residential,1708 Twickenham Rd,Pasadena,MD,21122,625000,4,1.0,LONG POINT,1530,14100,1950,65,408,,Active,,,https://www.redfin.com/MD/Pasadena/1708-Twickenham-Rd-21122/home/10257994,BRIGHT MLS,MDAA2011652,N,Y,39.095616,-76.441548
MLS Listing,,Vacant Land,686 Cedar Dr,Pasadena,MD,21122,130000,,,CHELSEA BEACH,,14250,,68,,,Active,,,https://www.redfin.com/MD/Pasadena/686-Cedar-Dr-21122/home/10202498,BRIGHT MLS,MDAA2011020,N,Y,39.1064418,-76.5224574
MLS Listing,,Single Family Residential,577 A St,Pasadena,MD,21122,589500,4,2.0,CHELSEA BEACH,3661,27400,1964,69,161,,Active,,,https://www.redfin.com/MD/Pasadena/577-A-St-21122/home/10203090,BRIGHT MLS,MDAA2011106,N,Y,39.1011169,-76.5246363
MLS Listing,,Single Family Residential,758 220th St,Pasadena,MD,21122,389900,4,2.0,GREEN HAVEN,1698,7500,1965,69,230,,Active,,,https://www.redfin.com/MD/Pasadena/758-220th-St-21122/home/10240846,BRIGHT MLS,MDAA2010824,N,Y,39.1321987,-76.5441832
MLS Listing,,Single Family Residential,144 Hobbit Ln,Pasadena,MD,21122,379900,5,2.0,RIVIERA BEACH,1272,10675,1957,79,299,,Active,,,https://www.redfin.com/MD/Pasadena/144-Hobbit-Ln-21122/home/10285280,BRIGHT MLS,MDAA2010420,N,Y,39.1599487,-76.5129602
MLS Listing,,Single Family Residential,105 Maryland Ave,Pasadena,MD,21122,299000,3,1.0,BOULEVARD PARK,1146,9750,1953,79,261,,Active,,,https://www.redfin.com/MD/Pasadena/105-Maryland-Ave-21122/home/10166161,BRIGHT MLS,MDAA2010426,N,Y,39.1048625,-76.476922
MLS Listing,,Single Family Residential,8261 Bayside Dr,Pasadena,MD,21122,1150000,4,3.0,PINEHURST,2596,10000,1925,80,443,,Active,December-5-2021 01:00 PM,December-5-2021 03:00 PM,https://www.redfin.com/MD/Pasadena/8261-Bayside-Dr-21122/home/10271872,BRIGHT MLS,MDAA2009838,N,Y,39.1157111,-76.4330595
MLS Listing,,Single Family Residential,7814 East Rd,Pasadena,MD,21122,239900,2,1.0,ROCK VIEW BEACH,792,12875,1952,83,303,,Active,,,https://www.redfin.com/MD/Pasadena/7814-E-Rd-21122/home/10281770,BRIGHT MLS,MDAA2008220,N,Y,39.141884,-76.514996
MLS Listing,,Single Family Residential,997 Beechwood Ave,Pasadena,MD,21122,499000,4,2.5,GREEN HAVEN,2096,6531,2021,83,238,,Active,,,https://www.redfin.com/MD/Pasadena/997-Beechwood-Ave-21122/home/10243662,BRIGHT MLS,MDAA2009978,N,Y,39.147027,-76.538619
MLS Listing,,Single Family Residential,8208 Waterford Rd,Pasadena,MD,21122,340000,2,1.0,WATERFORD HGTS ADD,816,77101,1960,83,417,,Active,,,https://www.redfin.com/MD/Pasadena/8208-Waterford-Rd-21122/home/10307031,BRIGHT MLS,MDAA2009912,N,Y,39.1233894,-76.562663
MLS Listing,,Single Family Residential,7618 Paradise Beach Rd,Pasadena,MD,21122,279900,4,2.0,PARADISE BEACH,1768,14810,1953,84,158,,Active,,,https://www.redfin.com/MD/Pasadena/7618-Paradise-Beach-Rd-21122/home/10269787,BRIGHT MLS,MDAA2009226,N,Y,39.148002,-76.465086
MLS Listing,,Single Family Residential,448 Riverside Dr,Pasadena,MD,21122,495000,2,1.0,UPPER MAGOTHY BEACH,480,26789,1935,86,1031,,Active,,,https://www.redfin.com/MD/Pasadena/448-Riverside-Dr-21122/home/10303819,BRIGHT MLS,MDAA2009412,N,Y,39.093569,-76.525906
MLS Listing,,Single Family Residential,8436 Bay Dr,Pasadena,MD,21122,465000,5,3.0,RIVIERA BEACH,2146,6250,1957,94,217,,Active,,,https://www.redfin.com/MD/Pasadena/8436-Bay-Dr-21122/home/10279898,BRIGHT MLS,MDAA2008946,N,Y,39.166407,-76.514052
MLS Listing,,Single Family Residential,8079 Highview Rd,Pasadena,MD,21122,474900,3,1.0,BELHAVEN BEACH,1092,7900,1962,100,435,,Active,,,https://www.redfin.com/MD/Pasadena/8079-Highview-Rd-21122/home/10155218,BRIGHT MLS,MDAA2005624,N,Y,39.1272732,-76.4756256
MLS Listing,,Single Family Residential,765 202nd St,Pasadena,MD,21122,299500,3,1.0,GREEN HAVEN,1200,5000,1964,103,250,,Active,,,https://www.redfin.com/MD/Pasadena/765-202nd-St-21122/home/10243895,BRIGHT MLS,MDAA2007448,N,Y,39.142668,-76.547796
MLS Listing,,Single Family Residential,647 C St,Pasadena,MD,21122,360000,3,2.0,CHELSEA BEACH,1758,15000,1975,109,205,,Active,,,https://www.redfin.com/MD/Pasadena/647-C-St-21122/home/10203003,BRIGHT MLS,MDAA470176,N,Y,39.1051042,-76.5242206
MLS Listing,,Single Family Residential,8107 Main Creek Rd,Pasadena,MD,21122,519000,3,2.0,VENTNOR,1821,11455,1963,113,285,,Active,,,https://www.redfin.com/MD/Pasadena/8107-Main-Creek-Rd-21122/home/10305511,BRIGHT MLS,MDAA2006034,N,Y,39.124722,-76.454747
MLS Listing,,Vacant Land,8099 Forest Glen Dr,Pasadena,MD,21122,325000,,,COLONIAL GREEN,,99752,,123,,,Active,,,https://www.redfin.com/MD/Pasadena/8099-Forest-Glen-Dr-21122/home/10472337,BRIGHT MLS,MDAA2005178,N,Y,39.124749,-76.464077
MLS Listing,,Single Family Residential,19 Brookfield Rd,Pasadena,MD,21122,365000,3,2.0,CLEARVIEW VILLAGE,1433,21500,1947,124,255,,Active,,,https://www.redfin.com/MD/Pasadena/19-Brookfield-Rd-21122/home/10214383,BRIGHT MLS,MDAA2004722,N,Y,39.1237402,-76.5390463
MLS Listing,,Single Family Residential,869-B Swift Rd,Pasadena,MD,21122,674000,4,4.5,PASADENA,3350,44867,1991,128,201,,Active,,,https://www.redfin.com/MD/Pasadena/869B-Swift-Rd-21122/home/10129943,BRIGHT MLS,MDAA2005110,N,Y,39.1005068,-76.5023503
MLS Listing,,Single Family Residential,130 Club Rd,Pasadena,MD,21122,539000,4,3.0,PATAPSCO BOATING AND SOC,2636,,1900,128,204,75,Active,,,https://www.redfin.com/MD/Pasadena/130-Club-Rd-21122/home/28499760,BRIGHT MLS,MDAA2004114,N,Y,39.1478896,-76.5174373
MLS Listing,,Single Family Residential,8210 Pinehurst Harbour Way,Pasadena,MD,21122,2500000,5,3.5,BODKIN POINT,4596,421661,1999,129,544,275,Active,,,https://www.redfin.com/MD/Pasadena/8210-Pinehurst-Harbour-Way-21122/home/113863701,BRIGHT MLS,MDAA2002838,N,Y,39.1215724,-76.4377732
MLS Listing,,Single Family Residential,13 Brookfield Rd,Pasadena,MD,21122,450000,3,2.0,CLEARVIEW VILLAGE,1632,21500,1953,129,276,,Active,,,https://www.redfin.com/MD/Pasadena/13-Brookfield-Rd-21122/home/10214211,BRIGHT MLS,MDAA2005324,N,Y,39.1244115,-76.5386399
MLS Listing,,Single Family Residential,7721 Woodlawn Ave,Pasadena,MD,21122,499000,4,2.5,GREEN HAVEN,2000,7500,2021,141,250,,Active,,,https://www.redfin.com/MD/Pasadena/7721-Woodlawn-Ave-21122/home/171061793,BRIGHT MLS,MDAA2003884,N,Y,39.1469933,-76.5389137
MLS Listing,,Single Family Residential,223 Carroll Rd,Pasadena,MD,21122,459990,4,2.5,RIVIERA BEACH,1640,6250,2021,144,280,,Active,,,https://www.redfin.com/MD/Riviera-Beach/223-Carroll-Rd-21122/home/175660070,BRIGHT MLS,MDAA2003556,N,Y,39.1667495,-76.5123356
MLS Listing,,Vacant Land,Cornfield Rd,Pasadena,MD,21122,425000,,,LONG POINT,,22538,,145,,,Active,,,https://www.redfin.com/MD/PASADENA/CORNFIELD-RD-21122/home/10258241,BRIGHT MLS,MDAA2003368,N,Y,39.100959,-76.448178
MLS Listing,,Vacant Land,Baltimore Annapolis Blvd,Pasadena,MD,21122,69900,,,Pasadena,,32670,,146,,,Active,,,https://www.redfin.com/MD/Pasadena/Baltimore-Annapolis-Blvd-Unknown/home/175633938,BRIGHT MLS,MDAA2003192,N,Y,39.1137,-76.55757
MLS Listing,,Single Family Residential,124 Bakers Ln,Pasadena,MD,21122,347500,3,1.0,Pasadena,1161,43560,1955,181,299,,Active,,,https://www.redfin.com/MD/Lake-Shore/124-Bakers-Ln-21122/home/10103598,BRIGHT MLS,MDAA470500,N,Y,39.111183,-76.516688
MLS Listing,,Vacant Land,7642 Lake Dr,Pasadena,MD,21122,120000,,,VENICE ON THE BAY,,15000,,186,,,Active,,,https://www.redfin.com/MD/Pasadena/7642-Lake-Dr-21122/home/10304780,BRIGHT MLS,MDAA470630,N,Y,39.152877,-76.4755189
MLS Listing,,Vacant Land,8193 Forest Glen Dr,Pasadena,MD,21122,495000,,,COLONIAL GREEN,,344124,,187,,,Active,,,https://www.redfin.com/MD/Pasadena/8193-Forest-Glen-Dr-21122/home/10472336,BRIGHT MLS,MDAA470412,N,Y,39.123455,-76.464098
MLS Listing,,Vacant Land,S Drum Ave,Pasadena,MD,21122,150000,,,SELBY GROVE,,15100,,190,,,Active,,,https://www.redfin.com/MD/PASADENA/S-DRUM-AVE-21122/home/10285856,BRIGHT MLS,MDAA470164,N,Y,39.114096,-76.56836
MLS Listing,,Single Family Residential,325 Piney Point Rd,Pasadena,MD,21122,999000,6,4.5,BARRINGTON,5600,23550,2003,218,178,,Active,,,https://www.redfin.com/MD/Pasadena/325-Piney-Point-Rd-21122/home/10175169,BRIGHT MLS,MDAA466130,N,Y,39.1142146,-76.5429752
MLS Listing,,Single Family Residential,8012 Catherine Ave,Pasadena,MD,21122,391900,4,2.5,GREEN HAVEN,1700,6500,1935,221,231,,Active,,,https://www.redfin.com/MD/Pasadena/8012-Catherine-Ave-21122/home/10240403,BRIGHT MLS,MDAA464406,N,Y,39.1301781,-76.5461491
MLS Listing,,Single Family Residential,8149 Hog Neck Rd,Pasadena,MD,21122,230000,3,1.0,Pasadena,900,,1955,280,256,,Active,,,https://www.redfin.com/MD/Pasadena/8149-Hog-Neck-Rd-21122/home/10112451,BRIGHT MLS,MDAA458860,N,Y,39.1267906,-76.5197614
MLS Listing,,Single Family Residential,8082 Ventnor Rd,Pasadena,MD,21122,1350000,3,2.5,VENTNOR,2681,31200,2021,292,504,,Active,,,https://www.redfin.com/MD/Pasadena/8082-Ventnor-Rd-21122/home/10305537,BRIGHT MLS,MDAA459348,N,Y,39.1262652,-76.4510137
MLS Listing,,Vacant Land,5 Gene Ave,Pasadena,MD,21122,175000,,,Pasadena,,52272,,317,,,Active,,,https://www.redfin.com/MD/Pasadena/5-Gene-Ave-21122/home/10103844,BRIGHT MLS,MDAA457496,N,Y,39.110887,-76.538966
MLS Listing,,Single Family Residential,7975 Elizabeth Rd,Pasadena,MD,21122,330000,4,2.5,ROCK VIEW BEACH,1900,7750,1976,320,174,,Active,,,https://www.redfin.com/MD/Pasadena/7975-Elizabeth-Rd-21122/home/10281876,BRIGHT MLS,MDAA457196,N,Y,39.133343,-76.515247
MLS Listing,,Vacant Land,Reserved Area,Pasadena,MD,21122,70000,,,FAIRWOOD,,2178,,323,,,Active,,,https://www.redfin.com/MD/PASADENA/RESERVED-AREA-21122/home/10231306,BRIGHT MLS,MDAA457020,N,Y,39.112707,-76.499979
MLS Listing,,Vacant Land,336 Magothy Bridge Rd,Pasadena,MD,21122,299900,,,Pasadena,,191664,,452,,,Active,,,https://www.redfin.com/MD/Pasadena/336-Magothy-Bridge-Rd-21122/home/10111870,BRIGHT MLS,MDAA445992,N,Y,39.1103148,-76.5338979
MLS Listing,,Vacant Land,7 Gene Ave,Pasadena,MD,21122,254000,,,Pasadena,,56628,,460,,,Active,,,https://www.redfin.com/MD/Pasadena/7-Gene-Ave-21122/home/10103842,BRIGHT MLS,MDAA445040,N,Y,39.111201,-76.5394589
MLS Listing,,Vacant Land,665 208th St,Pasadena,MD,21122,49900,,,GREEN HAVEN,,5000,,999,,,Active,,,https://www.redfin.com/MD/Pasadena/665-208th-St-21122/home/10244371,BRIGHT MLS,MDAA377174,N,Y,39.136897,-76.5522639
MLS Listing,,Vacant Land,667 208th St,Pasadena,MD,21122,49900,,,GREEN HAVEN,,5000,,999,,,Active,,,https://www.redfin.com/MD/Pasadena/667-208th-St-21122/home/10480715,BRIGHT MLS,MDAA377170,N,Y,39.136984,-76.552141
MLS Listing,,Single Family Residential,637 Tebbston Drive Dr Unit 1-15,Pasadena,MD,21122,6900000,53,28.0,TEBBSTON,24173,,1950,1217,285,,Active,,,https://www.redfin.com/MD/Lake-Shore/637-Tebbston-Dr-21122/unit-1-15/home/146489874,BRIGHT MLS,1005957953,N,Y,39.0883557,-76.5199129
MLS Listing,,Vacant Land,8163 Ritchie Hwy,Pasadena,MD,21122,950000,,,PASADENA,,43560,,1396,,,Active,,,https://www.redfin.com/MD/Pasadena/8163-Ritchie-Hwy-21122/home/10110941,BRIGHT MLS,1000130352,N,Y,39.122904,-76.585851
For-Sale-by-Owner Listing,,Single Family Residential,4 Nicholson Dr,Pasadena,MD,21122,518499,4,2.0,Pasadena,1563,17859,1959,83,332,,Active,,,https://www.redfin.com/MD/Pasadena/4-Nicholson-Dr-21122/home/10259907,Fizber.com,11448741,N,Y,39.1091416,-76.5418507
For-Sale-by-Owner Listing,,Single Family Residential,211 Catalfa Ave,Pasadena,MD,21122,399999,4,2.5,Pasadena,1512,7500,1976,91,265,,Active,,,https://www.redfin.com/MD/Pasadena/211-Catalfa-Ave-21122/home/10270371,Fizber.com,11447924,N,Y,39.10644,-76.569853
PAST SALE,July-30-2021,Townhouse,3625 Robin Air Ct,Pasadena,MD,21122,275000,3,2.0,CHESTERFIELD,1540,2000,1984,128,179,70,Sold,,,https://www.redfin.com/MD/Pasadena/3625-Robin-Air-Ct-21122/home/10207741,BRIGHT MLS,MDAA470622,N,Y,39.1328462,-76.5241354
PAST SALE,April-23-2019,Single Family Residential,7705 Woodlawn Ave,Pasadena,MD,21122,360000,4,3.5,GREEN HAVEN,2589,5611,1991,957,139,,Sold,,,https://www.redfin.com/MD/Pasadena/7705-Woodlawn-Ave-21122/home/10243193,BRIGHT MLS,1002485720,N,Y,39.147579,-76.539463
PAST SALE,January-23-2020,Single Family Residential,7800 Mallow Ct,Pasadena,MD,21122,395000,3,2.5,ROCK CREEK LANDING,1822,9475,1992,682,217,6,Sold,,,https://www.redfin.com/MD/Pasadena/7800-Mallow-Ct-21122/home/10284044,BRIGHT MLS,MDAA419058,N,Y,39.1366161,-76.5303301
PAST SALE,July-21-2021,Single Family Residential,1455 Brewer Neck Rd,Pasadena,MD,21122,339000,3,3.0,PASADENA,1352,9147,1952,137,251,,Sold,,,https://www.redfin.com/MD/Pasadena/1455-Brewer-Neck-Rd-21122/home/10116386,BRIGHT MLS,MDAA470558,N,Y,39.145758,-76.500787
PAST SALE,,Condo/Co-op,8040 Abbey Ct Unit 8040F,Pasadena,MD,21122,150000,,,,920,,1986,,163,,,,,https://www.redfin.com/MD/Pasadena/8040-Abbey-Ct-21122/unit-8040F/home/10211428,,,N,Y,39.130277,-76.5266718
PAST SALE,September-20-2021,Single Family Residential,420 Park Creek Rd,Pasadena,MD,21122,1630000,5,3.5,NORTH SHORE,2456,18942,1986,76,664,,Sold,,,https://www.redfin.com/MD/Pasadena/420-Park-Creek-Rd-21122/home/10266927,BRIGHT MLS,MDAA469872,N,Y,39.084717,-76.474778
PAST SALE,July-30-2021,Single Family Residential,185 Edgewater Rd,Pasadena,MD,21122,885000,4,2.5,MAGOTHY PARK,3320,30056,1994,128,267,,Sold,,,https://www.redfin.com/MD/Pasadena/185-Edgewater-Rd-21122/home/10260415,BRIGHT MLS,MDAA2000386,N,Y,39.1124014,-76.5427666
PAST SALE,June-6-2019,Single Family Residential,7858 W Riverside Dr,Pasadena,MD,21122,425000,4,2.0,BAHAMA BEACH,2728,14000,1976,913,156,,Sold,,,https://www.redfin.com/MD/Pasadena/7858-W-Riverside-Dr-21122/home/10142995,BRIGHT MLS,MDAA375262,N,Y,39.1372551,-76.4613924
PAST SALE,,Condo/Co-op,8048 Abbey Ct Unit 8048J,Pasadena,MD,21122,148500,,,,922,,1985,,161,,,,,https://www.redfin.com/MD/Pasadena/8048-Abbey-Ct-21122/unit-8048J/home/10211235,,,N,Y,39.1300368,-76.5254749
PAST SALE,December-1-2020,Single Family Residential,7826 Outing Ave,Pasadena,MD,21122,325000,3,2.5,GREEN HAVEN,1796,5000,1990,369,181,,Sold,,,https://www.redfin.com/MD/Pasadena/7826-Outing-Ave-21122/home/10242748,BRIGHT MLS,MDAA446898,N,Y,39.1383305,-76.5496689
PAST SALE,June-6-2019,Townhouse,81 Johnson Rd,Pasadena,MD,21122,249900,3,2.5,BAR HARBOR MANOR,1550,6497,1983,913,161,,Sold,,,https://www.redfin.com/MD/Pasadena/81-Johnson-Rd-21122/home/10145083,BRIGHT MLS,MDAA376650,N,Y,39.1554301,-76.5133545
PAST SALE,October-15-2019,Single Family Residential,243 Carroll Rd,Pasadena,MD,21122,340000,4,2.0,RIVIERA BEACH,1924,9375,1950,782,177,,Sold,,,https://www.redfin.com/MD/Pasadena/243-Carroll-Rd-21122/home/10280812,BRIGHT MLS,MDAA413540,N,Y,39.167972,-76.510881
PAST SALE,December-4-2020,Townhouse,200 Seneca Ter,Pasadena,MD,21122,329900,3,3.5,FARMINGTON VLGE SCHRAMM',2056,2400,1998,366,160,90,Sold,,,https://www.redfin.com/MD/Pasadena/200-Seneca-Ter-21122/home/10229715,BRIGHT MLS,MDAA450412,N,Y,39.1245685,-76.5568719
PAST SALE,July-8-2020,Townhouse,4119 Apple Leaf Ct,Pasadena,MD,21122,299000,3,3.5,APPLEGATE NORTH,2200,1600,2002,515,136,50,Sold,,,https://www.redfin.com/MD/Pasadena/4119-Apple-Leaf-Ct-21122/home/10472251,BRIGHT MLS,MDAA434200,N,Y,39.1290821,-76.514872
PAST SALE,April-12-2021,Single Family Residential,14 Disney Ave,Pasadena,MD,21122,275000,3,2.0,CLEARVIEW VILLAGE,1900,31292,1953,237,145,,Sold,,,https://www.redfin.com/MD/Pasadena/14-Disney-Ave-21122/home/10214228,BRIGHT MLS,MDAA460758,N,Y,39.1236945,-76.5359302
PAST SALE,March-29-2019,Single Family Residential,8133 Bodkin Ave,Pasadena,MD,21122,515000,3,2.0,BODKIN PLAINS,1580,6426,1955,982,326,,Sold,,,https://www.redfin.com/MD/Pasadena/8133-Bodkin-Ave-21122/home/10163467,BRIGHT MLS,MDAA301800,N,Y,39.1241209,-76.4739917
PAST SALE,July-26-2021,Single Family Residential,982 10th St,Pasadena,MD,21122,360000,3,3.0,GREEN HAVEN,1846,4791,1999,132,195,,Sold,,,https://www.redfin.com/MD/Pasadena/982-10th-St-21122/home/10246154,BRIGHT MLS,MDAA470506,N,Y,39.14405,-76.5369769
PAST SALE,,Other,313 Bar Harbor Rd,Riviera Beach,MD,21122,100000,,,,,5000,,,,,,,,https://www.redfin.com/MD/Riviera-Beach/313-Bar-Harbor-Rd-21122/home/10478291,,,N,Y,39.156663,-76.506222
PAST SALE,April-13-2020,Single Family Residential,421 Magothy Bridge Rd,Pasadena,MD,21122,425000,4,3.0,BEACHWOOD FOREST,2642,24825,1958,601,161,,Sold,,,https://www.redfin.com/MD/Pasadena/421-Magothy-Bridge-Rd-21122/home/10153100,BRIGHT MLS,MDAA423640,N,Y,39.109518,-76.528801
PAST SALE,May-18-2020,Single Family Residential,7855 Kings Bench Pl,Pasadena,MD,21122,319900,4,2.0,QUEENS PARK,1888,4523,1989,566,169,,Sold,,,https://www.redfin.com/MD/Pasadena/7855-Kings-Bench-Pl-21122/home/10276204,BRIGHT MLS,MDAA429940,N,Y,39.1397064,-76.5348915
PAST SALE,August-20-2021,Townhouse,3610 Robin Air Ct,Pasadena,MD,21122,270000,2,1.5,CHESTERFIELD,1185,2581,1984,107,228,48,Sold,,,https://www.redfin.com/MD/Pasadena/3610-Robin-Air-Ct-21122/home/10207654,BRIGHT MLS,MDAA2003654,N,Y,39.133179,-76.524991
PAST SALE,March-25-2019,Single Family Residential,3432 Brookhaven Rd,Pasadena,MD,21122,303500,4,3.0,CHESTERFIELD,1632,5282,1987,986,186,97,Sold,,,https://www.redfin.com/MD/Pasadena/3432-Brookhaven-Rd-21122/home/10209598,BRIGHT MLS,MDAA374864,N,Y,39.1277627,-76.528388
PAST SALE,May-31-2019,Single Family Residential,7771 Old House Rd,Pasadena,MD,21122,309000,3,2.5,GREEN HAVEN,1440,5000,1991,919,215,,Sold,,,https://www.redfin.com/MD/Pasadena/7771-Old-House-Rd-21122/home/10245383,BRIGHT MLS,MDAA394902,N,Y,39.1452398,-76.5348247
PAST SALE,May-31-2019,Townhouse,343 Rambling Ridge Ct,Pasadena,MD,21122,238000,3,2.0,ASPEN PARK,1725,2000,1987,919,138,35,Sold,,,https://www.redfin.com/MD/Pasadena/343-Rambling-Ridge-Ct-21122/home/10137502,BRIGHT MLS,MDAA398280,N,Y,39.13344,-76.557893
PAST SALE,November-22-2021,Single Family Residential,8430 Smallwood Ct,Pasadena,MD,21122,440000,5,3.5,SUNSET BEACH,2784,4000,1940,13,158,,Sold,,,https://www.redfin.com/MD/Pasadena/8430-Smallwood-Ct-21122/home/10293242,BRIGHT MLS,MDAA2003292,N,Y,39.160679,-76.521681
PAST SALE,November-18-2021,Condo/Co-op,3500-H Wedgewood Ct Unit H,Pasadena,MD,21122,190000,2,2.0,CHESTERFIELD GARDEN COND,920,,1986,17,207,226,Sold,,,https://www.redfin.com/MD/Pasadena/3500-Wedgewood-Ct-21122/unit-H/home/145244013,BRIGHT MLS,MDAA2011884,N,Y,39.1308962,-76.5277293
PAST SALE,April-10-2019,Single Family Residential,3211 Art Hall Ln,Pasadena,MD,21122,424000,4,4.0,BARCROFT,1984,7147,1999,970,214,21,Sold,,,https://www.redfin.com/MD/Pasadena/3211-Art-Hall-Ln-21122/home/10144154,BRIGHT MLS,MDAA375840,N,Y,39.1345581,-76.5327011
PAST SALE,July-8-2021,Single Family Residential,210 Magothy Bridge Rd,Pasadena,MD,21122,560000,4,3.5,EARLEIGH HEIGHTS,3392,59677,1987,150,165,,Sold,,,https://www.redfin.com/MD/Pasadena/210-Magothy-Bridge-Rd-21122/home/10128276,BRIGHT MLS,MDAA467542,N,Y,39.1047224,-76.5507138
PAST SALE,June-28-2021,Single Family Residential,903 8th St,Pasadena,MD,21122,450500,4,2.5,GREEN HAVEN,1606,7001,2014,160,281,,Sold,,,https://www.redfin.com/MD/Pasadena/903-8th-St-21122/home/10242970,BRIGHT MLS,MDAA468058,N,Y,39.141906,-76.541202
PAST SALE,September-28-2021,Single Family Residential,994 10th St,Pasadena,MD,21122,335000,4,2.0,GREEN HAVEN,1688,5000,1997,68,198,,Sold,,,https://www.redfin.com/MD/Pasadena/994-10th-St-21122/home/10246019,BRIGHT MLS,MDAA2002280,N,Y,39.145281,-76.536034
PAST SALE,May-12-2021,Single Family Residential,8259 Bayside Dr,Pasadena,MD,21122,1345000,5,2.5,PINEHURST,2960,27500,1920,207,454,,Sold,,,https://www.redfin.com/MD/Pasadena/8259-Bayside-Dr-21122/home/10271934,BRIGHT MLS,MDAA462954,N,Y,39.1159543,-76.4331472
PAST SALE,December-31-2020,Single Family Residential,8476 Greenway Rd,Pasadena,MD,21122,240000,2,1.0,RIVIERA BEACH,770,6250,1950,339,312,,Sold,,,https://www.redfin.com/MD/Pasadena/8476-Greenway-Rd-21122/home/10280101,BRIGHT MLS,MDAA453108,N,Y,39.1597022,-76.5165869
PAST SALE,March-11-2020,Single Family Residential,7666 Cedar Dr,Pasadena,MD,21122,370000,4,3.0,PINE HAVEN,1128,5000,1979,634,328,5,Sold,,,https://www.redfin.com/MD/Pasadena/7666-Cedar-Dr-21122/home/10271437,BRIGHT MLS,MDAA424272,N,Y,39.1496945,-76.5370916
PAST SALE,July-17-2020,Single Family Residential,7631 2nd St,Pasadena,MD,21122,299999,1,1.5,VENICE ON THE BAY,1026,11250,2007,506,292,,Sold,,,https://www.redfin.com/MD/Pasadena/7631-2nd-St-21122/home/10304904,BRIGHT MLS,MDAA431502,N,Y,39.1540016,-76.4745907
PAST SALE,March-25-2021,Single Family Residential,212 12th St,Pasadena,MD,21122,425000,3,2.0,CHELSEA BEACH,1968,11000,1969,255,216,,Sold,,,https://www.redfin.com/MD/Pasadena/212-12th-St-21122/home/10202432,BRIGHT MLS,MDAA458668,N,Y,39.104069,-76.516419
PAST SALE,,Other,7817 E Shore Rd,Pasadena,MD,21122,132500,,,,,5000,,,,,,,,https://www.redfin.com/MD/Pasadena/7817-E-Shore-Rd-21122/home/10240136,,,N,Y,39.1410664,-76.5452022
PAST SALE,December-20-2018,Single Family Residential,7951 Holly Rd,Pasadena,MD,21122,260000,2,2.0,SPRINGDALE,1476,69696,1955,1081,176,,Sold,,,https://www.redfin.com/MD/Pasadena/7951-Holly-Rd-21122/home/10289596,BRIGHT MLS,1009920962,N,Y,39.134597,-76.472028
PAST SALE,May-31-2019,Single Family Residential,8941 Sahalee Ct,Pasadena,MD,21122,800000,4,4.5,GREENSPRING,5065,51836,2006,919,158,42,Sold,,,https://www.redfin.com/MD/Pasadena/8941-Sahalee-Ct-21122/home/10474924,BRIGHT MLS,1002099152,N,Y,39.1310445,-76.4822221
PAST SALE,June-30-2020,Single Family Residential,126 Cottage Grove Dr,Pasadena,MD,21122,326000,3,2.5,COTTAGE GROVE,1920,4517,1985,523,170,10,Sold,,,https://www.redfin.com/MD/Pasadena/126-Cottage-Grove-Dr-21122/home/10218835,BRIGHT MLS,MDAA435716,N,Y,39.152602,-76.515895
PAST SALE,March-1-2019,Single Family Residential,595 Shady Brk,Glen Burnie,MD,21060,415000,4,2.5,SHADY BROOK,2488,7091,2006,1010,167,,Sold,,,https://www.redfin.com/MD/Glen-Burnie/595-Shady-Brk-21060/home/10120254,BRIGHT MLS,MDAA302640,N,Y,39.140996,-76.5675787
PAST SALE,,Townhouse,1176 Booth Bay Harbour,Pasadena,MD,21122,223000,,1.5,,1400,2000,1981,,159,,,,,https://www.redfin.com/MD/Pasadena/1176-Booth-Bay-Harbour-21122/home/10224970,,,N,Y,39.150414,-76.522554
PAST SALE,July-23-2021,Single Family Residential,2175 Lake Dr,Pasadena,MD,21122,359900,4,2.0,BAYSIDE BEACH,2216,13984,1954,135,162,,Sold,,,https://www.redfin.com/MD/Pasadena/2175-Lake-Dr-21122/home/10151074,BRIGHT MLS,MDAA467620,N,Y,39.1403528,-76.4469512
PAST SALE,June-30-2021,Townhouse,8226 White Star Xing,Pasadena,MD,21122,385000,3,2.5,CREEKSTONE VILLAGE,3014,1760,2015,158,128,82,Sold,,,https://www.redfin.com/MD/Pasadena/8226-White-Star-Xing-21122/home/69075135,BRIGHT MLS,MDAA466526,N,Y,39.1265848,-76.5841911
PAST SALE,July-29-2020,Single Family Residential,8444 Spring Rd,Pasadena,MD,21122,490000,4,3.0,SUNSET BEACH,3256,6936,1989,494,150,,Sold,,,https://www.redfin.com/MD/Pasadena/8444-Spring-Rd-21122/home/10293787,BRIGHT MLS,MDAA435314,N,Y,39.159635,-76.520576
PAST SALE,September-20-2019,Single Family Residential,270 11th St,Pasadena,MD,21122,427000,4,3.5,CHELSEA BEACH,,9375,2019,807,,,Sold,,,https://www.redfin.com/MD/Pasadena/270-11th-St-21122/home/10203100,BRIGHT MLS,MDAA404794,N,Y,39.100353,-76.517238
PAST SALE,April-30-2021,Single Family Residential,2911 Rockingham Ct,Pasadena,MD,21122,385000,3,2.5,CHESTERFIELD,2040,5275,1987,219,189,32,Sold,,,https://www.redfin.com/MD/Pasadena/2911-Rockingham-Ct-21122/home/10208647,BRIGHT MLS,MDAA461626,N,Y,39.1359698,-76.5411688
PAST SALE,October-2-2020,Single Family Residential,505 Edgewater Rd,Pasadena,MD,21122,440000,3,1.5,NORTH SHORE,1740,27630,1968,429,253,,Sold,,,https://www.redfin.com/MD/Pasadena/505-Edgewater-Rd-21122/home/10267026,BRIGHT MLS,MDAA444162,N,Y,39.0838729,-76.4707006
PAST SALE,June-30-2021,Single Family Residential,8035 Pine Ridge Rd,Pasadena,MD,21122,390000,4,2.5,SANDY OAKS,1736,7096,1995,158,225,,Sold,,,https://www.redfin.com/MD/Pasadena/8035-Pine-Ridge-Rd-21122/home/10285062,BRIGHT MLS,MDAA464310,N,Y,39.1374055,-76.5677651
PAST SALE,March-29-2019,Single Family Residential,8389 Lockwood Rd,Pasadena,MD,21122,255000,3,1.0,BODKIN PLAINS,1284,11250,1955,982,199,,Sold,,,https://www.redfin.com/MD/Pasadena/8389-Lockwood-Rd-21122/home/10163208,BRIGHT MLS,MDAA375436,N,Y,39.1099336,-76.480132
PAST SALE,October-30-2020,Single Family Residential,7855 Red Lion Way,Pasadena,MD,21122,325000,3,2.0,CHESTERFIELD,1616,7855,1982,401,201,24,Sold,,,https://www.redfin.com/MD/Pasadena/7855-Red-Lion-Way-21122/home/10205264,BRIGHT MLS,MDAA446740,N,Y,39.1353034,-76.5348012
PAST SALE,May-14-2021,Townhouse,3612 Robin Air Ct,Pasadena,MD,21122,232500,2,1.5,CHESTERFIELD,1185,1512,1984,205,196,63,Sold,,,https://www.redfin.com/MD/Pasadena/3612-Robin-Air-Ct-21122/home/10207658,BRIGHT MLS,MDAA462390,N,Y,39.133213,-76.524933
PAST SALE,September-20-2019,Single Family Residential,146 Magothy Beach Rd,Pasadena,MD,21122,345000,4,2.0,CHELSEA BEACH,2074,15000,1975,807,166,,Sold,,,https://www.redfin.com/MD/Pasadena/146-Magothy-Beach-Rd-21122/home/10203871,BRIGHT MLS,MDAA399844,N,Y,39.110507,-76.523783
PAST SALE,September-22-2021,Single Family Residential,2922 Golden Fleece Dr,Pasadena,MD,21122,445000,4,3.5,CHESTERFIELD,2409,7200,1988,74,185,25,Sold,,,https://www.redfin.com/MD/Pasadena/2922-Golden-Fleece-Dr-21122/home/10210424,BRIGHT MLS,MDAA2002448,N,Y,39.1339818,-76.5420946
PAST SALE,,Single Family Residential,8399 Bodkin Ave,Pasadena,MD,21122,303674,,2.0,,1321,100000,,,230,,,,,https://www.redfin.com/MD/Pasadena/8399-Bodkin-Ave-21122/home/10164133,,,N,Y,39.108488,-76.483316
PAST SALE,August-10-2021,Single Family Residential,141 North Dr,Pasadena,MD,21122,690000,7,4.5,CHELSEA BEACH,4574,46675,2014,117,151,,Sold,,,https://www.redfin.com/MD/Pasadena/141-North-Dr-21122/home/69075151,BRIGHT MLS,MDAA470298,N,Y,39.1109648,-76.5242515
PAST SALE,March-4-2021,Single Family Residential,754 218th St,Pasadena,MD,21122,340000,3,2.0,GREEN HAVEN,1756,7500,1964,276,194,,Sold,,,https://www.redfin.com/MD/Pasadena/754-218th-St-21122/home/10241908,BRIGHT MLS,MDAA456592,N,Y,39.1336086,-76.5443854
PAST SALE,December-7-2018,Single Family Residential,969 11th St,Pasadena,MD,21122,370000,3,2.5,GREEN HAVEN,1798,10000,2002,1094,206,,Sold,,,https://www.redfin.com/MD/Pasadena/969-11th-St-21122/home/10245980,BRIGHT MLS,MDAA100426,N,Y,39.1422754,-76.5362544
PAST SALE,September-22-2021,Condo/Co-op,3500 Kingsley Ct Unit C,Pasadena,MD,21122,182000,2,1.0,CHESTERFIELD GARDEN COND,881,,1987,74,207,222,Sold,,,https://www.redfin.com/MD/Pasadena/3500-Kingsley-Ct-21122/unit-C/home/167139167,BRIGHT MLS,MDAA2002718,N,Y,39.1301892,-76.5288171
PAST SALE,December-30-2019,Single Family Residential,4814 Mountain Rd,Pasadena,MD,21122,220000,3,1.5,PASADENA,1846,35719,1954,706,119,,Sold,,,https://www.redfin.com/MD/Pasadena/4814-Mountain-Rd-21122/home/10118469,BRIGHT MLS,MDAA420672,N,Y,39.109761,-76.458445
PAST SALE,June-10-2020,Single Family Residential,8205 Elkwood Ct,Pasadena,MD,21122,379900,4,2.5,DEERFIELD,1954,8860,1988,543,194,7,Sold,,,https://www.redfin.com/MD/Pasadena/8205-Elkwood-Ct-21122/home/10220961,BRIGHT MLS,MDAA433224,N,Y,39.1232163,-76.5264008
PAST SALE,February-28-2019,Single Family Residential,1636 Colony Rd,Pasadena,MD,21122,210000,3,1.0,ROCK CREEK PARK,1092,20003,1965,1011,192,,Sold,,,https://www.redfin.com/MD/Pasadena/1636-Colony-Rd-21122/home/10281056,BRIGHT MLS,MDAA309190,N,Y,39.145082,-76.488469
PAST SALE,February-7-2020,Townhouse,7774 Cork Ln,Pasadena,MD,21122,225000,4,2.5,QUEENS PARK,2037,7158,1978,667,110,,Sold,,,https://www.redfin.com/MD/Pasadena/7774-Cork-Ln-21122/home/10275557,BRIGHT MLS,MDAA421156,N,Y,39.1413217,-76.5316398
PAST SALE,,Single Family Residential,8301 Loblolly Ln,Pasadena,MD,21122,495000,,2.5,,3784,60929,1985,,131,,,,,https://www.redfin.com/MD/Pasadena/8301-Loblolly-Ln-21122/home/10153334,,,N,Y,39.118142,-76.501489
PAST SALE,June-7-2021,Single Family Residential,325 South Carolina Ave,Pasadena,MD,21122,465000,4,3.0,BOULEVARD PARK,1734,11500,1978,181,268,,Sold,,,https://www.redfin.com/MD/Pasadena/325-S-Carolina-Ave-21122/home/10167636,BRIGHT MLS,MDAA471208,N,Y,39.0959144,-76.4749027
PAST SALE,,Single Family Residential,1243 Lorene Dr,Pasadena,MD,21122,612500,,2.5,,2044,25000,1977,,300,,,,,https://www.redfin.com/MD/Pasadena/1243-Lorene-Dr-21122/home/10231581,,,N,Y,39.1187257,-76.4840766
PAST SALE,August-22-2019,Single Family Residential,8217 Champion Ct,Pasadena,MD,21122,545000,4,2.5,COBBLESTONE,3065,16891,2007,836,178,21,Sold,,,https://www.redfin.com/MD/Pasadena/8217-Champion-Ct-21122/home/11223857,BRIGHT MLS,MDAA405726,N,Y,39.1261761,-76.5612181
PAST SALE,May-28-2019,Single Family Residential,170 Grandview Ct,Pasadena,MD,21122,367000,4,3.0,LONG POINT,2172,19000,1968,922,169,,Sold,,,https://www.redfin.com/MD/Pasadena/170-Grandview-Ct-21122/home/10257580,BRIGHT MLS,1009956596,N,Y,39.1002292,-76.4506386
PAST SALE,February-18-2020,Single Family Residential,1828 Fox Hollow Run,Pasadena,MD,21122,515000,3,2.5,CHASE WOOD RUN,3152,66647,1987,656,163,,Sold,,,https://www.redfin.com/MD/Pasadena/1828-Fox-Hollow-Run-21122/home/10204398,BRIGHT MLS,MDAA100247,N,Y,39.1480109,-76.474664
PAST SALE,May-31-2019,Single Family Residential,8421-A Spring Rd,Pasadena,MD,21122,259900,2,2.0,SUNSET BEACH,1188,6772,1984,919,219,,Sold,,,https://www.redfin.com/MD/Pasadena/8421A-Spring-Rd-21122/home/161474650,BRIGHT MLS,MDAA395406,N,Y,39.160621,-76.522522
PAST SALE,March-1-2019,Single Family Residential,120 Dales Way Dr,Pasadena,MD,21122,650000,4,2.5,THE DALES,,15246,2018,1010,,,Sold,,,https://www.redfin.com/MD/Pasadena/120-Dales-Way-Dr-21122/home/147366298,BRIGHT MLS,1001903648,N,Y,39.106917,-76.562851
PAST SALE,August-30-2019,Townhouse,1203 Castine Ct,Pasadena,MD,21122,245000,3,1.5,CASTINE,1840,1850,1991,828,133,84,Sold,,,https://www.redfin.com/MD/Pasadena/1203-Castine-Ct-21122/home/10196748,BRIGHT MLS,MDAA406564,N,Y,39.1404237,-76.5316097
PAST SALE,July-31-2021,Condo/Co-op,851 Deering Rd Unit 9B,Pasadena,MD,21122,210000,2,2.0,DEERFIELD,1100,,,127,191,254,Sold,,,https://www.redfin.com/MD/Pasadena/851-Deering-Rd-21122/unit-9B/home/10221131,BRIGHT MLS,MDAA464728,N,Y,39.1217281,-76.5282855
PAST SALE,May-24-2019,Single Family Residential,3423 Marble Arch Dr,Pasadena,MD,21122,329000,3,2.5,CHESTERFIELD,1903,4512,1987,926,173,24,Sold,,,https://www.redfin.com/MD/Pasadena/3423-Marble-Arch-Dr-21122/home/10210674,BRIGHT MLS,MDAA374734,N,Y,39.1284649,-76.5294283
PAST SALE,November-16-2021,Townhouse,8644 Houlton Harbour,Pasadena,MD,21122,236000,3,1.5,ELIZABETHS LANDING,1400,2000,1984,19,169,103,Sold,,,https://www.redfin.com/MD/Pasadena/8644-Houlton-Harbour-21122/home/10225448,BRIGHT MLS,MDAA457610,N,Y,39.152244,-76.525853
PAST SALE,April-24-2020,Single Family Residential,1443 Old Fort Smallwood Rd,Pasadena,MD,21122,620000,6,3.5,BAY'S REACH,4063,25264,2020,590,153,10,Sold,,,https://www.redfin.com/MD/Pasadena/1443-Old-Fort-Smallwood-Rd-21122/home/147359499,BRIGHT MLS,MDAA425942,N,Y,39.134057,-76.510021
PAST SALE,May-26-2021,Single Family Residential,268 Harlem Rd,Pasadena,MD,21122,390000,3,1.5,RIVIERA BEACH,1031,9568,1926,193,378,,Sold,,,https://www.redfin.com/MD/Pasadena/268-Harlem-Rd-21122/home/10280456,BRIGHT MLS,MDAA465184,N,Y,39.170242,-76.510945
PAST SALE,April-24-2019,Single Family Residential,8040 Nancys Pond Ct,Pasadena,MD,21122,309000,5,3.5,GREEN HAVEN,2547,5077,2000,956,121,,Sold,,,https://www.redfin.com/MD/Pasadena/8040-Nancy-Pond-21122/home/10245550,BRIGHT MLS,MDAA301616,N,Y,39.1292437,-76.5522776
PAST SALE,July-19-2019,Single Family Residential,916 11th St,Pasadena,MD,21122,295000,4,2.0,GREEN HAVEN,1982,5000,1986,870,149,,Sold,,,https://www.redfin.com/MD/Pasadena/916-11th-St-21122/home/10244207,BRIGHT MLS,MDAA327104,N,Y,39.140356,-76.5390539
PAST SALE,July-8-2020,Single Family Residential,7897 Whites Cove Rd,Pasadena,MD,21122,400000,4,3.0,WHITE COVE,1748,43889,1987,515,229,,Sold,,,https://www.redfin.com/MD/Pasadena/7897-Whites-Cove-Rd-21122/home/10313627,BRIGHT MLS,MDAA433688,N,Y,39.1370235,-76.5096436
PAST SALE,November-22-2021,Single Family Residential,986 Pebblestone Rd,Pasadena,MD,21122,363000,3,2.5,QUEENS PARK,2046,5940,1988,13,177,6,Sold,,,https://www.redfin.com/MD/Pasadena/986-Pebblestone-Rd-21122/home/10276115,BRIGHT MLS,MDAA2011162,N,Y,39.1414145,-76.5351317
PAST SALE,October-21-2020,Vacant Land,7844 Bertha Rd,Pasadena,MD,21122,30000,,,ROCK VIEW BEACH,,12500,,410,,,Sold,,,https://www.redfin.com/MD/Pasadena/7844-Bertha-Rd-21122/home/10281857,BRIGHT MLS,MDAA420660,N,Y,39.141286,-76.517156
PAST SALE,July-31-2020,Single Family Residential,3438 Marble Arch Dr,Pasadena,MD,21122,345000,3,2.5,CHESTERFIELD,1620,4340,1987,492,213,30,Sold,,,https://www.redfin.com/MD/Pasadena/3438-Marble-Arch-Dr-21122/home/10209779,BRIGHT MLS,MDAA438458,N,Y,39.1286299,-76.5280614
PAST SALE,October-5-2021,Townhouse,1148 Annis Squam Harbour,Pasadena,MD,21122,300000,3,2.5,ELIZABETHS LANDING,1680,2000,1980,61,179,103,Sold,,,https://www.redfin.com/MD/Pasadena/1148-Annis-Squam-Harbour-21122/home/10224424,BRIGHT MLS,MDAA2007574,N,Y,39.149849,-76.525294
PAST SALE,April-29-2019,Townhouse,1056 Kings Rd,Pasadena,MD,21122,279900,4,2.5,QUEENS PARK,1512,4600,1973,951,185,,Sold,,,https://www.redfin.com/MD/Pasadena/1056-Kings-Rd-21122/home/10275879,BRIGHT MLS,MDAA343462,N,Y,39.1470368,-76.5354334
PAST SALE,October-22-2021,Single Family Residential,78 Johnson Rd,Pasadena,MD,21122,575000,4,3.5,BAR HARBOR,2287,9102,1998,44,251,,Sold,,,https://www.redfin.com/MD/Pasadena/78-Johnson-Rd-21122/home/10144375,BRIGHT MLS,MDAA454456,N,Y,39.1546393,-76.5131362
PAST SALE,July-29-2019,Single Family Residential,7770 Woodlawn Ave,Pasadena,MD,21122,270000,3,1.0,GREEN HAVEN,1482,5000,1998,860,182,,Sold,,,https://www.redfin.com/MD/Pasadena/7770-Woodlawn-Ave-21122/home/10245923,BRIGHT MLS,MDAA405036,N,Y,39.144117,-76.536497
PAST SALE,March-16-2020,Single Family Residential,7717 Colonial Beach Rd,Pasadena,MD,21122,410500,3,2.5,PASADENA,2036,21780,2009,629,202,,Sold,,,https://www.redfin.com/MD/Pasadena/7717-Colonial-Beach-Rd-21122/home/10106996,BRIGHT MLS,MDAA420838,N,Y,39.1470777,-76.4987118
PAST SALE,February-26-2021,Single Family Residential,2134 Beach Dr,Pasadena,MD,21122,435000,3,2.5,PINEHURST,1500,29620,1930,282,290,,Sold,,,https://www.redfin.com/MD/Pasadena/2134-Beach-Dr-21122/home/10271837,BRIGHT MLS,MDAA457760,N,Y,39.1171687,-76.4346387
PAST SALE,April-30-2021,Single Family Residential,339 Sturtons Ln,Pasadena,MD,21122,616000,4,2.5,LAKE SHORE,2332,25700,1965,219,264,,Sold,,,https://www.redfin.com/MD/Lake-Shore/339-Sturtons-Ln-21122/home/10121538,BRIGHT MLS,MDAA460276,N,Y,39.0893889,-76.5152446
PAST SALE,October-5-2021,Single Family Residential,233 New York Ave,Pasadena,MD,21122,500000,4,3.0,BOULEVARD PARK,2754,16200,1979,61,182,,Sold,,,https://www.redfin.com/MD/Pasadena/233-New-York-Ave-21122/home/10168269,BRIGHT MLS,MDAA2008276,N,Y,39.100842,-76.4715499
PAST SALE,June-15-2020,Single Family Residential,4023 Brummel Rd,Pasadena,MD,21122,510000,4,3.5,BRUMMEL HEIGHTS,2980,16458,2010,538,171,,Sold,,,https://www.redfin.com/MD/Pasadena/4023-Brummel-Rd-21122/home/10481779,BRIGHT MLS,MDAA431726,N,Y,39.1283787,-76.5126403
PAST SALE,,Single Family Residential,271 Kenwood Rd,Pasadena,MD,21122,400000,,1.0,,1544,21500,1957,,259,,,,,https://www.redfin.com/MD/Pasadena/271-Kenwood-Rd-21122/home/10280406,,,N,Y,39.167934,-76.507638
PAST SALE,May-22-2019,Single Family Residential,1516 Friendly Rd,Pasadena,MD,21122,340000,3,2.0,SILLERY BAY,1632,15950,1956,928,208,,Sold,,,https://www.redfin.com/MD/Pasadena/1516-Friendly-Rd-21122/home/10289892,BRIGHT MLS,MDAA378984,N,Y,39.100362017,-76.45761358
PAST SALE,September-16-2021,Single Family Residential,221 Inlet Dr,Pasadena,MD,21122,337500,4,1.5,RIVIERA BEACH,1400,6250,1976,80,241,125,Sold,,,https://www.redfin.com/MD/Pasadena/221-Inlet-Dr-21122/home/10279373,BRIGHT MLS,MDAA465372,N,Y,39.163962,-76.5087296
PAST SALE,January-15-2021,Condo/Co-op,3502 Davenport Ct Unit G,Pasadena,MD,21122,167900,2,1.0,CHESTERFIELD GARDEN COND,920,,1986,324,183,226,Sold,,,https://www.redfin.com/MD/Pasadena/3502-Davenport-Ct-21122/unit-G/home/173960894,BRIGHT MLS,MDAA454914,N,Y,39.1312821,-76.5265589
PAST SALE,September-30-2019,Single Family Residential,1200 Winsail Ct,Pasadena,MD,21122,1050000,4,3.5,CHANDLER POINT,4743,74501,1995,797,221,13,Sold,,,https://www.redfin.com/MD/Pasadena/1200-Winsail-Ct-21122/home/10197774,BRIGHT MLS,MDAA373972,N,Y,39.1463967,-76.5061654
PAST SALE,September-17-2021,Single Family Residential,8385 Oak Hollow Dr,Pasadena,MD,21122,560000,4,2.5,MAGOTHY COVE,2612,59807,1993,79,214,8,Sold,,,https://www.redfin.com/MD/Pasadena/8385-Oak-Hollow-Dr-21122/home/10258943,BRIGHT MLS,MDAA2006722,N,Y,39.1102487,-76.546633
PAST SALE,September-24-2021,Single Family Residential,7953 Shady Grove Way,Pasadena,MD,21122,372000,3,2.5,COUNTRY PLACE,1532,10797,1986,72,243,8,Sold,,,https://www.redfin.com/MD/Pasadena/7953-Shady-Grove-Way-21122/home/10219661,BRIGHT MLS,MDAA2007638,N,Y,39.1315866,-76.5313688
PAST SALE,April-8-2021,Single Family Residential,7767 Old House Rd,Pasadena,MD,21122,400000,3,2.5,GREEN HAVEN,1440,5000,1991,241,278,,Sold,,,https://www.redfin.com/MD/Pasadena/7767-Old-House-Rd-21122/home/10245386,BRIGHT MLS,MDAA460832,N,Y,39.145418,-76.535105
PAST SALE,October-15-2021,Vacant Land,1867 Bayside Beach Rd,Pasadena,MD,21122,60000,,,Pasadena,,12196,,51,,,Sold,,,https://www.redfin.com/MD/Pasadena/1867-Bayside-Beach-Rd-21122/home/10123763,BRIGHT MLS,MDAA2004868,N,Y,39.137582,-76.460602
PAST SALE,October-19-2021,Townhouse,1054 Kings Rd,Pasadena,MD,21122,286000,4,2.5,QUEENS PARK,2212,3900,1973,47,129,,Sold,,,https://www.redfin.com/MD/Pasadena/1054-Kings-Rd-21122/home/10275909,BRIGHT MLS,MDAA2012654,N,Y,39.147076,-76.535613
PAST SALE,April-9-2021,Single Family Residential,320 Magothy Beach Rd,Pasadena,MD,21122,245100,3,2.5,UPPER MAGOTHY BEACH,1522,12000,1940,240,161,,Sold,,,https://www.redfin.com/MD/Pasadena/320-Magothy-Beach-Rd-21122/home/10304287,BRIGHT MLS,MDAA460434,N,Y,39.0963611,-76.5276511
PAST SALE,June-18-2021,Single Family Residential,161 Kenwood Rd,Pasadena,MD,21122,369900,4,3.0,RIVIERA BEACH,1860,6250,1950,170,199,,Sold,,,https://www.redfin.com/MD/Pasadena/161-Kenwood-Rd-21122/home/10280733,BRIGHT MLS,MDAA462714,N,Y,39.162558,-76.514601
PAST SALE,May-14-2021,Single Family Residential,720 211th St,Pasadena,MD,21122,289900,3,2.5,GREEN HAVEN,1512,7500,1989,205,192,,Sold,,,https://www.redfin.com/MD/Pasadena/720-211th-St-21122/home/10243470,BRIGHT MLS,MDAA464200,N,Y,39.1373545,-76.5465749
PAST SALE,November-30-2020,Single Family Residential,7845 Outing Ave,Pasadena,MD,21122,315000,3,2.0,GREEN HAVEN,1520,5000,1940,370,207,,Sold,,,https://www.redfin.com/MD/Pasadena/7845-Outing-Ave-21122/home/10242449,BRIGHT MLS,MDAA439940,N,Y,39.136748,-76.548055
PAST SALE,January-20-2021,Single Family Residential,7973 W Riverside Dr,Pasadena,MD,21122,474000,3,2.5,BAHAMA BEACH,1648,15310,1990,319,288,,Sold,,,https://www.redfin.com/MD/Pasadena/7973-W-Riverside-Dr-21122/home/10143153,BRIGHT MLS,MDAA440242,N,Y,39.1334463,-76.4612568
PAST SALE,December-18-2019,Single Family Residential,754 Duvall Hwy,Pasadena,MD,21122,322000,4,3.0,GREEN HAVEN,1513,5000,1989,718,213,,Sold,,,https://www.redfin.com/MD/Pasadena/754-Duvall-Hwy-21122/home/10241766,BRIGHT MLS,MDAA415694,N,Y,39.1405792,-76.5473883
PAST SALE,July-8-2020,Single Family Residential,8060 Escalon Ave,Pasadena,MD,21122,395000,4,2.5,GREEN HAVEN,2458,6833,1990,515,161,,Sold,,,https://www.redfin.com/MD/Pasadena/8060-Escalon-Ave-21122/home/10244477,BRIGHT MLS,MDAA433478,N,Y,39.1331699,-76.5534065
PAST SALE,August-30-2019,Townhouse,783 Willowby Run,Pasadena,MD,21122,235000,3,2.0,DEERFIELD,1400,1692,1990,828,168,120,Sold,,,https://www.redfin.com/MD/Pasadena/783-Willowby-Run-21122/home/10221914,BRIGHT MLS,1010014474,N,Y,39.120154,-76.528218
PAST SALE,December-21-2018,Single Family Residential,335 Magothy Beach Rd,Pasadena,MD,21122,325000,3,2.0,UPPER MAGOTHY BEACH,1328,9600,1946,1080,245,,Sold,,,https://www.redfin.com/MD/Pasadena/335-Magothy-Beach-Rd-21122/home/10303920,BRIGHT MLS,1009908828,N,Y,39.0954488,-76.5274727
PAST SALE,,Townhouse,216 Mulberry Ridge Ct,Pasadena,MD,21122,279000,,2.5,,1678,3600,1994,,166,,,,,https://www.redfin.com/MD/Pasadena/216-Mulberry-Ridge-Ct-21122/home/10139643,,,N,Y,39.135893,-76.557566
PAST SALE,,Single Family Residential,7861 Kings Bench Pl,Pasadena,MD,21122,360000,,2.5,,1364,4539,1989,,264,,,,,https://www.redfin.com/MD/Pasadena/7861-Kings-Bench-Pl-21122/home/10276196,,,N,Y,39.1394005,-76.5346657
PAST SALE,December-19-2019,Condo/Co-op,3500 Wedgewood Ct Unit K,Pasadena,MD,21122,159000,2,1.0,CHESTERFIELD GARDEN COND,922,,1986,717,172,226,Sold,,,https://www.redfin.com/MD/Pasadena/3500-Wedgewood-Ct-21122/unit-K/home/167053610,BRIGHT MLS,MDAA416308,N,Y,39.1308962,-76.5277293
PAST SALE,March-15-2019,Single Family Residential,239 Glen Rd,Pasadena,MD,21122,349900,4,2.0,RIVIERA BEACH,1708,10000,1958,996,205,2,Sold,,,https://www.redfin.com/MD/Pasadena/239-Glen-Rd-21122/home/10279943,BRIGHT MLS,MDAA101812,N,Y,39.1654635,-76.5081969
PAST SALE,December-10-2018,Single Family Residential,263 Carvel Rd,Pasadena,MD,21122,350000,3,2.0,RIVIERA BEACH,1824,6250,1935,1091,192,,Sold,,,https://www.redfin.com/MD/Pasadena/263-Carvel-Rd-21122/home/10280164,BRIGHT MLS,1006212276,N,Y,39.163784,-76.5032389
PAST SALE,July-31-2020,Single Family Residential,11 Bar Harbor Rd,Pasadena,MD,21122,304500,4,2.0,BAR HARBOR,1550,7387,1988,492,196,,Sold,,,https://www.redfin.com/MD/Pasadena/11-Bar-Harbor-Rd-21122/home/10144923,BRIGHT MLS,MDAA432480,N,Y,39.157022,-76.514814
PAST SALE,September-15-2020,Single Family Residential,8412 Echo Dr,Pasadena,MD,21122,480000,4,2.0,RIVIERA BEACH,1540,7500,1948,446,312,3,Sold,,,https://www.redfin.com/MD/Pasadena/8412-Echo-Dr-21122/home/10280373,BRIGHT MLS,MDAA438182,N,Y,39.165175,-76.518111
PAST SALE,January-31-2019,Single Family Residential,8093 Woodholme Cir,Pasadena,MD,21122,245000,3,2.0,WOODHOLME,1720,10100,1956,1039,142,,Sold,,,https://www.redfin.com/MD/Pasadena/8093-Woodholme-Cir-21122/home/10310875,BRIGHT MLS,1005936191,N,Y,39.1285098,-76.584605
PAST SALE,April-12-2019,Single Family Residential,125 Misty Ct,Pasadena,MD,21122,678000,6,4.5,DALES MANOR,5966,41844,1993,968,114,13,Sold,,,https://www.redfin.com/MD/Pasadena/125-Misty-Ct-21122/home/10219132,BRIGHT MLS,MDAA188074,N,Y,39.1065581,-76.5615918
PAST SALE,August-6-2021,Single Family Residential,142 Virginia Ave,Pasadena,MD,21122,450000,5,3.0,BOULEVARD PARK,2812,11500,1993,121,160,,Sold,,,https://www.redfin.com/MD/Pasadena/142-Virginia-Ave-21122/home/10167180,BRIGHT MLS,MDAA470426,N,Y,39.102002,-76.476973
PAST SALE,July-27-2021,Single Family Residential,2910 Rockingham Ct,Pasadena,MD,21122,395000,3,2.0,CHESTERFIELD,1743,6228,1987,131,227,32,Sold,,,https://www.redfin.com/MD/Pasadena/2910-Rockingham-Ct-21122/home/10208601,BRIGHT MLS,MDAA471462,N,Y,39.1363186,-76.5410785
PAST SALE,,Single Family Residential,7782 Woodlawn Ave,Pasadena,MD,21122,291900,,2.5,,1428,5000,2002,,204,,,,,https://www.redfin.com/MD/Pasadena/7782-Woodlawn-Ave-21122/home/10246001,,,N,Y,39.1435126,-76.5355179
PAST SALE,April-14-2020,Single Family Residential,7765 W Shore Rd,Pasadena,MD,21122,365000,3,2.5,GREEN HAVEN,1608,10000,2005,600,227,,Sold,,,https://www.redfin.com/MD/Pasadena/7765-W-Shore-Rd-21122/home/10241260,BRIGHT MLS,MDAA427614,N,Y,39.141238,-76.553571
PAST SALE,March-8-2019,Single Family Residential,7743 Sauerbacker Rd,Pasadena,MD,21122,250000,3,2.0,GREEN HAVEN,1496,3750,1991,1003,167,,Sold,,,https://www.redfin.com/MD/Pasadena/7743-Sauerbacker-Rd-21122/home/10245258,BRIGHT MLS,1009958180,N,Y,39.1446071,-76.5507953
PAST SALE,,Single Family Residential,8333 Catherine Ave,Pasadena,MD,21122,310000,,1.0,,1008,12355,1973,,308,,,,,https://www.redfin.com/MD/Pasadena/8333-Catherine-Ave-21122/home/10260498,,,N,Y,39.1116173,-76.5517676
PAST SALE,,Townhouse,8517 Summit Rd,Pasadena,MD,21122,103150,,1.5,,1300,5387,1980,,79,,,,,https://www.redfin.com/MD/Pasadena/8517-Summit-Rd-21122/home/10285370,,,N,Y,39.1584114,-76.5128689
PAST SALE,,Single Family Residential,235 Armstrong Ln,Pasadena,MD,21122,415000,,2.5,,1988,17600,1985,,209,,,,,https://www.redfin.com/MD/Pasadena/235-Armstrong-Ln-21122/home/10267505,,,N,Y,39.1055868,-76.547762
PAST SALE,March-31-2020,Single Family Residential,3424 Marble Arch Dr,Pasadena,MD,21122,305000,3,2.5,CHESTERFIELD,1817,5041,1987,614,168,25,Sold,,,https://www.redfin.com/MD/Pasadena/3424-Marble-Arch-Dr-21122/home/10210758,BRIGHT MLS,MDAA424454,N,Y,39.1288564,-76.529201
PAST SALE,April-27-2021,Single Family Residential,129 South Carolina Ave,Pasadena,MD,21122,393000,4,2.5,BOULEVARD PARK,1560,11500,1969,222,252,,Sold,,,https://www.redfin.com/MD/Pasadena/129-S-Carolina-Ave-21122/home/10167309,BRIGHT MLS,MDAA460488,N,Y,39.102317,-76.478595
PAST SALE,,Single Family Residential,312 Julias Ln,Pasadena,MD,21122,195000,,1.0,,784,47480,1957,,249,,,,,https://www.redfin.com/MD/Pasadena/312-Julias-Ln-21122/home/10103459,,,N,Y,39.104444,-76.5478974
PAST SALE,June-2-2021,Single Family Residential,7736 Woodlawn Ave,Pasadena,MD,21122,354500,4,3.0,GREEN HAVEN,2400,5000,1986,186,148,,Sold,,,https://www.redfin.com/MD/Pasadena/7736-Woodlawn-Ave-21122/home/10244285,BRIGHT MLS,MDAA463660,N,Y,39.1457837,-76.5389499
PAST SALE,May-16-2019,Single Family Residential,1908 North Ave,Pasadena,MD,21122,268000,3,1.0,VENICE ON THE BAY,1050,11250,1964,934,255,,Sold,,,https://www.redfin.com/MD/Pasadena/1908-North-Ave-21122/home/10304999,BRIGHT MLS,MDAA377462,N,Y,39.1554185,-76.4803601
PAST SALE,February-14-2020,Single Family Residential,836 Woods Rd,Pasadena,MD,21122,315000,4,2.0,CHELSEA BEACH,1808,28000,1966,660,174,,Sold,,,https://www.redfin.com/MD/Pasadena/836-Woods-Rd-21122/home/10202912,BRIGHT MLS,MDAA418224,N,Y,39.1086155,-76.5159867
PAST SALE,December-21-2018,Single Family Residential,515 Lake Shore Dr,Pasadena,MD,21122,1635000,5,4.5,LAKE SHORE,7000,82764,2003,1080,234,,Sold,,,https://www.redfin.com/MD/Pasadena/515-Lake-Shore-Dr-21122/home/10113559,BRIGHT MLS,1000337132,N,Y,39.088147,-76.518559
PAST SALE,March-15-2019,Single Family Residential,234 12th St,Pasadena,MD,21122,292000,3,2.0,CHELSEA BEACH,1556,9375,1973,996,188,,Sold,,,https://www.redfin.com/MD/Pasadena/234-12th-St-21122/home/10203135,BRIGHT MLS,1002251430,N,Y,39.1024823,-76.5158854
PAST SALE,May-10-2019,Single Family Residential,23 Montrose Rd,Pasadena,MD,21122,287000,3,2.0,SUNSET BEACH,1050,6000,1940,940,273,,Sold,,,https://www.redfin.com/MD/Pasadena/23-Montrose-Rd-21122/home/10293257,BRIGHT MLS,MDAA376592,N,Y,39.158668,-76.520004
PAST SALE,September-27-2021,Townhouse,361 Cool Breeze Ct,Pasadena,MD,21122,305000,3,2.0,ASPEN PARK,1200,3600,1988,69,254,46,Sold,,,https://www.redfin.com/MD/Pasadena/361-Cool-Breeze-Ct-21122/home/10138147,BRIGHT MLS,MDAA2007738,N,Y,39.134485,-76.557152
PAST SALE,August-26-2021,Single Family Residential,8492 Laurel Rd,Pasadena,MD,21122,390000,6,3.5,SCHOOL GARDENS,3091,11100,1959,101,126,,Sold,,,https://www.redfin.com/MD/Pasadena/8492-Laurel-Rd-21122/home/10285292,BRIGHT MLS,MDAA2000920,N,Y,39.160081,-76.513642
PAST SALE,November-19-2021,Single Family Residential,1551 Baywood Rd,Pasadena,MD,21122,610000,2,2.0,LONG POINT,1615,7500,1940,16,378,,Sold,,,https://www.redfin.com/MD/Pasadena/1551-Baywood-Rd-21122/home/10258010,BRIGHT MLS,MDAA465830,N,Y,39.096203,-76.450461
PAST SALE,January-25-2019,Single Family Residential,7778 Edgewood Ave,Pasadena,MD,21122,384000,4,3.5,GREEN HAVEN,2491,5000,2018,1045,154,,Sold,,,https://www.redfin.com/MD/Pasadena/7778-Edgewood-Ave-21122/home/10241567,BRIGHT MLS,1009934154,N,Y,39.143654,-76.542589
PAST SALE,January-28-2021,Single Family Residential,8466 Byrd Rd,Pasadena,MD,21122,263000,3,1.5,SUNSET BEACH,1280,4000,1976,311,205,,Sold,,,https://www.redfin.com/MD/Pasadena/8466-Byrd-Rd-21122/home/10293713,BRIGHT MLS,MDAA450438,N,Y,39.155636,-76.523132
PAST SALE,July-1-2020,Townhouse,3632 Saltwood Gln,Pasadena,MD,21122,231000,2,1.5,CHESTERFIELD,1185,1513,1983,522,195,63,Sold,,,https://www.redfin.com/MD/Pasadena/3632-Saltwood-Gln-21122/home/10207538,BRIGHT MLS,MDAA435976,N,Y,39.1341821,-76.5254041
PAST SALE,November-15-2019,Single Family Residential,164 Oak Dr,Pasadena,MD,21122,370000,4,2.5,CHELSEA BEACH,1936,23100,1977,751,191,,Sold,,,https://www.redfin.com/MD/Pasadena/164-Oak-Dr-21122/home/10204003,BRIGHT MLS,MDAA410950,N,Y,39.1079596,-76.5274633
PAST SALE,February-21-2019,Townhouse,7794-E Moonfall Ct,Pasadena,MD,21122,245000,4,3.5,STONEYBROOKE VILLAGE,1300,6219,1985,1018,188,42,Sold,,,https://www.redfin.com/MD/Pasadena/7794-Moonfall-Ct-21122/home/10296866,BRIGHT MLS,1002261118,N,Y,39.1457056,-76.5275531
PAST SALE,July-24-2019,Single Family Residential,8035 Jumpers Hole Rd,Pasadena,MD,21122,299900,3,2.5,WOODHOLME,1760,10650,1999,865,170,,Sold,,,https://www.redfin.com/MD/Pasadena/8035-Jumpers-Hole-Rd-21122/home/10310968,BRIGHT MLS,MDAA403254,N,Y,39.1297237,-76.5871331
PAST SALE,August-22-2019,Single Family Residential,99 Creekview Ct,Pasadena,MD,21122,235000,3,1.0,CREEK VIEW,956,7051,1982,836,246,,Sold,,,https://www.redfin.com/MD/Pasadena/99-Creekview-Ct-21122/home/10220258,BRIGHT MLS,MDAA407674,N,Y,39.155588,-76.510994
PAST SALE,March-13-2019,Single Family Residential,501 Edgewater Rd,Pasadena,MD,21122,880000,4,3.5,NORTH SHORE,3112,32345,1969,998,283,,Sold,,,https://www.redfin.com/MD/Pasadena/501-Edgewater-Rd-21122/home/10266903,BRIGHT MLS,MDAA377308,N,Y,39.0841863,-76.4695642
PAST SALE,July-31-2020,Townhouse,1043 Bulman Harbour,Pasadena,MD,21122,270000,3,2.5,ELIZABETHS LANDING,1440,2000,1984,492,188,103,Sold,,,https://www.redfin.com/MD/Pasadena/1043-Bulman-Harbour-21122/home/10226344,BRIGHT MLS,MDAA436594,N,Y,39.153174,-76.529023
PAST SALE,September-27-2019,Single Family Residential,719 212th St,Pasadena,MD,21122,313000,4,3.0,GREEN HAVEN,1884,5000,1991,800,166,,Sold,,,https://www.redfin.com/MD/Pasadena/719-212th-St-21122/home/10245270,BRIGHT MLS,MDAA408328,N,Y,39.1363539,-76.5462379
PAST SALE,August-15-2019,Single Family Residential,130 Meadow Rd,Pasadena,MD,21122,270000,3,1.5,RIVIERA BEACH,1384,9375,1940,843,195,,Sold,,,https://www.redfin.com/MD/Pasadena/130-Meadow-Rd-21122/home/10279161,BRIGHT MLS,MDAA407114,N,Y,39.1617017,-76.5178149
PAST SALE,May-21-2021,Townhouse,8174 Hazy Dawn Ct,Pasadena,MD,21122,310000,4,2.5,ASPEN PARK,1220,2000,1989,198,254,47,Sold,,,https://www.redfin.com/MD/Pasadena/8174-Hazy-Dawn-Ct-21122/home/10137205,BRIGHT MLS,MDAA466236,N,Y,39.135748,-76.559387
PAST SALE,March-27-2020,Single Family Residential,1562 Marco Dr,Pasadena,MD,21122,410000,3,2.0,GREENHILL MANOR,2236,19994,1978,618,183,,Sold,,,https://www.redfin.com/MD/Pasadena/1562-Marco-Dr-21122/home/10246523,BRIGHT MLS,MDAA423638,N,Y,39.1201854,-76.4611581
PAST SALE,May-4-2020,Single Family Residential,8069 Highview Rd,Pasadena,MD,21122,637500,4,3.5,BELHAVEN BEACH,3503,22500,2008,580,182,,Sold,,,https://www.redfin.com/MD/Pasadena/8069-Highview-Rd-21122/home/10155261,BRIGHT MLS,MDAA427782,N,Y,39.1281852,-76.4765567
PAST SALE,June-7-2021,Townhouse,151 Dunlap Rd,Pasadena,MD,21122,260000,4,1.5,ROCK CREEK ESTATES,1197,4500,1971,181,217,,Sold,,,https://www.redfin.com/MD/Pasadena/151-Dunlap-Rd-21122/home/10283702,BRIGHT MLS,MDAA462732,N,Y,39.157414,-76.505902
PAST SALE,September-27-2021,Single Family Residential,7708 W Shore Rd,Pasadena,MD,21122,652000,3,3.5,GREEN HAVEN,1350,15072,1993,69,483,,Sold,,,https://www.redfin.com/MD/Pasadena/7708-W-Shore-Rd-21122/home/10242040,BRIGHT MLS,MDAA2002670,N,Y,39.1450667,-76.5516403
PAST SALE,October-29-2021,Single Family Residential,686 208th St,Pasadena,MD,21122,210000,3,2.0,GREEN HAVEN,966,5000,1994,37,217,,Sold,,,https://www.redfin.com/MD/Pasadena/686-208th-St-21122/home/10245803,BRIGHT MLS,MDAA2000213,N,Y,39.1377338,-76.55088
PAST SALE,April-19-2019,Single Family Residential,7858 Kings Bench Pl,Pasadena,MD,21122,285000,4,2.0,QUEENS PARK,1540,5528,1988,961,185,,Sold,,,https://www.redfin.com/MD/Pasadena/7858-Kings-Bench-Pl-21122/unit-P1/home/10276235,BRIGHT MLS,1010008154,N,Y,39.1393866,-76.5352423
PAST SALE,September-29-2021,Townhouse,8246 Meadow Wick Ct,Pasadena,MD,21122,290000,3,2.5,ASPEN PARK,1500,3600,1986,67,193,40,Sold,,,https://www.redfin.com/MD/Pasadena/8246-Meadow-Wick-Ct-21122/home/10136705,BRIGHT MLS,MDAA2005108,N,Y,39.1332468,-76.5616584
PAST SALE,,Single Family Residential,8134 Solley Rd,Pasadena,MD,21122,305000,,2.5,,2432,20037,2020,,125,,,,,https://www.redfin.com/MD/Pasadena/8134-Solley-Rd-21122/home/10110711,,,N,Y,39.1361392,-76.5641079
PAST SALE,May-28-2021,Single Family Residential,252 Magothy Bridge Rd,Pasadena,MD,21122,449900,4,1.5,PASADENA,2404,29185,1968,191,187,,Sold,,,https://www.redfin.com/MD/Pasadena/252-Magothy-Bridge-Rd-21122/home/10110695,BRIGHT MLS,MDAA451496,N,Y,39.107613,-76.54423
PAST SALE,October-9-2020,Single Family Residential,1396 Amphibian Dr,Pasadena,MD,21122,310000,3,2.0,HUNTERS HARBOR,1452,11664,1957,422,213,13,Sold,,,https://www.redfin.com/MD/Pasadena/1396-Amphibian-Dr-21122/home/10253761,BRIGHT MLS,MDAA441160,N,Y,39.095388,-76.461886
PAST SALE,March-17-2021,Single Family Residential,77 Magothy Beach Rd,Pasadena,MD,21122,760000,4,4.0,Pasadena,3108,43560,2021,263,245,,Sold,,,https://www.redfin.com/MD/Pasadena/77-Magothy-Beach-Rd-21122/home/10111279,BRIGHT MLS,MDAA450068,N,Y,39.115326,-76.5194719
PAST SALE,,Condo/Co-op,3500 Davenport Ct Unit 3500M,Pasadena,MD,21122,185519,,,,918,,1985,,202,,,,,https://www.redfin.com/MD/Pasadena/3500-Davenport-Ct-21122/unit-3500M/home/10211350,,,N,Y,39.1308828,-76.5265589
PAST SALE,November-30-2021,Townhouse,355 Cool Breeze Ct,Pasadena,MD,21122,265000,3,1.5,ASPEN PARK,1689,2000,1988,5,157,31,Sold,,,https://www.redfin.com/MD/Pasadena/355-Cool-Breeze-Ct-21122/home/10138121,BRIGHT MLS,MDAA2005334,N,Y,39.1344009,-76.557461
