SALE TYPE,SOLD DATE,PROPERTY TYPE,ADDRESS,CITY,STATE OR PROVINCE,ZIP OR POSTAL CODE,PRICE,BEDS,BATHS,LOCATION,SQUARE FEET,LOT SIZE,YEAR BUILT,DAYS ON MARKET,$/SQUARE FEET,HOA/MONTH,STATUS,NEXT OPEN HOUSE START TIME,NEXT OPEN HOUSE END TIME,URL (SEE https://www.redfin.com/buy-a-home/comparative-market-analysis FOR INFO ON PRICING),SOURCE,MLS#,FAVORITE,INTERESTED,LATITUDE,LONGITUDE
MLS Listing,,Townhouse,308 Westridge Dr,Yadkinville,NC,27055,107500,3,2.0,Westridge Townhomes,,,1984,2,,85,Pre On-Market,,,https://www.redfin.com/NC/Yadkinville/308-Westridge-Dr-27055/home/65526932,Triad MLS,1051276,N,Y,36.121352,-80.664543
MLS Listing,,Single Family Residential,3149 Courtney Huntsville Rd,Yadkinville,NC,27055,325000,3,2.0,,,,1991,10,,,Active,December-5-2021 02:00 PM,December-5-2021 04:00 PM,https://www.redfin.com/NC/Yadkinville/3149-Courtney-Huntsville-Rd-27055/home/65528355,Triad MLS,1050431,N,Y,36.0797321,-80.5889094
MLS Listing,,Ranch,1500 Moonshine Ln,Yadkinville,NC,27055,268736,,,Yadkinville,,,,25,,,Active,,,https://www.redfin.com/NC/Yadkinville/1500-Moonshine-Ln-27055/home/65520178,Triad MLS,1049067,N,Y,36.0679902,-80.5889527
MLS Listing,,Single Family Residential,213 W Main St,Yadkinville,NC,27055,339000,4,2.0,,,,1923,31,,,Active,,,https://www.redfin.com/NC/Yadkinville/213-W-Main-St-27055/home/65526212,Triad MLS,1048476,N,Y,36.1339658,-80.6631887
MLS Listing,,Single Family Residential,3553 Whippoorwill Rd,Yadkinville,NC,27055,120000,2,1.5,,,,1950,45,,,Active,,,https://www.redfin.com/NC/Yadkinville/3553-Whippoorwill-Rd-27055/home/65519875,Triad MLS,1045404,N,Y,36.0497855,-80.5514623
MLS Listing,,Single Family Residential,1628 Lone Hickory Rd #2,Yadkinville,NC,27055,896500,5,3.0,Yadkinville,5392,7056720,1971,46,166,,Active,,,https://www.redfin.com/NC/Yadkinville/1628-Lone-Hickory-Rd-27055/unit-2/home/176796900,CANOPYMLS,3797966,N,Y,36.0798501,-80.6784281
MLS Listing,,Vacant Land,000 Shacktown Rd,Yadkinville,NC,27055,59900,,,Yadkinville,,,,88,,,Active,,,https://www.redfin.com/NC/YADKINVILLE/SHACKTOWN-RD-27055/home/65522686,Triad MLS,1041657,N,Y,36.117492,-80.592027
MLS Listing,,Single Family Residential,00 Old Stage Rd,Yadkinville,NC,27055,89900,,,,,,,95,,,Active,,,https://www.redfin.com/NC/Yadkinville/1801-Old-Stage-Rd-27055/home/171837559,Triad MLS,1040922,N,Y,36.098613,-80.631707
MLS Listing,,Single Family Residential,2320 Old Us Highway 421 E,Yadkinville,NC,27055,22000,,,Woodhaven Estates,,,,106,,,Active,,,https://www.redfin.com/NC/Yadkinville/2320-Old-Us-Highway-421-E-27055/home/176482383,Triad MLS,1039462,N,Y,36.136017,-80.612076
MLS Listing,,Single Family Residential,2188 Walnut Crossing Run,Yadkinville,NC,27055,439900,3,3.5,Walnut Crossing,,,2008,107,,,Active,,,https://www.redfin.com/NC/YADKINVILLE/2188-WALNUT-CROSSING-RUN-27055/home/65536382,Triad MLS,1039103,N,Y,36.133389,-80.555691
MLS Listing,,Single Family Residential,00 Golfair Dr,Yadkinville,NC,27055,65000,,,Country Club Estates,,,,116,,,Active,,,https://www.redfin.com/NC/YADKINVILLE/GOLFAIR-DR-27055/home/65525609,Triad MLS,1038103,N,Y,36.171885,-80.66168
MLS Listing,,Single Family Residential,3429 Old US 421 Hwy,Yadkinville,NC,27055,900000,5,4.0,Yadkinville,3642,1345132,2011,121,247,,Active,,,https://www.redfin.com/NC/Yadkinville/3441-Old-US-421-Hwy-E-27055/home/144262967,CANOPYMLS,3771243,N,Y,36.1340239,-80.56437
MLS Listing,,Single Family Residential,3429 Old Us Highway 421 E,Yadkinville,NC,27055,900000,3,2.0,,,,2011,122,,,Active,,,https://www.redfin.com/NC/Yadkinville/3429-Old-Us-Highway-421-E-27055/home/163843607,Triad MLS,1036490,N,Y,36.134244,-80.563296
MLS Listing,,Single Family Residential,2023 Chimney Field Rd,Yadkinville,NC,27055,25000,,,Yadkinville,,,,123,,,Active,,,https://www.redfin.com/NC/Yadkinville/2023-Chimney-Field-Rd-27055/home/70490287,Triad MLS,1037237,N,Y,36.169449,-80.663816
MLS Listing,,Single Family Residential,2009 Chimney Field Rd,Yadkinville,NC,27055,25000,,,Yadkinville,,,,123,,,Active,,,https://www.redfin.com/NC/Yadkinville/2009-Chimney-Field-Rd-27055/home/70490596,Triad MLS,1037236,N,Y,36.168779,-80.662049
MLS Listing,,Single Family Residential,2008 Chimney Field Rd,Yadkinville,NC,27055,25000,,,Yadkinville,,,,123,,,Active,,,https://www.redfin.com/NC/Yadkinville/2008-Chimney-Field-Rd-27055/home/70490280,Triad MLS,1037234,N,Y,36.168359,-80.661156
MLS Listing,,Single Family Residential,2029 Chimney Field Rd,Yadkinville,NC,27055,25000,,,Yadkinville,,,,123,,,Active,,,https://www.redfin.com/NC/Yadkinville/2029-Chimney-Field-Rd-27055/home/70490288,Triad MLS,1035042,N,Y,36.169054,-80.663981
MLS Listing,,Single Family Residential,2015 Chimney Field Rd,Yadkinville,NC,27055,25000,,,Yadkinville,,,,123,,,Active,,,https://www.redfin.com/NC/Yadkinville/2015-Chimney-Field-Rd-27055/home/70490703,Triad MLS,1037232,N,Y,36.169435,-80.662334
MLS Listing,,Single Family Residential,00 Shacktown Rd,Yadkinville,NC,27055,79850,,,Yadkinville,,,,130,,,Active,,,https://www.redfin.com/NC/Yadkinville/2251-Speer-Bridge-Rd-27055/home/65528287,Triad MLS,1034931,N,Y,36.0926106,-80.5606629
MLS Listing,,Single Family Residential,0 Lori Ln,Yadkinville,NC,27055,37500,,,Yadkinville,,,,150,,,Active,,,https://www.redfin.com/NC/Yadkinville/3033-Lori-Ln-27055/home/65531561,Triad MLS,1032011,N,Y,36.1217918,-80.576089
MLS Listing,,Single Family Residential,01 Blessings Dr,Yadkinville,NC,27055,29000,,,,,,,272,,,Active,,,https://www.redfin.com/NC/South-Fall-Creek/01-Blessings-Rd-27055/home/174644092,Triad MLS,1014746,N,Y,36.191747,-80.604446
MLS Listing,,Single Family Residential,01 E Willow St,Yadkinville,NC,27055,25000,,,,,,,403,,,Active,,,https://www.redfin.com/NC/Yadkinville/01-E-Willow-St-27055/home/173558004,Triad MLS,001015,N,Y,36.13205,-80.65272
MLS Listing,,Vacant Land,01 Service Rd,Yadkinville,NC,27055,134500,,,Yadkinville,,,,500,,,Active,,,https://www.redfin.com/NC/Yadkinville/01-Service-Rd-27055/home/172548184,Triad MLS,986044,N,Y,36.115215,-80.641199
MLS Listing,,Vacant Land,0 W Main St,Yadkinville,NC,27055,50000,,,Yadkinville,,,,575,,,Active,,,https://www.redfin.com/NC/Yadkinville/1013-W-Main-St-27055/home/109609301,Triad MLS,976409,N,Y,36.1353078,-80.6783246
MLS Listing,,Single Family Residential,01 Old Us Highway 421 E,Yadkinville,NC,27055,79900,,,Yadkinville,,,,587,,,Active,,,https://www.redfin.com/NC/Yadkinville/01-Old-Us-Highway-421-E-27055/home/171433180,Triad MLS,975146,N,Y,36.136859,-80.631473
MLS Listing,,Single Family Residential,4736 Us Highway 601,Yadkinville,NC,27055,121500,,,Yadkinville,,,,677,,,Active,,,https://www.redfin.com/NC/Yadkinville/4736-US-601-27055/home/65519516,Triad MLS,963693,N,Y,36.1506328,-80.671746
