SALE TYPE,SOLD DATE,PROPERTY TYPE,ADDRESS,CITY,STATE OR PROVINCE,ZIP OR POSTAL CODE,PRICE,BEDS,BATHS,LOCATION,SQUARE FEET,LOT SIZE,YEAR BUILT,DAYS ON MARKET,$/SQUARE FEET,HOA/MONTH,STATUS,NEXT OPEN HOUSE START TIME,NEXT OPEN HOUSE END TIME,URL (SEE https://www.redfin.com/buy-a-home/comparative-market-analysis FOR INFO ON PRICING),SOURCE,MLS#,FAVORITE,INTERESTED,LATITUDE,LONGITUDE
MLS Listing,,Single Family Residential,59 Woodcrest Dr,Brevard,NC,28712,750000,3,3.5,Windover Farms,4060,175111,2007,1,185,40,Pre On-Market,,,https://www.redfin.com/NC/Brevard/59-Woodcrest-Dr-28712/home/140317149,CANOPYMLS,3808561,N,Y,35.1856099,-82.76534
MLS Listing,,Single Family Residential,78 Smiling Fox Trl,Brevard,NC,28712,799000,1,1.0,Happy Acres,825,283140,1962,2,968,,Active,,,https://www.redfin.com/NC/Brevard/990-Happy-Acres-Rd-28712/home/140271690,CANOPYMLS,3810136,N,Y,35.1258373,-82.6964981
MLS Listing,,Vacant Land,Lot M11 Pine Mountain Trl,Brevard,NC,28712,69000,,,Straus Park,,87120,,2,,67,Active,,,https://www.redfin.com/NC/Brevard/Lot-M11-Pine-Mountain-Trl-28712/home/174639771,CANOPYMLS,3810380,N,Y,35.260191,-82.726262
MLS Listing,,Vacant Land,Lot M10 Pine Mountain Trl,Brevard,NC,28712,69000,,,Straus Park,,80150,,2,,67,Active,,,https://www.redfin.com/NC/Brevard/Lot-M10-Pine-Mountain-Trl-28712/home/174639770,CANOPYMLS,3810382,N,Y,35.260857,-82.729051
MLS Listing,,Vacant Land,Lot M9 Pine Mountain Trl,Brevard,NC,28712,69000,,,Straus Park,,54014,,2,,67,Active,,,https://www.redfin.com/NC/Brevard/Lot-M9-Pine-Mountain-Trl-28712/home/174639772,CANOPYMLS,3810383,N,Y,35.261768,-82.730253
MLS Listing,,Vacant Land,U19 L035 Gawanv Ct,Brevard,NC,28712,30000,,,Connestee Falls,,16117,,3,,175,Active,,,https://www.redfin.com/NC/Unknown/U19-L035-Gawanv-Ct-28712/home/177479051,CANOPYMLS,3806766,N,Y,35.149343,-82.714463
MLS Listing,,Vacant Land,Lot 134 Green Hollow Ln #134,Brevard,NC,28712,95000,,,Big Hill,,95396,,3,,33,Active,,,https://www.redfin.com/NC/Unknown/Lot-134-Green-Hollow-Ln-28712/unit-134/home/177474867,CANOPYMLS,3810150,N,Y,35.12421,-82.70307
MLS Listing,,Single Family Residential,"652 Big Hill Rd Unit 31R,55R",Brevard,NC,28712,1200000,4,3.0,Big Hill,2954,484822,2004,5,406,48,Active,,,https://www.redfin.com/NC/Brevard/652-Big-Hill-Rd-28712/unit-31R-55R/home/177384111,CANOPYMLS,3809642,N,Y,35.1289527,-82.7177061
MLS Listing,,Vacant Land,000 Hannah Ford Rd,Brevard,NC,28712,100000,,,Brevard,,310582,,6,,,Active,,,https://www.redfin.com/NC/BREVARD/Unknown-28712/home/140300588,CANOPYMLS,3807691,N,Y,35.180763,-82.772639
MLS Listing,,Vacant Land,TBD Hannah Ford Rd,Brevard,NC,28712,87500,,,Brevard,,85813,,6,,,Active,,,https://www.redfin.com/NC/Brevard/44-Four-Seasons-Plz-28712/home/140263028,CANOPYMLS,3806527,N,Y,35.2402258,-82.7306417
MLS Listing,,Single Family Residential,288 W Main St,Brevard,NC,28712,749000,4,2.5,Brevard,2215,5227,2020,10,338,,Active,,,https://www.redfin.com/NC/Brevard/288-W-Main-St-28712/home/140373530,CANOPYMLS,3808974,N,Y,35.235777,-82.73868
MLS Listing,,Single Family Residential,177 Country Rd,Brevard,NC,28712,399900,3,2.0,Old J H Singletary,2617,26571,1993,11,153,8,Active,,,https://www.redfin.com/NC/Brevard/177-Country-Rd-28712/home/140340719,CANOPYMLS,3808732,N,Y,35.13599,-82.778825
MLS Listing,,Single Family Residential,644 N Country Club Rd,Brevard,NC,28712,525000,3,2.0,Brevard,1625,17206,1957,11,323,,Active,,,https://www.redfin.com/NC/Brevard/644-N-Country-Club-Rd-28712/home/140362604,CANOPYMLS,3808178,N,Y,35.2181309,-82.7364211
MLS Listing,,Single Family Residential,205 Resada Dr,Brevard,NC,28712,309000,2,2.0,Deer Track,1152,8276,1990,12,268,80,Active,,,https://www.redfin.com/NC/Brevard/205-Resada-Dr-28712/home/140337088,CANOPYMLS,3808425,N,Y,35.243717,-82.7401719
MLS Listing,,Townhouse,445 Qualla Cir,Brevard,NC,28712,449000,3,2.5,Qualla Village,2050,,2005,15,219,435,Active,,,https://www.redfin.com/NC/Brevard/445-Qualla-Cir-28712/home/140226557,CANOPYMLS,3807268,N,Y,35.146997,-82.74279
MLS Listing,,Vacant Land,0000 Cantrell Mountain Rd,Brevard,NC,28712,1100000,,,Brevard,,2918520,,16,,,Active,,,https://www.redfin.com/NC/Unknown/Unknown-Unknown/home/140361644,CANOPYMLS,3807666,N,Y,35.168638,-82.715388
MLS Listing,,Vacant Land,Lot 16 Gastons Bee Gum Rd,Brevard,NC,28712,60000,,,Round Mountain,,81892,,18,,50,Active,,,https://www.redfin.com/NC/Brevard/16-Gastons-Bee-Gum-Rd-28712/home/177220238,CANOPYMLS,3807093,N,Y,35.065662,-82.868025
MLS Listing,,Vacant Land,TBD Green Hollow Ln #130,Brevard,NC,28712,55000,,,Big Hill,,50093,,18,,33,Active,,,https://www.redfin.com/NC/Brevard/44-Four-Seasons-Plz-28712/unit-130/home/177218436,CANOPYMLS,3807152,N,Y,35.2402258,-82.7306417
MLS Listing,,Single Family Residential,46 Hilt Street Ext,Brevard,NC,28712,600000,4,4.0,Brevard,2328,18730,1993,19,258,,Active,,,https://www.redfin.com/NC/Brevard/46-Hilt-St-Ext-28712/home/140398556,CANOPYMLS,3805369,N,Y,35.2347014,-82.7239815
MLS Listing,,Single Family Residential,54 Hillside Hts,Brevard,NC,28712,250000,3,1.5,Brevard,1400,16509,1947,20,179,,Active,,,https://www.redfin.com/NC/Brevard/54-Hillside-Hts-28712/home/140383146,CANOPYMLS,3806174,N,Y,35.2667726,-82.7087999
MLS Listing,,Vacant Land,M102 Camptown Rd Unit M102,Brevard,NC,28712,150000,,,Straus Park,,15245,,21,,67,Active,,,https://www.redfin.com/NC/Brevard/M102-Camptown-Rd-28712/unit-M102/home/177189869,CANOPYMLS,3806058,N,Y,35.259555,-82.721652
MLS Listing,,Single Family Residential,617 Main St,Brevard,NC,28712,485000,5,2.5,Brevard,2180,16552,1920,23,222,,Active,,,https://www.redfin.com/NC/Brevard/617-E-Main-St-28712/home/140253985,CANOPYMLS,3805580,N,Y,35.2275046,-82.7275389
MLS Listing,,Vacant Land,"#1,2,(10&11),12 Forest Hills Cir Unit 1 - 2 - (10-11) - 12",Brevard,NC,28712,250000,,,Brevard,,41382,,23,,,Active,,,https://www.redfin.com/NC/Brevard/1-2-10-11-12-Forest-Hills-CIR-Unknown/unit-1-2-10-11-12/home/177172824,CANOPYMLS,3793752,N,Y,35.22056,-82.744207
MLS Listing,,Single Family Residential,1788 Eagle Lake Dr,Brevard,NC,28712,1500000,3,2.5,Eagle Lake,2465,72309,2011,23,609,117,Active,,,https://www.redfin.com/NC/Brevard/1788-Eagle-Lake-Dr-28712/home/140361251,CANOPYMLS,3805707,N,Y,35.1855644,-82.7003417
MLS Listing,,Single Family Residential,418 Oak Park Dr,Brevard,NC,28712,499000,3,2.5,White Oak Park,2626,22781,1963,23,190,,Active,,,https://www.redfin.com/NC/Brevard/418-Oak-Park-Dr-28712/home/140373282,CANOPYMLS,3805659,N,Y,35.2514171,-82.7143428
MLS Listing,,Single Family Residential,668 Maple St,Brevard,NC,28712,299000,3,3.0,Brevard,1794,6403,1973,27,167,,Active,,,https://www.redfin.com/NC/Brevard/668-Maple-St-28712/home/140367311,CANOPYMLS,3804076,N,Y,35.2213966,-82.731785
MLS Listing,,Single Family Residential,1265 Soquili Dr,Brevard,NC,28712,525000,3,2.0,Connestee Falls,2144,22215,1978,29,245,292,Active,,,https://www.redfin.com/NC/Brevard/1265-Soquili-Dr-28712/home/140347497,CANOPYMLS,3802991,N,Y,35.1398799,-82.7189212
MLS Listing,,Single Family Residential,388 Hard To Find Dr,Brevard,NC,28712,1400000,4,4.0,Brevard,4297,1829520,2002,30,326,,Active,,,https://www.redfin.com/NC/BREVARD/388-HARD-TO-FIND-DR-28712/home/140291769,CANOPYMLS,3803245,N,Y,35.105294,-82.842729
MLS Listing,,Single Family Residential,228 Hard To Find Dr,Brevard,NC,28712,925000,2,3.0,Brevard,3424,1454904,1997,31,270,,Active,,,https://www.redfin.com/NC/Brevard/228-Hard-To-Find-Dr-28712/home/140368443,CANOPYMLS,3803233,N,Y,35.1053397,-82.8407431
MLS Listing,,Single Family Residential,55 Danbury Ln,Brevard,NC,28712,425000,4,3.0,Bedford Place,2427,6969,2002,31,175,110,Active,,,https://www.redfin.com/NC/Brevard/55-E-Danbury-Ln-28712/home/140399084,CANOPYMLS,3802318,N,Y,35.2493042,-82.7145443
MLS Listing,,Vacant Land,000 Oscar Chappell Rd,Brevard,NC,28712,65000,,,Brevard,,219106,,32,,,Active,,,https://www.redfin.com/NC/Brevard/798-Oscar-Chappell-Rd-28712/home/140273176,CANOPYMLS,3802606,N,Y,35.0890092,-82.8504109
MLS Listing,,Single Family Residential,26 Burnette Dr,Brevard,NC,28712,479000,3,1.5,Brevard,1510,44866,1966,32,317,,Active,December-5-2021 10:00 AM,December-5-2021 12:00 PM,https://www.redfin.com/NC/Brevard/26-Burnette-Dr-28712/home/140269661,CANOPYMLS,3801828,N,Y,35.2517012,-82.7063479
MLS Listing,,Single Family Residential,29 Walelu Ct,Brevard,NC,28712,575000,3,2.5,Connestee Falls,2951,19384,2006,37,195,292,Active,,,https://www.redfin.com/NC/Brevard/29-Walelu-Ct-28712/home/140393726,CANOPYMLS,3801014,N,Y,35.154478,-82.714339
MLS Listing,,Single Family Residential,5 Hilton Dr,Brevard,NC,28712,799900,3,1.0,Brevard,1912,427759,1958,38,418,,Active,,,https://www.redfin.com/NC/Brevard/5-Hilton-Dr-28712/home/140321388,CANOPYMLS,3800815,N,Y,35.1875858,-82.7910783
MLS Listing,,Vacant Land,0000 Pine Mountain Trl Unit M82,Brevard,NC,28712,104900,,,Straus Park,,41686,,38,,67,Active,,,https://www.redfin.com/NC/Brevard/Pine-Mountain-Trl-28712/unit-M82/home/176992206,CANOPYMLS,3800420,N,Y,35.260959,-82.731462
MLS Listing,,Single Family Residential,135 Beverly Hills Dr,Brevard,NC,28712,185000,3,2.0,Brevard,1376,29620,2004,41,134,,Active,,,https://www.redfin.com/NC/Brevard/135-Beverly-Hills-Dr-28712/home/140310644,CANOPYMLS,3798923,N,Y,35.1604858,-82.7094295
MLS Listing,,Single Family Residential,166 Orchard Ln,Brevard,NC,28712,750000,3,2.0,Brevard,2525,784080,1970,41,297,,Active,,,https://www.redfin.com/NC/Brevard/166-Orchard-Ln-28712/home/176948116,CANOPYMLS,3798473,N,Y,35.209809,-82.759861
MLS Listing,,Vacant Land,S1 Deer Run Rd Unit S1,Brevard,NC,28712,23500,,,Brevard,,33541,,43,,,Active,,,https://www.redfin.com/NC/Brevard/S1-Deer-Run-Rd-28712/unit-S1/home/176895221,CANOPYMLS,3725392,N,Y,35.25387,-82.725023
MLS Listing,,Vacant Land,99999 Bryson Rd,Brevard,NC,28712,75000,,,Brevard,,152460,,46,,,Active,,,https://www.redfin.com/NC/Brevard/99999-Bryson-Rd-28712/home/176803562,CANOPYMLS,3797454,N,Y,35.205203,-82.773836
MLS Listing,,Vacant Land,00 Camptown Rd Unit V48&V49,Brevard,NC,28712,136300,,,Straus Park,,26571,,46,,,Active,,,https://www.redfin.com/NC/Brevard/Camptown-Rd-28712/unit-V48-V49/home/176798403,CANOPYMLS,3794187,N,Y,35.259,-82.718
MLS Listing,,Single Family Residential,352 Tlvdatsi Dr,Brevard,NC,28712,500000,3,3.0,Connestee Falls,2840,62290,1974,51,176,280,Active,,,https://www.redfin.com/NC/Brevard/352-Tlvdatsi-Dr-28712/home/140263271,CANOPYMLS,3796270,N,Y,35.1345742,-82.7272552
MLS Listing,,Vacant Land,Lot M6 Pine Mountain Trl Unit M6,Brevard,NC,28712,199000,,,Straus Park,,77536,,51,,67,Active,,,https://www.redfin.com/NC/Brevard/Lot-M6-Pine-Mountain-Trl-28712/unit-M6/home/174638703,CANOPYMLS,3796653,N,Y,35.259827,-82.726381
MLS Listing,,Vacant Land,Lot 19 Eagle Point Dr Lot 19,Brevard,NC,28712,80000,,,Eagle Point,,30056,,51,,,Active,,,https://www.redfin.com/NC/Brevard/Lot-19-Eagle-Point-Dr-28712/unit-19/home/176735099,CANOPYMLS,3795888,N,Y,35.224339,-82.720978
MLS Listing,,Vacant Land,00 Frozen Creek Rd,Rosman,NC,28772,164700,,,Rosman,,717433,,52,,,Active,,,https://www.redfin.com/NC/Rosman/00-Frozen-Creek-RD-28772/home/176724978,CANOPYMLS,3795271,N,Y,35.136314,-82.853163
MLS Listing,,Vacant Land,9999 Cheestoonaya Way Unit 42A,Brevard,NC,28712,40000,,,Connestee Falls,,40467,,53,,175,Active,,,https://www.redfin.com/NC/Unknown/9999-Cheestoonaya-Way-28712/unit-42A/home/176717590,CANOPYMLS,3795505,N,Y,35.148605,-82.734994
MLS Listing,,Single Family Residential,114 Dillow Ln,Brevard,NC,28712,325000,3,1.5,Brevard,1405,87120,1960,54,231,,Active,,,https://www.redfin.com/NC/Brevard/114-Dillow-Ln-28712/home/140305612,CANOPYMLS,3795034,N,Y,35.1659567,-82.8053168
MLS Listing,,Vacant Land,TBD Kanasgowa Dr #121,Brevard,NC,28712,20000,,,Connestee Falls,,19602,,54,,175,Active,,,https://www.redfin.com/NC/Brevard/44-Four-Seasons-Plz-28712/unit-121/home/176714724,CANOPYMLS,3795438,N,Y,35.2402258,-82.7306417
MLS Listing,,Single Family Residential,93 Slick Rock Rd,Brevard,NC,28712,895000,4,3.0,Brevard,3543,250034,1995,54,253,,Active,,,https://www.redfin.com/NC/Brevard/93-Slick-Rock-Rd-28712/home/140232128,CANOPYMLS,3794376,N,Y,35.1668938,-82.7084824
MLS Listing,,Vacant Land,0 Glazener Rd,Brevard,NC,28712,99900,,,Forest Hills,,47044,,56,,,Active,,,https://www.redfin.com/NC/Brevard/1-Brevard-College-Dr-28712/unit-L138AU06/home/175577383,CANOPYMLS,3793267,N,Y,35.2367409,-82.7294959
MLS Listing,,Vacant Land,00 Camptown Rd Unit V49,Brevard,NC,28712,72500,,,Straus Park,,13503,,59,,,Active,,,https://www.redfin.com/NC/Brevard/Camptown-Rd-28712/unit-V49/home/176676759,CANOPYMLS,3794186,N,Y,35.259,-82.718
MLS Listing,,Vacant Land,00 Camptown Rd Unit V48,Brevard,NC,28712,72500,,,Straus Park,,13068,,59,,,Active,,,https://www.redfin.com/NC/Brevard/Camptown-Rd-28712/unit-V48/home/176676743,CANOPYMLS,3794185,N,Y,35.259,-82.718
MLS Listing,,Vacant Land,TBD Gillespie Rd,Brevard,NC,28712,75000,,,Brevard,,14810,,59,,,Active,,,https://www.redfin.com/NC/Brevard/44-Four-Seasons-Plz-28712/home/174636204,CANOPYMLS,3793122,N,Y,35.2402258,-82.7306417
MLS Listing,,Single Family Residential,128 Allison Rd,Brevard,NC,28712,375000,3,2.0,Pisgah Heights,1380,17859,1962,60,272,,Active,,,https://www.redfin.com/NC/Brevard/128-Allison-Rd-28712/home/140363773,CANOPYMLS,3793080,N,Y,35.2518907,-82.7188907
MLS Listing,,Vacant Land,Lot 9 Galax Ln Lot 9,Brevard,NC,28712,37000,,,Sequoyah Woods,,55321,,65,,18,Active,,,https://www.redfin.com/NC/Brevard/9-Galax-Ln-28712/unit-9/home/176585857,CANOPYMLS,3790774,N,Y,35.1583021,-82.6992661
MLS Listing,,Vacant Land,Upper Camptown Rd Unit M106,Brevard,NC,28712,79000,,,Straus Park,,18730,,66,,64,Active,,,https://www.redfin.com/NC/Brevard/Upper-Camptown-Rd-28712/unit-M106/home/174638122,CANOPYMLS,3789251,N,Y,35.260635,-82.721389
MLS Listing,,Vacant Land,tbd Springhouse Trl #16,Brevard,NC,28712,79000,,,Straus Park,,43124,,66,,64,Active,,,https://www.redfin.com/NC/Brevard/44-Four-Seasons-Plz-28712/unit-16/home/174638121,CANOPYMLS,3789249,N,Y,35.2402258,-82.7306417
MLS Listing,,Vacant Land,tbd Springhouse Trl #5,Brevard,NC,28712,79000,,,Straus Park,,23086,,66,,64,Active,,,https://www.redfin.com/NC/Brevard/44-Four-Seasons-Plz-28712/unit-5/home/174637789,CANOPYMLS,3789258,N,Y,35.2402258,-82.7306417
MLS Listing,,Vacant Land,65 Unvquolad Ct Unit 96R,Brevard,NC,28712,20000,,,Connestee Falls,,54885,,66,,175,Active,,,https://www.redfin.com/NC/Brevard/65-Unvquolad-Ct-28712/unit-96R/home/176576605,CANOPYMLS,3791668,N,Y,35.1576782,-82.7700619
MLS Listing,,Vacant Land,Upper Camptown Rd Unit M110,Brevard,NC,28712,79000,,,Straus Park,,23958,,66,,64,Active,,,https://www.redfin.com/NC/Brevard/Upper-Camptown-Rd-28712/unit-M110/home/176576541,CANOPYMLS,3719571,N,Y,35.261941,-82.719417
MLS Listing,,Vacant Land,tbd Springhouse Trl #10,Brevard,NC,28712,79000,,,Straus Park,,25700,,66,,64,Active,,,https://www.redfin.com/NC/Brevard/44-Four-Seasons-Plz-28712/unit-10/home/175150896,CANOPYMLS,3719567,N,Y,35.2402258,-82.7306417
MLS Listing,,Vacant Land,tbd Springhouse Trl #7,Brevard,NC,28712,79000,,,Straus Park,,30056,,66,,64,Active,,,https://www.redfin.com/NC/Brevard/44-Four-Seasons-Plz-28712/unit-7/home/174638123,CANOPYMLS,3719554,N,Y,35.2402258,-82.7306417
MLS Listing,,Vacant Land,M91 Pine Mountain Trl Unit M91,Brevard,NC,28712,115000,,,Straus Park,,40510,,66,,67,Active,,,https://www.redfin.com/NC/Brevard/M91-Pine-Mountain-Trl-28712/unit-M91/home/176575633,CANOPYMLS,3791478,N,Y,35.260695,-82.731671
MLS Listing,,Single Family Residential,357 Delphia Dr,Brevard,NC,28712,659000,4,2.5,Morgan Heights,2898,42253,1968,69,227,,Active,,,https://www.redfin.com/NC/Brevard/357-Delphia-Dr-28712/home/140357004,CANOPYMLS,3790353,N,Y,35.2225649,-82.7174121
MLS Listing,,Single Family Residential,400 Burrell Mountain Rd,Brevard,NC,28712,539000,3,3.0,Millbrook Estates,1806,27442,2021,71,298,,Active,,,https://www.redfin.com/NC/Brevard/400-Burrell-Mountain-Rd-28712/home/176541972,CANOPYMLS,3789923,N,Y,35.2445261,-82.7463003
MLS Listing,,Single Family Residential,370 Burrell Mountain Rd,Brevard,NC,28712,549000,3,2.5,Millbrook Estates,1966,31798,2021,71,279,,Active,,,https://www.redfin.com/NC/Brevard/370-Burrell-Mountain-Rd-28712/home/176541905,CANOPYMLS,3789917,N,Y,35.2444368,-82.7458655
MLS Listing,,Single Family Residential,463 Cheulah Rd,Brevard,NC,28712,679900,5,4.0,Connestee Falls,4315,55321,2003,73,158,292,Active,,,https://www.redfin.com/NC/Brevard/463-Cheulah-Rd-28712/home/140241090,CANOPYMLS,3789221,N,Y,35.1541591,-82.7389845
MLS Listing,,Single Family Residential,Lot 62 Valley Stream Ct #62,Brevard,NC,28712,469900,2,2.0,GlenLaurel Preserve,1497,4356,2022,74,314,203,Active,,,https://www.redfin.com/NC/Brevard/Lot-62-Valley-Stream-CT-Unknown/unit-62/home/176494431,CANOPYMLS,3788618,N,Y,35.178322,-82.812389
MLS Listing,,Single Family Residential,45 Piney Woods Dr,Brevard,NC,28712,218000,2,1.5,Piney Woods,1312,30056,1976,75,166,,Active,,,https://www.redfin.com/NC/Brevard/45-Piney-Woods-Dr-28712/home/140343700,CANOPYMLS,3787918,N,Y,35.139238,-82.77445
MLS Listing,,Vacant Land,TBD Stone Field Trl Unit L63,Brevard,NC,28712,125000,,,Mountain Brook,,48787,,79,,64,Active,,,https://www.redfin.com/NC/Brevard/44-Four-Seasons-Plz-28712/unit-L63/home/176440262,CANOPYMLS,3785795,N,Y,35.2402258,-82.7306417
MLS Listing,,Vacant Land,Lot 20 Southwood Dr,Brevard,NC,28712,22500,,,Southwood,,12632,,81,,,Active,,,https://www.redfin.com/NC/Brevard/20-W-Southwood-Dr-28712/home/176380215,CANOPYMLS,3785435,N,Y,35.2258699,-82.7597164
MLS Listing,,Vacant Land,Lot 19 Northwood Dr,Brevard,NC,28712,22500,,,Southwood,,15245,,81,,,Active,,,https://www.redfin.com/NC/Brevard/19-Northwood-Dr-28712/home/176380201,CANOPYMLS,3785428,N,Y,35.226254,-82.759988
MLS Listing,,Vacant Land,151 Connestee Trl #151,Brevard,NC,28712,19900,,,Connestee Falls,,21344,,82,,168,Active,,,https://www.redfin.com/NC/Brevard/151-Connestee-Trl-28712/unit-151/home/176376913,CANOPYMLS,3785355,N,Y,35.1591484,-82.732834
MLS Listing,,Vacant Land,363 Cashiers Valley Rd,Brevard,NC,28712,150000,,,Brevard,,13503,,82,,,Active,,,https://www.redfin.com/NC/Brevard/363-Cashiers-Valley-Rd-28712/home/140320458,CANOPYMLS,3785923,N,Y,35.2282494,-82.7456502
MLS Listing,,Vacant Land,17 Trillium Ln,Rosman,NC,28712,35000,,,Round Mountain Falls,,87991,,88,,,Active,,,https://www.redfin.com/NC/Unknown/17-Trillium-Ln-28712/home/176340095,CANOPYMLS,3783725,N,Y,35.08848,-82.853273
MLS Listing,,Vacant Land,Lot 12 Rockbrook Overlook,Brevard,NC,28712,129000,,,Mountain Brook,,67082,,88,,65,Active,,,https://www.redfin.com/NC/Unknown/Lot-12-Rockbrook-Overlook-28712/home/176339735,CANOPYMLS,3783498,N,Y,35.196619,-82.749995
MLS Listing,,Single Family Residential,167 Chestnut St,Brevard,NC,28712,398900,3,2.0,Brevard,1608,10890,2022,89,248,,Active,,,https://www.redfin.com/NC/Brevard/167-Chestnut-St-28712/home/176332286,CANOPYMLS,3783533,N,Y,35.2459089,-82.7216136
MLS Listing,,Vacant Land,11 Silver Maple Trl #11,Rosman,NC,28772,65000,,,Round Mountain Falls,,475675,,89,,75,Active,,,https://www.redfin.com/NC/Rosman/11-Silver-Maple-TRL-28772/unit-11/home/176327051,CANOPYMLS,3783004,N,Y,35.086895,-82.855657
MLS Listing,,Single Family Residential,26 Carrick Ln #1,Brevard,NC,28712,549000,3,2.5,Brevard,1710,6098,2021,92,321,,Active,,,https://www.redfin.com/NC/Brevard/66-S-Broad-St-28712/unit-1/home/177147003,CANOPYMLS,3782132,N,Y,35.2329726,-82.7349936
MLS Listing,,Vacant Land,TBD Still House Rd Unit 41/54,Brevard,NC,28712,240000,,,Chasewood,,290109,,93,,103,Active,,,https://www.redfin.com/NC/Brevard/TBD-Still-House-RD-Unknown/unit-41-54/home/176309919,CANOPYMLS,3781330,N,Y,35.187885,-82.764503
MLS Listing,,Single Family Residential,184 Dvdegi Ct Unit L69B-R/U24,Brevard,NC,28712,649999,3,3.0,Connestee Falls,2706,63162,2003,93,240,289,Active,,,https://www.redfin.com/NC/Brevard/184-Dvdegi-Ct-28712/unit-L69B-R-U24/home/177145804,CANOPYMLS,3782621,N,Y,35.1438405,-82.7610503
MLS Listing,,Single Family Residential,284 Fox Cross Dr,Brevard,NC,28712,535000,3,3.0,Deerlake Village,1708,16552,1987,94,313,,Active,,,https://www.redfin.com/NC/Brevard/284-Fox-Cross-Dr-28712/home/140393910,CANOPYMLS,3780420,N,Y,35.251727,-82.727802
MLS Listing,,Vacant Land,U02 L300 Oakanoah Cir Unit U02/L300,Brevard,NC,28712,35000,,,Connestee Falls,,30448,,94,,175,Active,,,https://www.redfin.com/NC/Unknown/U02-L300-Oakanoah-Cir-28712/unit-U02-L300/home/176299699,CANOPYMLS,3782093,N,Y,35.139,-82.742
MLS Listing,,Vacant Land,LO 39 Soquili Dr #39,Brevard,NC,28712,41000,,,Connestee Falls,,20908,,96,,292,Active,,,https://www.redfin.com/NC/Brevard/39-Soquili-Dr-28712/unit-39/home/176273536,CANOPYMLS,3781284,N,Y,35.1449377,-82.7088869
MLS Listing,,Single Family Residential,1901 Asheville Hwy,Brevard,NC,28712,2475000,2,1.0,Brevard,1712,239580,1953,97,1446,,Active,,,https://www.redfin.com/NC/Brevard/1901-Asheville-Hwy-28712/home/140261785,CANOPYMLS,3780560,N,Y,35.2681343,-82.7125628
MLS Listing,,Single Family Residential,401 E Main St,Brevard,NC,28712,99000,2,1.5,Brevard,,11761,1947,101,,,Active,,,https://www.redfin.com/NC/Brevard/401-E-Main-St-28712/home/140233989,CANOPYMLS,3779101,N,Y,35.2300167,-82.7283773
MLS Listing,,Vacant Land,99999 Pine Mountain Trl Unit M37,Brevard,NC,28712,155000,,,Straus Park,,54014,,102,,67,Active,,,https://www.redfin.com/NC/Brevard/99999-Pine-Mountain-Trl-28712/unit-M37/home/176215695,CANOPYMLS,3778700,N,Y,35.260886,-82.726525
MLS Listing,,Vacant Land,9 Cadence Cir #9,Brevard,NC,28712,53500,,,Cadence Point,,12196,,103,,106,Active,,,https://www.redfin.com/NC/Brevard/9-Cadence-Cir-28712/unit-9/home/176202378,CANOPYMLS,3777288,N,Y,35.2192765,-82.7423462
MLS Listing,,Single Family Residential,682 Speckled Trout Run,Brevard,NC,28712,749652,3,3.5,Steel Creek,3204,217800,2008,103,234,100,Active,,,https://www.redfin.com/NC/BREVARD/682-SPECKLED-TROUT-RUN-28712/home/140303040,CANOPYMLS,3773364,N,Y,35.169401,-82.690766
MLS Listing,,Single Family Residential,409 Usdasdi Dr,Brevard,NC,28712,680000,4,3.0,Connestee Falls,3201,16117,2005,104,212,292,Active,,,https://www.redfin.com/NC/Brevard/409-Usdasdi-Dr-28712/home/140313910,CANOPYMLS,3775430,N,Y,35.15249,-82.71432
MLS Listing,,Vacant Land,9 Lake House Trl #9,Brevard,NC,28712,210000,,,Straus Park,,21344,,105,,67,Active,,,https://www.redfin.com/NC/Brevard/9-Lake-House-Trl-28712/unit-9/home/176173468,CANOPYMLS,3777910,N,Y,35.2586143,-82.7228515
MLS Listing,,Vacant Land,121 Hunters Ridge None #121,Brevard,NC,28712,55000,,,Big Hill,,57934,,115,,32,Active,,,https://www.redfin.com/NC/Unknown/121-Hunter-s-Rdg-28712/unit-121/home/176102377,CANOPYMLS,3773307,N,Y,35.120091,-82.704416
MLS Listing,,Vacant Land,Lot #10 Renea Dr #10,Brevard,NC,28712,40000,,,Brevard,,48351,,117,,,Active,,,https://www.redfin.com/NC/Unknown/Lot-10-Renea-Dr-28712/unit-10/home/176069170,CANOPYMLS,3772060,N,Y,35.1363,-82.7804
MLS Listing,,Vacant Land,M93 Hawks Crst Unit M93,Brevard,NC,28712,90000,,,Straus Park,,27007,,122,,67,Active,,,https://www.redfin.com/NC/Brevard/M93-Hawks-CRST-Unknown/unit-M93/home/175989307,CANOPYMLS,3771027,N,Y,35.260975,-82.732408
MLS Listing,,Vacant Land,147 Galax Ln Unit H-202,Brevard,NC,28712,100000,3,,Sequoyah Woods,,66211,,123,,42,Active,,,https://www.redfin.com/NC/Brevard/147-Galax-Ln-28712/unit-H-202/home/175958661,CANOPYMLS,3769593,N,Y,35.1588063,-82.6993437
MLS Listing,,Vacant Land,6 Chestnut Cove Dr #6,Brevard,NC,28712,40000,,,Chestnut Cove,,70567,,123,,10,Active,,,https://www.redfin.com/NC/Brevard/6-Chestnut-Cove-Rd-28712/unit-6/home/175954441,CANOPYMLS,3770094,N,Y,35.1445401,-82.7717822
MLS Listing,,Vacant Land,000 Lake Sega Cir,Brevard,NC,28712,21999,,,Brevard,,9321,,124,,,Active,,,https://www.redfin.com/NC/Brevard/Lake-Sega-Cir-28712/home/175940999,CANOPYMLS,3768487,N,Y,35.218976,-82.763263
MLS Listing,,Single Family Residential,524 E French Broad St,Brevard,NC,28712,665000,4,2.5,Brevard,3298,24829,1966,124,202,,Active,,,https://www.redfin.com/NC/Brevard/524-E-French-Broad-St-28712/home/140306964,CANOPYMLS,3769260,N,Y,35.2322626,-82.7243244
MLS Listing,,Vacant Land,L2 Wilson Dr Unit L002,Brevard,NC,28712,24000,,,Happy Acres,,42253,,128,,8,Active,,,https://www.redfin.com/NC/Brevard/L2-Wilson-Dr-28712/unit-L002/home/175917460,CANOPYMLS,3768829,N,Y,35.131226,-82.698329
MLS Listing,,Vacant Land,U 8 Blueberry Hill Rd Unit 8,Brevard,NC,28712,25000,,,Straus Park,,435,,128,,164,Active,,,https://www.redfin.com/NC/Brevard/8-Blueberry-Hill-Rd-28712/unit-8/home/174638214,CANOPYMLS,3762823,N,Y,35.261081,-82.71926
MLS Listing,,Vacant Land,U 9 Blueberry Hill Rd Unit 9,Brevard,NC,28712,25000,,,Straus Park,,3920,,128,,164,Active,,,https://www.redfin.com/NC/Brevard/9-Blueberry-Hill-Rd-28712/unit-9/home/174638215,CANOPYMLS,3762831,N,Y,35.260892,-82.718638
MLS Listing,,Vacant Land,TBD Atisvgi Ct Unit U29/L53,Brevard,NC,28712,20000,,,Connestee Falls,,25264,,132,,175,Active,,,https://www.redfin.com/NC/Brevard/44-Four-Seasons-Plz-28712/unit-U29-L53/home/175848308,CANOPYMLS,3765045,N,Y,35.2402258,-82.7306417
MLS Listing,,Vacant Land,L27 Rockbrook Overlook #27,Brevard,NC,28712,99500,,,Mountain Brook,,60548,,134,,65,Active,,,https://www.redfin.com/NC/Unknown/L27-Rockbrook-Overlook-28712/unit-27/home/175843201,CANOPYMLS,3765821,N,Y,35.19679,-82.749574
MLS Listing,,Vacant Land,"Lots 10,11&14 Bear Pen Hollow Rd Unit 10,11,14",Brevard,NC,28712,39000,,,Round Mountain,,114998,,142,,21,Active,,,https://www.redfin.com/NC/Unknown/Lots-10-11-14-Bear-Pen-Hollow-Rd-28712/unit-10-11-14/home/175719641,CANOPYMLS,3762461,N,Y,35.068997,-82.864252
MLS Listing,,Vacant Land,L418 Pine Mountain Dr Unit L418,Brevard,NC,28712,22000,,,Happy Acres,,90169,,144,,16,Active,,,https://www.redfin.com/NC/Brevard/L418-Pine-Mountain-Trl-28712/unit-L418/home/175658909,CANOPYMLS,3761674,N,Y,35.125882,-82.700053
MLS Listing,,Vacant Land,574 Frozen Creek Rd,Brevard,NC,28712,322000,,,Brevard,,1402632,,145,,,Active,,,https://www.redfin.com/NC/Brevard/574-Frozen-Creek-Rd-28712/home/140261961,CANOPYMLS,3761572,N,Y,35.1325897,-82.8581596
MLS Listing,,Vacant Land,n/a Tsisdu Ct Lot 64/ Unit 25,Brevard,NC,28712,35000,,,Connestee Falls,,15681,,145,,175,Active,,,https://www.redfin.com/NC/Brevard/64-Tsisdu-Ct-28712/unit-64-Unit-25/home/175641811,CANOPYMLS,3755369,N,Y,35.1519364,-82.7635983
MLS Listing,,Vacant Land,2889 Whitehorse Rd,Brevard,NC,28712,40000,,,Brevard,,145490,,146,,,Active,,,https://www.redfin.com/NC/Unknown/2889-White-Horse-Rd-28712/home/175637684,CANOPYMLS,3761248,N,Y,35.131889,-82.725317
MLS Listing,,Vacant Land,00 South Hampton Rd #35,Brevard,NC,28712,134900,,,Chasewood,,57499,,147,,67,Active,,,https://www.redfin.com/NC/Brevard/35-Hampton-Rd-28712/unit-35/home/175632596,CANOPYMLS,3761349,N,Y,35.2408778,-82.7434002
MLS Listing,,Single Family Residential,624 Maple St,Brevard,NC,28712,300000,4,2.0,Brevard,1317,10890,1950,155,228,,Active,,,https://www.redfin.com/NC/Brevard/624-Maple-St-28712/home/140351104,CANOPYMLS,3756360,N,Y,35.2218844,-82.7331963
MLS Listing,,Single Family Residential,167 Kingfisher Rd,Brevard,NC,28712,549900,3,3.0,Illahee Hills,2430,61855,1979,157,226,,Active,,,https://www.redfin.com/NC/Brevard/167-Kingfisher-Rd-28712/home/140253279,CANOPYMLS,3757629,N,Y,35.2059035,-82.7528508
MLS Listing,,Vacant Land,000 Claypole Mtn Rd #7,Brevard,NC,28712,75000,,,Panther Ridge - Ridge Haven,,230432,,163,,,Active,,,https://www.redfin.com/NC/Brevard/Claypole-Mtn-RD-Unknown/unit-7/home/175561341,CANOPYMLS,3755413,N,Y,35.110389,-82.838005
MLS Listing,,Vacant Land,J105 Hemlock Cir,Brevard,NC,28712,44900,,,Brevard,,56192,,166,,21,Active,,,https://www.redfin.com/NC/Brevard/J105-Hemlock-CIR-Unknown/home/175531986,CANOPYMLS,3754402,N,Y,35.164986,-82.696717
MLS Listing,,Vacant Land,TBD Gawanv Ct Unit L32A/U19,Brevard,NC,28712,30000,,,Connestee Falls,,31798,,169,,175,Active,,,https://www.redfin.com/NC/Brevard/44-Four-Seasons-Plz-28712/unit-L32A-U19/home/175482150,CANOPYMLS,3752833,N,Y,35.2402258,-82.7306417
MLS Listing,,Vacant Land,U03 L074 Salola Ln,Brevard,NC,28712,30000,,,Connestee Falls,,32234,,173,,175,Active,,,https://www.redfin.com/NC/Unknown/U03-L074-Salola-Ln-28712/home/175415957,CANOPYMLS,3750215,N,Y,35.136743,-82.739576
MLS Listing,,Vacant Land,M83 Pine Mountain Trl Unit M83,Brevard,NC,28712,95000,,,Straus Park,,39639,,174,,67,Active,,,https://www.redfin.com/NC/Brevard/M83-Pine-Mountain-Trl-28712/unit-M83/home/175401918,CANOPYMLS,3750498,N,Y,35.26086,-82.730612
MLS Listing,,Vacant Land,"888 Kelly Mountain Rd Unit 2,4,6,22,23",Brevard,NC,28712,310000,,,Sylvan Heights,,663854,,178,,383,Active,,,https://www.redfin.com/NC/Brevard/888-Kelly-Mountain-Rd-28712/unit-2-4-6-22-23/home/174637905,CANOPYMLS,3749714,N,Y,35.1614508,-82.758077
MLS Listing,,Vacant Land,22 Kelly Mountain Rd #22,Brevard,NC,28712,50000,,,Sylvan Heights,,94089,,178,,77,Active,,,https://www.redfin.com/NC/Dunns-Rock/22-Kelly-Mountain-Rd-28712/unit-22/home/174637901,CANOPYMLS,3749712,N,Y,35.160082,-82.758102
MLS Listing,,Vacant Land,23 Kelly Mountain Rd #23,Brevard,NC,28712,50000,,,Sylvan Heights,,94525,,178,,77,Active,,,https://www.redfin.com/NC/Dunns-Rock/23-Kelly-Mountain-Rd-28712/unit-23/home/174637900,CANOPYMLS,3749710,N,Y,35.159392,-82.757955
MLS Listing,,Vacant Land,6 Kelly Mountain Rd #6,Brevard,NC,28712,69000,,,Sylvan Heights,,124581,,178,,77,Active,,,https://www.redfin.com/NC/Dunns-Rock/6-Kelly-Mountain-Rd-28712/unit-6/home/174637903,CANOPYMLS,3749705,N,Y,35.164765,-82.756578
MLS Listing,,Vacant Land,4 Kelly Mountain Rd #4,Brevard,NC,28712,69000,,,Sylvan Heights,,147232,,178,,77,Active,,,https://www.redfin.com/NC/Dunns-Rock/4-Kelly-Mountain-Rd-28712/unit-4/home/174637904,CANOPYMLS,3749702,N,Y,35.165121,-82.758241
MLS Listing,,Vacant Land,2 Kelly Mountain Rd #2,Brevard,NC,28712,115000,,,Sylvan Heights,,203425,,178,,77,Active,,,https://www.redfin.com/NC/Dunns-Rock/2-Kelly-Mountain-Rd-28712/unit-2/home/174637902,CANOPYMLS,3749695,N,Y,35.158941,-82.757844
MLS Listing,,Vacant Land,30 Abby Falls Dr #30,Rosman,NC,28772,155000,,,Round Mountain Falls,,247420,,181,,75,Active,,,https://www.redfin.com/NC/Rosman/30-Abby-Falls-DR-28772/unit-30/home/175300901,CANOPYMLS,3748508,N,Y,35.095359,-82.851494
MLS Listing,,Vacant Land,"Lots 10,11 & 12 Springwater Dr",Brevard,NC,28712,69000,,,Lake Hondah,,82328,,193,,50,Active,,,https://www.redfin.com/NC/Brevard/12-Spring-Water-Dr-28712/home/175198990,CANOPYMLS,3743515,N,Y,35.1297018,-82.7111542
MLS Listing,,Vacant Land,L76 Stone Bridge Trl #76,Brevard,NC,28712,92000,,,Mountain Brook,,54885,,194,,64,Active,,,https://www.redfin.com/NC/Catheys-Creek/L76-Stone-Bridge-Trl-28712/unit-76/home/174637910,CANOPYMLS,3742636,N,Y,35.191019,-82.754759
MLS Listing,,Vacant Land,L75 Mountain Home Trl #75,Brevard,NC,28712,92000,,,Mountain Brook,,52272,,194,,64,Active,,,https://www.redfin.com/NC/Catheys-Creek/L75-Mountain-Home-Trl-28712/unit-75/home/174637909,CANOPYMLS,3742634,N,Y,35.191491,-82.754884
MLS Listing,,Vacant Land,TBD Moon Cir #135,Brevard,NC,28712,47000,3,,Whiskey Creek II,,91476,,198,,25,Active,,,https://www.redfin.com/NC/Brevard/44-Four-Seasons-Plz-28712/unit-135/home/175168929,CANOPYMLS,3742756,N,Y,35.2402258,-82.7306417
MLS Listing,,Single Family Residential,363 Forest Hill Rd,Brevard,NC,28712,950000,4,3.0,Brevard,3760,108464,1928,200,253,,Active,,,https://www.redfin.com/NC/Brevard/363-Forest-Hill-Dr-28712/home/140269072,CANOPYMLS,3738426,N,Y,35.21831,-82.740944
MLS Listing,,Vacant Land,TBD Wellspring Way #23,Brevard,NC,28712,17500,,,Brevard,,17424,,202,,,Active,,,https://www.redfin.com/NC/Brevard/44-Four-Seasons-Plz-28712/unit-23/home/175151341,CANOPYMLS,3740798,N,Y,35.2402258,-82.7306417
MLS Listing,,Vacant Land,TBD Wellspring Way #19,Brevard,NC,28712,17500,,,Brevard,,17424,,203,,,Active,,,https://www.redfin.com/NC/Brevard/44-Four-Seasons-Plz-28712/unit-19/home/174638099,CANOPYMLS,3740720,N,Y,35.2402258,-82.7306417
MLS Listing,,Vacant Land,TBD Wellspring Way #11,Brevard,NC,28712,21500,,,Brevard,,27878,,203,,,Active,,,https://www.redfin.com/NC/Brevard/44-Four-Seasons-Plz-28712/unit-11/home/175150932,CANOPYMLS,3740719,N,Y,35.2402258,-82.7306417
MLS Listing,,Vacant Land,0 Birch Ln #32,Rosman,NC,28772,39000,,,Round Mountain Falls,,119790,,205,,75,Active,,,https://www.redfin.com/NC/Rosman/Birch-Lane-LN-Unknown/unit-32/home/175133663,CANOPYMLS,3740127,N,Y,35.089659,-82.853993
MLS Listing,,Vacant Land,U42 L8 Tinequa Dr Lot 8 UNIT 42,Brevard,NC,28712,574500,,,CONNESTEE FALLS,,130680,,206,,175,Active,,,https://www.redfin.com/NC/Dunns-Rock/U42-L8-Tinequa-Dr-28712/unit-8-UNIT-42/home/175118513,CANOPYMLS,3733690,N,Y,35.156958,-82.731023
MLS Listing,,Vacant Land,OFF Pine Mountain Dr,Brevard,NC,28712,850000,,,Brevard,,3702600,,208,,,Active,,,https://www.redfin.com/NC/Brevard/OFF-Pine-Mountain-Trl-28712/home/175108621,CANOPYMLS,3737520,N,Y,35.127852,-82.704237
MLS Listing,,Single Family Residential,3B Dragon Tail Trl Unit 3B,Brevard,NC,28712,650000,3,3.0,Loxley Woods,2250,98010,2021,214,289,29,Active,,,https://www.redfin.com/NC/Dunns-Rock/3B-Dragon-Tail-Dr-28712/unit-3B/home/174639567,CANOPYMLS,3735719,N,Y,35.151256,-82.676864
MLS Listing,,Single Family Residential,180 Grouse Ln,Brevard,NC,28712,1195000,3,3.5,Sherwood Forest,5593,80586,1998,215,214,140,Active,,,https://www.redfin.com/NC/Brevard/180-Grouse-Ln-28712/home/140398405,CANOPYMLS,3735702,N,Y,35.132377,-82.683341
MLS Listing,,Vacant Land,Lot 9 Barberry Cir,Brevard,NC,28712,29500,,,Barberry Heights,,44866,,223,,,Active,,,https://www.redfin.com/NC/Brevard/9-Barberry-Heights-Dr-28712/home/175010509,CANOPYMLS,3723408,N,Y,35.1915218,-82.7608629
MLS Listing,,Vacant Land,Lot 22 & 23 Barberry Cir,Brevard,NC,28712,29500,,,Barberry Heights,,32234,,223,,,Active,,,https://www.redfin.com/NC/Brevard/23-Barberry-Heights-Dr-28712/home/175010482,CANOPYMLS,3733128,N,Y,35.1912802,-82.7609931
MLS Listing,,Vacant Land,Lot 7 & 8 Barberry Cir,Brevard,NC,28712,25000,,,Barberry Heights,,33976,,223,,,Active,,,https://www.redfin.com/NC/Brevard/8-Barberry-Heights-Dr-28712/unit-7-8/home/175010481,CANOPYMLS,3733111,N,Y,35.1915408,-82.7608031
MLS Listing,,Vacant Land,U02 L282 Oakanoah Cir Unit L02 / L282,Brevard,NC,28712,30000,,,Connestee Falls,,21780,,225,,175,Active,,,https://www.redfin.com/NC/Eastatoe/U02-L282-Oakanoah-Cir-28712/unit-L02-L282/home/175007893,CANOPYMLS,3732725,N,Y,35.141592,-82.741109
MLS Listing,,Single Family Residential,388 & 228 Hard To Find Dr,Brevard,NC,28712,2150000,4,4.0,Brevard,7781,3284424,2002,226,276,,Active,,,https://www.redfin.com/NC/Brevard/388-228-28712/home/175028031,CANOPYMLS,3732534,N,Y,35.10342,-82.84606
MLS Listing,,Multi-Family (2-4 Unit),1090 Old Hendersonville Rd,Brevard,NC,28712,299000,3,2.0,Brevard,1400,18730,1951,226,214,,Active,,,https://www.redfin.com/NC/Brevard/1090-Old-Hendersonville-Hwy-28712/home/140310400,CANOPYMLS,3731458,N,Y,35.2494276,-82.7080938
MLS Listing,,Vacant Land,53R High Hemlock Trl,Brevard,NC,28712,80000,,,Mountain Brook,,44431,,226,,64,Active,,,https://www.redfin.com/NC/Catheys-Creek/53R-High-Hemlock-Trl-28712/home/175001803,CANOPYMLS,3732396,N,Y,35.193983,-82.752898
MLS Listing,,Vacant Land,TBD Caitlin Raney Way Unit L9R,Brevard,NC,28712,65000,3,,Blythe Woods,,34020,,228,,,Active,,,https://www.redfin.com/NC/Brevard/TBD-Caitlin-Raney-WAY-Unknown/unit-L9R/home/174977175,CANOPYMLS,3731364,N,Y,35.135166,-82.712054
MLS Listing,,Vacant Land,TBD Caitlin Raney Way Unit L10R,Brevard,NC,28712,65000,3,,Blythe Woods,,33062,,228,,,Active,,,https://www.redfin.com/NC/Brevard/TBD-Caitlin-Raney-WAY-Unknown/unit-L10R/home/174977100,CANOPYMLS,3731353,N,Y,35.135238,-82.711554
MLS Listing,,Vacant Land,tbd Mountain Home Trl #71,Brevard,NC,28712,72500,,,Mountain Brook,,56497,,230,,64,Active,,,https://www.redfin.com/NC/Brevard/44-Four-Seasons-Plz-28712/unit-71/home/174971231,CANOPYMLS,3730446,N,Y,35.2402258,-82.7306417
MLS Listing,,Vacant Land,TBD Parkhollow Ln Lot 26,Brevard,NC,28712,120000,,,GlenLaurel Preserve,,13503,,235,,153,Active,,,https://www.redfin.com/NC/Brevard/44-Four-Seasons-Plz-28712/unit-26/home/174938010,CANOPYMLS,3728421,N,Y,35.2402258,-82.7306417
MLS Listing,,Vacant Land,TBD Eagle Lake Dr Lot 102,Brevard,NC,28712,210000,,,Eagle Lake,,173804,,236,,117,Active,,,https://www.redfin.com/NC/Brevard/66-S-Broad-St-28712/unit-102/home/174927110,CANOPYMLS,3727839,N,Y,35.2329726,-82.7349936
MLS Listing,,Vacant Land,9999 Blueberry Hill None,Brevard,NC,28712,50000,,,Straus Park,,1568,,244,,264,Active,,,https://www.redfin.com/NC/Brevard/9999-Blueberry-Hill-Rd-28712/home/174875733,CANOPYMLS,3587932,N,Y,35.26031,-82.720365
MLS Listing,,Single Family Residential,159 Tellico Trl,Brevard,NC,28712,1333300,4,3.5,Connestee Falls,5328,35719,1996,248,250,292,Active,,,https://www.redfin.com/NC/Brevard/159-Tellico-Trl-28712/home/140387596,CANOPYMLS,3676687,N,Y,35.155663,-82.7407504
MLS Listing,,Vacant Land,L26 Konnaneeta Trl #26,Brevard,NC,28712,24000,,,Connestee Falls,,25264,,249,,175,Active,,,https://www.redfin.com/NC/Eastatoe/L26-Konnaneeta-Ct-28712/unit-26/home/174808683,CANOPYMLS,3724437,N,Y,35.136336,-82.738823
MLS Listing,,Vacant Land,U06L90 Connestee Trl,Brevard,NC,28712,30000,,,Connestee Falls,,21344,,249,,175,Active,,,https://www.redfin.com/NC/Unknown/U06L90-Connestee-Trl-28712/home/176502099,CANOPYMLS,3723922,N,Y,35.141647,-82.728314
MLS Listing,,Vacant Land,TBD Dvdegi Ct Unit U24/L67,Brevard,NC,28712,10000,,,Connestee Falls,,20473,,254,,160,Active,,,https://www.redfin.com/NC/Brevard/44-Four-Seasons-Plz-28712/unit-U24-L67/home/174784060,CANOPYMLS,3493767,N,Y,35.2402258,-82.7306417
MLS Listing,,Vacant Land,TBD Speckled Trout Run,Brevard,NC,28712,84000,3,,Steel Creek,,218235,,255,,50,Active,,,https://www.redfin.com/NC/Brevard/TBD-Speckled-Trout-RUN-Unknown/home/174778322,CANOPYMLS,3722062,N,Y,35.170488,-82.691485
MLS Listing,,Vacant Land,TBD Connestee Trl Unit U02/L406,Brevard,NC,28712,24900,,,Connestee Falls,,27834,,255,,175,Active,,,https://www.redfin.com/NC/Brevard/33-Connestee-Trl-28712/unit-U02-L406/home/174777901,CANOPYMLS,3716595,N,Y,35.1629741,-82.7268767
MLS Listing,,Vacant Land,TBD Galvloi Ct Unit U31/L028,Brevard,NC,28712,7500,,,Connestee Falls,,64904,,255,,175,Active,,,https://www.redfin.com/NC/Brevard/44-Four-Seasons-Plz-28712/unit-U31-L028/home/174777887,CANOPYMLS,3716613,N,Y,35.2402258,-82.7306417
MLS Listing,,Vacant Land,TBD Millstone Way Unit 5-Revised,Brevard,NC,28712,139000,4,,Morgan Mill Estates,,175546,,261,,,Active,,,https://www.redfin.com/NC/Brevard/44-Four-Seasons-Plz-28712/unit-5-Revised/home/174755811,CANOPYMLS,3718492,N,Y,35.2402258,-82.7306417
MLS Listing,,Vacant Land,Lot 8 Eastview Dr Lot 8,Brevard,NC,28712,99000,,,McCrary Acres,,27007,,263,,,Active,,,https://www.redfin.com/NC/Brevard/Lot-8-Eastview-Rd-28712/unit-8/home/174705321,CANOPYMLS,3718092,N,Y,35.228402,-82.718279
MLS Listing,,Vacant Land,8 Park Pl,Brevard,NC,28712,28900,,,Park Place,,2178,,265,,270,Active,,,https://www.redfin.com/NC/Brevard/8-Park-Pl-W-28712/home/174694279,CANOPYMLS,3701920,N,Y,35.2565359,-82.7185261
MLS Listing,,Vacant Land,TBD East Fork Rd Lot 11 / Unit 34,Brevard,NC,28712,21400,,,Carson Creek Village,,33062,,265,,,Active,,,https://www.redfin.com/NC/Brevard/44-Four-Seasons-Plz-28712/unit-11-Unit-34/home/174692947,CANOPYMLS,3717787,N,Y,35.2402258,-82.7306417
MLS Listing,,Vacant Land,L22 Abby Falls Dr,Rosman,NC,28772,79900,,,Round Mountain Falls,,87120,,267,,75,Active,,,https://www.redfin.com/NC/Rosman/L22-Abby-Falls-DR-28772/home/174687351,CANOPYMLS,3716573,N,Y,35.087678,-82.848297
MLS Listing,,Vacant Land,TBD Ogana Ct Unit U09/L77,Brevard,NC,28712,13000,,,Connestee Falls,,16117,,271,,168,Active,,,https://www.redfin.com/NC/Brevard/44-Four-Seasons-Plz-28712/unit-U09-L77/home/174652519,CANOPYMLS,3716332,N,Y,35.2402258,-82.7306417
MLS Listing,,Vacant Land,Lot 3 Abby Falls Rd,Rosman,NC,28772,49000,,,Round Mountain Falls,,192535,,271,,75,Active,,,https://www.redfin.com/NC/Rosman/Lot-3-Abby-Falls-RD-28772/home/174652310,CANOPYMLS,3716041,N,Y,35.09086,-82.855412
MLS Listing,,Vacant Land,Lot 31 Dover Ln #31,Brevard,NC,28712,85000,,,Chasewood,,66341,,274,,67,Active,,,https://www.redfin.com/NC/Brevard/31-Dover-Ln-28712/unit-31/home/174640017,CANOPYMLS,3699005,N,Y,35.1826265,-82.7606844
MLS Listing,,Vacant Land,Lot 62 & 63 Peppervine Cir Unit 62&63,Brevard,NC,28712,199000,,,Round Mountain Falls,,562795,,274,,300,Active,,,https://www.redfin.com/NC/Brevard/Lot-62-63-Peppervine-CIR-Unknown/unit-62-63/home/174639974,CANOPYMLS,3235223,N,Y,35.090142,-82.84358
MLS Listing,,Vacant Land,lot 4 Oxford Ct #4,Brevard,NC,28712,99000,,,CHASEWOOD,,54885,,274,,33,Active,,,https://www.redfin.com/NC/Catheys-Creek/lot-4-Oxford-Ct-28712/unit-4/home/174639972,CANOPYMLS,3504869,N,Y,35.187956,-82.760284
MLS Listing,,Vacant Land,Lot 62 Peppervine Cir #62,Brevard,NC,28712,128000,,,Round Mountain Falls,,315810,,274,,75,Active,,,https://www.redfin.com/NC/Brevard/Lot-62-Peppervine-CIR-Unknown/unit-62/home/174639971,CANOPYMLS,3235682,N,Y,35.089416,-82.844163
MLS Listing,,Vacant Land,Lot 47 Round Mountain Rd #47,Brevard,NC,28712,10000,,,Round Mountain,,72745,,274,,33,Active,,,https://www.redfin.com/NC/Eastatoe/Lot-47-Round-Mountain-Rd-28712/unit-47/home/174639970,CANOPYMLS,3251773,N,Y,35.068831,-82.877032
MLS Listing,,Vacant Land,Lot 48 Round Mountain Rd #48,Brevard,NC,28712,12000,,,Round Mountain,,92782,,274,,30,Active,,,https://www.redfin.com/NC/Eastatoe/Lot-48-Round-Mountain-Rd-28712/unit-48/home/174639969,CANOPYMLS,3251780,N,Y,35.068531,-82.876669
MLS Listing,,Vacant Land,Lot 50 Round Mountain Rd #50,Brevard,NC,28712,12000,,,Round Mountain,,43124,,274,,33,Active,,,https://www.redfin.com/NC/Eastatoe/Lot-50-Round-Mountain-Rd-28712/unit-50/home/174639968,CANOPYMLS,3251786,N,Y,35.067737,-82.87641
MLS Listing,,Vacant Land,47&48 Round Mountain Rd Unit 47&48,Brevard,NC,28712,22000,,,Round Mountain,,164221,,274,,33,Active,,,https://www.redfin.com/NC/Eastatoe/47-48-Round-Mountain-Rd-28712/unit-47-48/home/174639965,CANOPYMLS,3517717,N,Y,35.06864,-82.876721
MLS Listing,,Vacant Land,Lot 19 Gastons Bee Gum Rd #19,Brevard,NC,28712,15000,,,Round Mountain,,53143,,274,,33,Active,,,https://www.redfin.com/NC/Brevard/19-Gastons-Bee-Gum-Rd-28712/unit-19/home/174639963,CANOPYMLS,3531064,N,Y,35.0670649,-82.8682514
MLS Listing,,Vacant Land,Lot 7 Kelly Mountain Rd #7,Brevard,NC,28712,125000,,,Sylvan Heights,,96703,,274,,92,Active,,,https://www.redfin.com/NC/Dunns-Rock/Lot-7-Kelly-Mountain-Rd-28712/unit-7/home/174639936,CANOPYMLS,3553176,N,Y,35.164737,-82.75536
MLS Listing,,Vacant Land,Lot 9 Kelly Mountain Rd #9,Brevard,NC,28712,69000,,,Sylvan Heights,,27442,,274,,92,Active,,,https://www.redfin.com/NC/Dunns-Rock/Lot-9-Kelly-Mountain-Rd-28712/unit-9/home/174639934,CANOPYMLS,3553225,N,Y,35.164447,-82.754888
MLS Listing,,Vacant Land,Tract 3 Bear Pen Hollow Rd Unit Tract 3,Brevard,NC,28712,89000,,,Round Mountain,,435600,,274,,33,Active,,,https://www.redfin.com/NC/Eastatoe/Tract-3-Bear-Pen-Hollow-Rd-28712/unit-Tract-3/home/174639932,CANOPYMLS,3561844,N,Y,35.065188,-82.863642
MLS Listing,,Vacant Land,Tract 2 Bear Pen Hollow Rd,Brevard,NC,28712,89000,,,Round Mountain,,261360,,274,,33,Active,,,https://www.redfin.com/NC/Eastatoe/Tract-2-Bear-Pen-Hollow-Rd-28712/home/174639930,CANOPYMLS,3561852,N,Y,35.067259,-82.861832
MLS Listing,,Vacant Land,Lot 12 Silver Maple Trl #12,Brevard,NC,28712,66600,,,Round Mountain Falls,,154638,,274,,75,Active,,,https://www.redfin.com/NC/Eastatoe/Lot-12-Silver-Maple-Trl-28712/unit-12/home/174639927,CANOPYMLS,3585042,N,Y,35.087702,-82.855935
MLS Listing,,Vacant Land,Lot 2 Round Mountain Rd #2,Brevard,NC,28712,45000,,,Round Mountain,,49222,,274,,33,Active,,,https://www.redfin.com/NC/Eastatoe/Lot-2-Round-Mountain-Rd-28712/unit-2/home/174639918,CANOPYMLS,3705806,N,Y,35.077443,-82.869305
MLS Listing,,Vacant Land,Lot 32 Cadence Cir #32,Brevard,NC,28712,65000,,,Cadence Point,,8712,,274,,106,Active,,,https://www.redfin.com/NC/Brevard/32-Cadence-Cir-28712/unit-32/home/174639904,CANOPYMLS,3635304,N,Y,35.2192294,-82.7423682
MLS Listing,,Vacant Land,Lots 28 & 29 Cadence Cir #28,Brevard,NC,28712,65000,,,Cadence Point,,8276,,274,,212,Active,,,https://www.redfin.com/NC/Brevard/29-Cadence-Cir-28712/unit-28/home/174639900,CANOPYMLS,3633977,N,Y,35.2192574,-82.7423544
MLS Listing,,Vacant Land,Lot 26 & 27 Cadence Cir #26,Brevard,NC,28712,77000,,,Cadence Point,,14810,,274,,212,Active,,,https://www.redfin.com/NC/Brevard/27-Cadence-Cir-28712/unit-26/home/174639898,CANOPYMLS,3633831,N,Y,35.2191958,-82.7420683
MLS Listing,,Vacant Land,Lot 24 Cadence Cir #24,Brevard,NC,28712,38000,,,Cadence Point,,8276,,274,,106,Active,,,https://www.redfin.com/NC/Brevard/24-Cadence-Cir-28712/unit-24/home/174639897,CANOPYMLS,3629236,N,Y,35.2192765,-82.7423462
MLS Listing,,Vacant Land,Lots 14 & 15 Cadence Cir,Brevard,NC,28712,85000,,,Cadence Point,,22651,,274,,212,Active,,,https://www.redfin.com/NC/Brevard/15-Cadence-Cir-28712/home/174639893,CANOPYMLS,3628278,N,Y,35.2192765,-82.7423462
MLS Listing,,Vacant Land,Lot 7 Cadence Cir,Brevard,NC,28712,55000,,,Cadence Point,,12632,,274,,106,Active,,,https://www.redfin.com/NC/Brevard/7-Cadence-Cir-28712/home/174639891,CANOPYMLS,3628257,N,Y,35.2192765,-82.7423462
MLS Listing,,Vacant Land,Lot 5 Cadence Cir #5,Brevard,NC,28712,55000,,,Cadence Point,,15681,,274,,106,Active,,,https://www.redfin.com/NC/Brevard/5-Cadence-Cir-28712/unit-5/home/174639888,CANOPYMLS,3627687,N,Y,35.2192765,-82.7423462
MLS Listing,,Vacant Land,Lot 1 Cadence Cir #1,Brevard,NC,28712,39000,,,Cadence Point,,10890,,274,,106,Active,,,https://www.redfin.com/NC/Brevard/1-Cadence-Cir-28712/unit-1/home/174639887,CANOPYMLS,3332061,N,Y,35.2192765,-82.7423462
MLS Listing,,Vacant Land,Lot 9 Crestview Dr,Brevard,NC,28712,62000,,,Crestview,,73616,,274,,67,Active,,,https://www.redfin.com/NC/Brevard/Lot-9-Crestview-DR-28712/home/174639797,CANOPYMLS,3712184,N,Y,35.210233,-82.70893
MLS Listing,,Vacant Land,Lot 47 Big Branch Rd #47,Brevard,NC,28712,65000,4,,Big Hill,,229996,,274,,48,Active,,,https://www.redfin.com/NC/Unknown/Lot-47-Big-Branch-Rd-28712/unit-47/home/174639784,CANOPYMLS,3581034,N,Y,35.13377,-82.717609
MLS Listing,,Vacant Land,Lot M8 Pine Mountain Trl,Brevard,NC,28712,69000,,,Straus Park,,54450,,274,,67,Active,,,https://www.redfin.com/NC/Brevard/Lot-M8-Pine-Mountain-Trl-28712/home/174639769,CANOPYMLS,3542110,N,Y,35.261011,-82.729189
MLS Listing,,Vacant Land,L 46 Mountain Brook Trl Lot 46,Brevard,NC,28712,59000,,,Mountain Brook,,40075,,274,,64,Active,,,https://www.redfin.com/NC/Catheys-Creek/L-46-Mountain-Brook-Trl-28712/unit-46/home/174639758,CANOPYMLS,3176244,N,Y,35.195514,-82.752822
MLS Listing,,Vacant Land,TBD Deerlake Rd #61,Brevard,NC,28712,55000,,,Deerlake Village,,25482,,274,,46,Active,,,https://www.redfin.com/NC/Brevard/44-Four-Seasons-Plz-28712/unit-61/home/174639709,CANOPYMLS,3702360,N,Y,35.2402258,-82.7306417
MLS Listing,,Vacant Land,Lot 9 Silver Maple Trl #9,Brevard,NC,28772,58500,,,Round Mountain Falls,,121967,,274,,55,Active,,,https://www.redfin.com/NC/Brevard/Lot-9-Silver-Maple-TRL-28772/unit-9/home/174639694,CANOPYMLS,3201722,N,Y,35.088375,-82.857729
MLS Listing,,Vacant Land,TBD Wellspring Way #18,Brevard,NC,28712,14500,,,Brevard,,21344,,274,,,Active,,,https://www.redfin.com/NC/Brevard/44-Four-Seasons-Plz-28712/unit-18/home/174639676,CANOPYMLS,3710836,N,Y,35.2402258,-82.7306417
MLS Listing,,Vacant Land,TBD Wellspring Way #9,Brevard,NC,28712,20500,,,Brevard,,27007,,274,,,Active,,,https://www.redfin.com/NC/Brevard/44-Four-Seasons-Plz-28712/unit-9/home/174639317,CANOPYMLS,3710824,N,Y,35.2402258,-82.7306417
MLS Listing,,Vacant Land,Lot 126/128 Eagle Lake Dr,Brevard,NC,28712,425000,,,Eagle Lake,,93218,,274,,117,Active,,,https://www.redfin.com/NC/Brevard/128-Eagle-Lake-Dr-28712/home/174639659,CANOPYMLS,3490346,N,Y,35.1893649,-82.7018701
MLS Listing,,Vacant Land,Lot 144 Sequoyah Ln,Brevard,NC,28712,18000,,,Connestee Falls,,24393,,274,,175,Active,,,https://www.redfin.com/NC/Brevard/144-Sequoyah-Ln-28712/home/174639654,CANOPYMLS,3709901,N,Y,35.1592842,-82.7359343
MLS Listing,,Vacant Land,128 Twisted Tree Ln #128,Brevard,NC,28712,70000,,,Big Hill,,70567,,274,,32,Active,,,https://www.redfin.com/NC/Brevard/128-Twisted-Tree-Ln-28712/unit-128/home/174639629,CANOPYMLS,3469879,N,Y,35.1229932,-82.7071515
MLS Listing,,Vacant Land,124 Green Hollow Ln #124,Brevard,NC,28712,61000,,,Big Hill,,91040,,274,,32,Active,,,https://www.redfin.com/NC/Unknown/124-Green-Hollow-Ln-28712/unit-124/home/174639627,CANOPYMLS,3469910,N,Y,35.121502,-82.705182
MLS Listing,,Vacant Land,126 Green Hollow Ln #126,Brevard,NC,28712,67000,,,Big Hill,,55321,,274,,32,Active,,,https://www.redfin.com/NC/Unknown/126-Green-Hollow-Ln-28712/unit-126/home/174639626,CANOPYMLS,3469903,N,Y,35.121387,-82.704815
MLS Listing,,Vacant Land,117 Green Hollow Ln #117,Brevard,NC,28712,54000,,,Big Hill,,64904,,274,,32,Active,,,https://www.redfin.com/NC/Unknown/117-Green-Hollow-Ln-28712/unit-117/home/174639625,CANOPYMLS,3469957,N,Y,35.120023,-82.70633
MLS Listing,,Vacant Land,116 Green Hollow Ln #116,Brevard,NC,28712,57000,,,Big Hill,,58370,,274,,32,Active,,,https://www.redfin.com/NC/Unknown/116-Green-Hollow-Ln-28712/unit-116/home/174639624,CANOPYMLS,3469951,N,Y,35.119401,-82.707178
MLS Listing,,Vacant Land,103 Laurel Thicket Ln #103,Brevard,NC,28712,59000,,,Big Hill,,73616,,274,,32,Active,,,https://www.redfin.com/NC/Brevard/103-Laurel-Thicket-Ln-28712/unit-103/home/174639623,CANOPYMLS,3469963,N,Y,35.1151907,-82.7173623
MLS Listing,,Vacant Land,106 Green Hollow Ln #106,Brevard,NC,28712,59000,,,Big Hill,,54885,,274,,32,Active,,,https://www.redfin.com/NC/Unknown/106-Green-Hollow-Ln-28712/unit-106/home/174639622,CANOPYMLS,3469968,N,Y,35.119085,-82.707823
MLS Listing,,Vacant Land,91 Laurel Thicket Ln #91,Brevard,NC,28712,33900,,,Big Hill,,54885,,274,,32,Active,,,https://www.redfin.com/NC/Brevard/91-Laurel-Thicket-Ln-28712/unit-91/home/174639620,CANOPYMLS,3469990,N,Y,35.1152022,-82.7173324
MLS Listing,,Vacant Land,M95 Hawks Crst Unit M95,Brevard,NC,28712,99000,,,Straus Park,,58806,,274,,67,Active,,,https://www.redfin.com/NC/Brevard/M95-Hawks-CRST-Unknown/unit-M95/home/174639611,CANOPYMLS,3210230,N,Y,35.260097,-82.732012
MLS Listing,,Vacant Land,Camp 7 Long Branch Rd Unit Camp 7,Brevard,NC,28712,250000,0,,Chimney Creek,,439651,,274,,167,Active,,,https://www.redfin.com/NC/Brevard/Camp-7-Long-Branch-RD-28712/unit-Camp-7/home/174639609,CANOPYMLS,3700122,N,Y,35.257886,-82.743095
MLS Listing,,Vacant Land,100 Water Tank Rd,Brevard,NC,28712,549000,,,Deerlake Village,,2776078,,274,,42,Active,,,https://www.redfin.com/NC/Brevard/100-Water-Tank-RD-Unknown/home/174639601,CANOPYMLS,3636683,N,Y,35.258654,-82.73649
MLS Listing,,Vacant Land,Lot 57 Waterford Ln #57,Brevard,NC,28712,25000,,,Waterford Place,,17859,,274,,255,Active,,,https://www.redfin.com/NC/Brevard/57-Waterford-Dr-28712/unit-57/home/174639498,CANOPYMLS,3695221,N,Y,35.2392648,-82.7533703
MLS Listing,,Vacant Land,L12R Trailside Ct Unit L12R,Brevard,NC,28712,349000,,,Straus Park,,53578,,274,,67,Active,,,https://www.redfin.com/NC/Brevard/L12R-Trailside-CT-Unknown/unit-L12R/home/174639457,CANOPYMLS,3347670,N,Y,35.257889,-82.724642
MLS Listing,,Vacant Land,33 Dover Ln,Brevard,NC,28712,145000,,,Chasewood,,65775,,274,,67,Active,,,https://www.redfin.com/NC/Brevard/33-Dover-Ln-28712/home/174639268,CANOPYMLS,3135955,N,Y,35.1826346,-82.7606779
MLS Listing,,Vacant Land,TBD Mountain Home Trl #84,Brevard,NC,28712,100000,,,Mountain Brook,,92347,,274,,65,Active,,,https://www.redfin.com/NC/Brevard/44-Four-Seasons-Plz-28712/unit-84/home/174639228,CANOPYMLS,3704865,N,Y,35.2402258,-82.7306417
MLS Listing,,Vacant Land,Lot 39 Mountain Brook Trl #39,Brevard,NC,28712,150000,,,Mountain Brook,,48787,,274,,65,Active,,,https://www.redfin.com/NC/Unknown/Lot-39-Mountain-Brook-Trl-28712/unit-39/home/174639227,CANOPYMLS,3704652,N,Y,35.193819,-82.75035
MLS Listing,,Vacant Land,162 Maga Ln,Rosman,NC,28772,115000,3,,Rosman,,111949,,274,,,Active,,,https://www.redfin.com/NC/Rosman/162-Maga-LN-Unknown/home/174639204,CANOPYMLS,3703318,N,Y,35.1012,-82.845191
MLS Listing,,Vacant Land,Lot 000 Long Ridge Rd,Brevard,NC,28712,50000,,,Brevard,,145054,,274,,,Active,,,https://www.redfin.com/NC/Catheys-Creek/Lot-000-Long-Ridge-Rd-28712/home/174639196,CANOPYMLS,3696734,N,Y,35.205912,-82.757809
MLS Listing,,Vacant Land,Lot #12 Wellspring Way #12,Brevard,NC,28712,9050,,,Wellspring,,22651,,274,,,Active,,,https://www.redfin.com/NC/Brevard/12-Wellspring-Way-28712/unit-12/home/174639192,CANOPYMLS,3704142,N,Y,35.1443345,-82.7588868
MLS Listing,,Vacant Land,Lot 22 Wellspring Way #22,Brevard,NC,28712,9050,,,Wellspring,,26136,,274,,,Active,,,https://www.redfin.com/NC/Brevard/22-Wellspring-Way-28712/unit-22/home/174639187,CANOPYMLS,3704126,N,Y,35.1443345,-82.7588868
MLS Listing,,Vacant Land,L10 Moon Lake Dr Unit L10,Brevard,NC,28712,195000,,,Straus Park,,19166,,274,,67,Active,,,https://www.redfin.com/NC/Dunns-Rock/L10-Moon-Cir-28712/unit-L10/home/174639084,CANOPYMLS,3450799,N,Y,35.25816,-82.723673
MLS Listing,,Vacant Land,M23R Elk Mountain Trl Unit M23R,Brevard,NC,28712,135000,,,Straus Park,,56628,,274,,67,Active,,,https://www.redfin.com/NC/Brevard/M23R-Elk-Mountain-Trl-28712/unit-M23R/home/174639083,CANOPYMLS,3668154,N,Y,35.264422,-82.726576
MLS Listing,,Vacant Land,A6 Allison Creek Trl Unit A6,Brevard,NC,28712,325000,,,Straus Park,,30927,,274,,67,Active,,,https://www.redfin.com/NC/Brevard/A6-Allison-Creek-Trl-28712/unit-A6/home/174639082,CANOPYMLS,3450800,N,Y,35.257069,-82.725792
MLS Listing,,Vacant Land,A5 Allison Creek Trl Unit A5,Brevard,NC,28712,325000,,,Straus Park,,36154,,274,,67,Active,,,https://www.redfin.com/NC/Brevard/A5-Allison-Creek-Trl-28712/unit-A5/home/174639081,CANOPYMLS,3450806,N,Y,35.256681,-82.725621
MLS Listing,,Vacant Land,M80 Pine Mountain Trl Unit M80,Brevard,NC,28712,68500,,,Straus Park,,60983,,274,,67,Active,,,https://www.redfin.com/NC/Brevard/M80-Pine-Mountain-Trl-28712/unit-M80/home/174639079,CANOPYMLS,3276837,N,Y,35.26224,-82.731851
MLS Listing,,Vacant Land,M12R Pine Mountain Trl Unit M12R,Brevard,NC,28712,72500,,,Straus Park,,62726,,274,,67,Active,,,https://www.redfin.com/NC/Brevard/M12R-Pine-Mountain-Trl-28712/unit-M12R/home/174639078,CANOPYMLS,3246664,N,Y,35.262596,-82.728645
MLS Listing,,Vacant Land,TBD Salola Ln Unit L079/U04,Brevard,NC,28712,15000,,,Connestee Falls,,20473,,274,,168,Active,,,https://www.redfin.com/NC/Brevard/44-Four-Seasons-Plz-28712/unit-L079-U04/home/174639055,CANOPYMLS,3588940,N,Y,35.2402258,-82.7306417
MLS Listing,,Vacant Land,20 Oak Brook West Ln W #20,Brevard,NC,28712,24500,,,Ridge Haven,,163350,,274,,47,Active,,,https://www.redfin.com/NC/Brevard/20-W-Oak-brook-Ln-28712/unit-20/home/174639018,CANOPYMLS,3505543,N,Y,35.111639,-82.8477569
MLS Listing,,Vacant Land,Lot 45 Wood Duck Ct #45,Brevard,NC,28712,45000,,,Waterford Place,,13503,,274,,255,Active,,,https://www.redfin.com/NC/Brevard/45-Wood-Duck-Ct-28712/unit-45/home/174639001,CANOPYMLS,3694002,N,Y,35.2378545,-82.7540541
MLS Listing,,Vacant Land,Lot 58 Waterford Ln #58,Brevard,NC,28712,25000,,,Waterford Place,,14374,,274,,255,Active,,,https://www.redfin.com/NC/Brevard/58-Waterford-Dr-28712/unit-58/home/174639000,CANOPYMLS,3693934,N,Y,35.2391544,-82.753494
MLS Listing,,Vacant Land,Lots 48 & 49 Wood Duck Ct Unit 48 & 49,Brevard,NC,28712,45000,,,Waterford Place,,28314,,274,,255,Active,,,https://www.redfin.com/NC/Brevard/49-Wood-Duck-Ct-28712/unit-48-49/home/174638999,CANOPYMLS,3693919,N,Y,35.2378093,-82.7541248
MLS Listing,,Vacant Land,Lot 50 & 51 Wood Duck Ct Unit 50 & 51,Brevard,NC,28712,45000,,,Waterford Place,,28314,,274,,255,Active,,,https://www.redfin.com/NC/Brevard/51-Wood-Duck-Ct-28712/unit-50-51/home/174638998,CANOPYMLS,3693879,N,Y,35.2377867,-82.7541601
MLS Listing,,Vacant Land,Lots 86 & 87 Waterford Ln Unit 86 & 87,Brevard,NC,28712,79000,,,Waterford Place,,58370,,274,,255,Active,,,https://www.redfin.com/NC/Brevard/Lots-86-87-Waterford-LN-Unknown/unit-86-87/home/174638997,CANOPYMLS,3693865,N,Y,35.237957,-82.758428
MLS Listing,,Vacant Land,L-8 Canvasback Ct #8,Brevard,NC,28712,28000,,,Waterford Place,,9147,,274,,255,Active,,,https://www.redfin.com/NC/Brevard/8-Canvasback-Ct-28712/unit-8/home/174638996,CANOPYMLS,3693437,N,Y,35.2402302,-82.7529761
MLS Listing,,Vacant Land,L-88 & L-89 Waterford Ln,Brevard,NC,28712,69000,,,Waterford Place,,77972,,274,,255,Active,,,https://www.redfin.com/NC/Brevard/89-Waterford-Dr-28712/home/174638995,CANOPYMLS,3693402,N,Y,35.2392055,-82.7545589
MLS Listing,,Vacant Land,L-29 & 30 Waterford Ln Unit 29 & 30,Brevard,NC,28712,50000,,,Waterford Place,,19166,,274,,255,Active,,,https://www.redfin.com/NC/Brevard/L-29-30-Waterford-LN-Unknown/unit-29-30/home/174638994,CANOPYMLS,3693420,N,Y,35.239598,-82.755352
MLS Listing,,Vacant Land,481 Fisher Rd,Brevard,NC,28712,799000,,,Brevard,,174675,,274,,,Active,,,https://www.redfin.com/NC/Brevard/481-Fisher-Rd-28712/home/174638925,CANOPYMLS,3598230,N,Y,35.2447568,-82.7304784
MLS Listing,,Vacant Land,80 Orr Rd,Brevard,NC,28712,1764000,,,Brevard,,5488560,,274,,,Active,,,https://www.redfin.com/NC/Brevard/80-Orr-Rd-28712/home/174638865,CANOPYMLS,3554565,N,Y,35.1467928,-82.7991196
MLS Listing,,Vacant Land,Lot 83 Mountain Home Trl #83,Brevard,NC,28712,125000,,,Mountain Brook,,49222,,274,,65,Active,,,https://www.redfin.com/NC/Catheys-Creek/Lot-83-Mountain-Home-Trl-28712/unit-83/home/174638830,CANOPYMLS,3679916,N,Y,35.19503,-82.75084
MLS Listing,,Vacant Land,L302 Lynn Crest Dr #302,Brevard,NC,28712,17500,,,Happy Acres,,45302,,274,,8,Active,,,https://www.redfin.com/NC/Brevard/302-Lynn-Crest-Dr-28712/unit-302/home/174638759,CANOPYMLS,3576813,N,Y,35.1298837,-82.7012209
MLS Listing,,Vacant Land,A1 Allison Creek Trl,Brevard,NC,28712,350000,,,Straus Park,,16117,,274,,64,Active,,,https://www.redfin.com/NC/Brevard/A1-Allison-Creek-Trl-28712/home/174638660,CANOPYMLS,3578738,N,Y,35.256046,-82.723543
MLS Listing,,Vacant Land,0000 Commerce St,Brevard,NC,28712,284000,,,Brevard,,34412,,274,,,Active,,,https://www.redfin.com/NC/Brevard/Commerce-St-28712/home/174759136,CANOPYMLS,3576432,N,Y,35.241073,-82.735695
MLS Listing,,Vacant Land,1778 Asheville Hwy,Brevard,NC,28712,180000,,,Brevard,,86684,,274,,,Active,,,https://www.redfin.com/NC/Brevard/1778-Asheville-Hwy-28712/home/140279243,CANOPYMLS,3592287,N,Y,35.2661097,-82.7133022
MLS Listing,,Vacant Land,14 Spring House Trl,Brevard,NC,28712,250000,,,straus park,,270986,,274,,64,Active,,,https://www.redfin.com/NC/Brevard/14-Springhouse-Trl-28712/home/174638561,CANOPYMLS,3138188,N,Y,35.2620909,-82.7173674
MLS Listing,,Vacant Land,14 Woodsong Way #14,Brevard,NC,28712,129950,,,Deerlake Village,,123710,,274,,42,Active,,,https://www.redfin.com/NC/Brevard/14-W-Woodsong-Ln-28712/unit-14/home/174638553,CANOPYMLS,3386191,N,Y,35.2330598,-82.7245706
MLS Listing,,Vacant Land,000 Dvdisdi Rd Unit U23L12,Brevard,NC,28712,10000,,,Connestee falls,,62726,,274,,160,Active,,,https://www.redfin.com/NC/Eastatoe/Dvdisdi-Ct-28712/unit-U23L12/home/174638455,CANOPYMLS,3466813,N,Y,35.143697,-82.749253
MLS Listing,,Vacant Land,0 Unvquolad Ct Unit L76AU29,Brevard,NC,28712,49500,,,Connestee Falls,,37897,,274,,168,Active,,,https://www.redfin.com/NC/Unknown/Unvquolad-Ct-28712/unit-L76AU29/home/174638413,CANOPYMLS,3679444,N,Y,35.157046,-82.770607
MLS Listing,,Vacant Land,J111 Mulberry Cir,Brevard,NC,28712,95000,0,,Sequoyah Woods,,147668,,274,,21,Active,,,https://www.redfin.com/NC/Dunns-Rock/J111-Mulberry-Cir-28712/home/174638378,CANOPYMLS,3673322,N,Y,35.16271,-82.695974
MLS Listing,,Vacant Land,19 Rockbrook Overlook,Brevard,NC,28712,92500,,,Mountain Brook,,60983,,274,,67,Active,,,https://www.redfin.com/NC/Catheys-Creek/19-Rockbrook-Overlook-28712/home/174638329,CANOPYMLS,3654965,N,Y,35.199838,-82.748967
MLS Listing,,Vacant Land,53 New Castle Rd,Brevard,NC,28712,84500,,,Chasewood,,74052,,274,,67,Active,,,https://www.redfin.com/NC/Brevard/53-Newcastle-Rd-28712/home/174638267,CANOPYMLS,3675877,N,Y,35.1855478,-82.7605722
MLS Listing,,Vacant Land,Lot 132 Green Hollow Ln,Brevard,NC,28712,55000,,,Big Hill,,57499,,274,,32,Active,,,https://www.redfin.com/NC/Unknown/Lot-132-Green-Hollow-Ln-28712/home/174638103,CANOPYMLS,3550678,N,Y,35.124385,-82.704662
MLS Listing,,Vacant Land,L68 Stone Field Trl,Brevard,NC,28712,105000,,,Mountain Brook,,52707,,274,,64,Active,,,https://www.redfin.com/NC/Catheys-Creek/L68-Stone-Field-Trl-28712/home/174638035,CANOPYMLS,3655393,N,Y,35.193318,-82.754352
MLS Listing,,Vacant Land,Lot 8 Oxford Ct,Brevard,NC,28712,40000,,,Chasewood,,47480,,274,,67,Active,,,https://www.redfin.com/NC/Catheys-Creek/Lot-8-Oxford-Ct-28712/home/174638034,CANOPYMLS,3645232,N,Y,35.187435,-82.761507
MLS Listing,,Vacant Land,TBD Yanequa Way Unit 47A,Brevard,NC,28712,25000,,,Connestee Falls,,52272,,274,,168,Active,,,https://www.redfin.com/NC/Brevard/44-Four-Seasons-Plz-28712/unit-47A/home/174638021,CANOPYMLS,3655065,N,Y,35.2402258,-82.7306417
MLS Listing,,Vacant Land,24 East View Rd,Rosman,NC,28772,15500,,,Rosman,,54885,,274,,38,Active,,,https://www.redfin.com/NC/Rosman/24-Eastview-Rd-28772/home/174637957,CANOPYMLS,3430799,N,Y,35.109971,-82.849268
MLS Listing,,Vacant Land,Lot 38 Abby Falls Dr,Rosman,NC,28772,39900,,,Round Mountain Falls,,118918,,274,,50,Active,,,https://www.redfin.com/NC/Rosman/Lot-38-Abby-Falls-DR-28772/home/174637930,CANOPYMLS,3519196,N,Y,35.08487,-82.84933
MLS Listing,,Vacant Land,Lot 47 Sweetleaf Ln,Rosman,NC,28772,59900,,,Round Mountain Falls,,108028,,274,,50,Active,,,https://www.redfin.com/NC/Rosman/Lot-47-Sweetleaf-LN-Unknown/home/174637878,CANOPYMLS,3519708,N,Y,35.091824,-82.852299
MLS Listing,,Vacant Land,000 Fox Crossing None,Rosman,NC,28772,89000,,,Line Runner Ridge,,447361,,274,,33,Active,,,https://www.redfin.com/NC/Eastatoe/Fox-Xing-28772/home/174637858,CANOPYMLS,3181310,N,Y,35.113563,-82.792113
MLS Listing,,Vacant Land,TBD Tsula Ct Unit U05/L0002,Brevard,NC,28712,27500,,,Connestee Falls,,16117,,274,,168,Active,,,https://www.redfin.com/NC/Brevard/44-Four-Seasons-Plz-28712/unit-U05-L0002/home/174637857,CANOPYMLS,3622296,N,Y,35.2402258,-82.7306417
MLS Listing,,Vacant Land,Lot 9 Gaston Bee Gum Rd #9,Rosman,NC,28772,16900,,,Round Mountain,,87120,,274,,33,Active,,,https://www.redfin.com/NC/Rosman/Lot-9-Gaston-Bee-Gum-RD-Unknown/unit-9/home/174637852,CANOPYMLS,3618725,N,Y,35.069408,-82.86787
MLS Listing,,Vacant Land,158 Springhouse Trl Unit SH 8,Brevard,NC,28712,115000,,,Straus Park,,22651,,274,,66,Active,,,https://www.redfin.com/NC/Brevard/158-Springhouse-Trl-28712/unit-SH-8/home/174637846,CANOPYMLS,3309237,N,Y,35.2635827,-82.7181451
MLS Listing,,Vacant Land,569 Camptown Rd Unit M109,Brevard,NC,28712,135000,,,Straus Park,,18295,,274,,66,Active,,,https://www.redfin.com/NC/Brevard/569-Camptown-Rd-28712/unit-M109/home/174637845,CANOPYMLS,3308364,N,Y,35.2616264,-82.7178874
MLS Listing,,Vacant Land,515 Camptown Rd Unit m111,Brevard,NC,28712,139000,,,Straus Park,,25264,,274,,66,Active,,,https://www.redfin.com/NC/Brevard/515-Camptown-Rd-28712/unit-m111/home/174637844,CANOPYMLS,3308358,N,Y,35.2616209,-82.7178567
MLS Listing,,Vacant Land,28 Blueberry Hill Rd Unit V30,Brevard,NC,28712,103500,,,Straus Park,,14374,,274,,64,Active,,,https://www.redfin.com/NC/Brevard/28-Blueberry-Hill-Rd-28712/unit-V30/home/174637843,CANOPYMLS,3309319,N,Y,35.2602469,-82.7206715
MLS Listing,,Vacant Land,157 Springhouse Trl Unit L11,Brevard,NC,28712,109000,,,Straus Park,,31363,,274,,66,Active,,,https://www.redfin.com/NC/Brevard/157-Springhouse-Trl-28712/unit-L11/home/174637842,CANOPYMLS,3309256,N,Y,35.2633453,-82.7182153
MLS Listing,,Vacant Land,41 Pepperbush Rdg,Brevard,NC,28712,212500,,,Sylvan Heights,,121096,,274,,58,Active,,,https://www.redfin.com/NC/Dunns-Rock/41-Pepperbush-Rd-28712/home/174637841,CANOPYMLS,3507153,N,Y,35.158453,-82.756421
MLS Listing,,Vacant Land,M79 Pine Mountain Trl Unit M79,Brevard,NC,28712,89900,,,Straus Park,,77972,,274,,64,Active,,,https://www.redfin.com/NC/Brevard/M79-Pine-Mountain-Trl-28712/unit-M79/home/174637810,CANOPYMLS,NCM538838,N,Y,35.262751,-82.731805
MLS Listing,,Vacant Land,14 Park Pl #14,Brevard,NC,28712,79000,,,Park Place,,8712,,274,,270,Active,,,https://www.redfin.com/NC/Brevard/14-Park-Pl-W-28712/unit-14/home/176992030,CANOPYMLS,3607622,N,Y,35.2568182,-82.7179336
MLS Listing,,Vacant Land,0 Old Cottage Ln #7,Brevard,NC,28712,199000,,,Straus Park,,95832,,274,,64,Active,,,https://www.redfin.com/NC/Brevard/7-Ridgetop-Cir-28712/unit-7/home/174637804,CANOPYMLS,3606131,N,Y,35.254346,-82.7222881
MLS Listing,,Vacant Land,23 Oconee Bell Rd,Brevard,NC,28712,18000,,,Round Mountain,,50529,,274,,30,Active,,,https://www.redfin.com/NC/Brevard/23-Oconee-Bell-Ln-28712/home/174637781,CANOPYMLS,NCM584148,N,Y,35.069127,-82.8693002
MLS Listing,,Single Family Residential,214 Country Club Cir,Brevard,NC,28712,799000,4,3.5,Illahee Hills,3053,27442,1971,274,262,,Active,,,https://www.redfin.com/NC/Brevard/214-Country-Club-Cir-28712/home/140276030,CANOPYMLS,3691531,N,Y,35.2086363,-82.742757
MLS Listing,,Vacant Land,0 Spring Rd,Rosman,NC,28772,59900,,,Line Runner Ridge,,371131,,275,,50,Active,,,https://www.redfin.com/NC/Eastatoe/Spring-Rd-28772/home/174618313,CANOPYMLS,3607898,N,Y,35.108593,-82.801032
