SALE TYPE,SOLD DATE,PROPERTY TYPE,ADDRESS,CITY,STATE OR PROVINCE,ZIP OR POSTAL CODE,PRICE,BEDS,BATHS,LOCATION,SQUARE FEET,LOT SIZE,YEAR BUILT,DAYS ON MARKET,$/SQUARE FEET,HOA/MONTH,STATUS,NEXT OPEN HOUSE START TIME,NEXT OPEN HOUSE END TIME,URL (SEE https://www.redfin.com/buy-a-home/comparative-market-analysis FOR INFO ON PRICING),SOURCE,MLS#,FAVORITE,INTERESTED,LATITUDE,LONGITUDE
MLS Listing,,Single Family Residential,191 Land Rd,Stoneville,NC,27048,175000,4,3.0,,,,2004,1,,,Active,,,https://www.redfin.com/NC/Stoneville/191-Land-Rd-27048/home/94755766,Triad MLS,1051304,N,Y,36.4693823,-79.8654492
MLS Listing,,Single Family Residential,980 River Rd,Stoneville,NC,27048,249900,3,2.0,,,,2021,3,,,Active,,,https://www.redfin.com/NC/Stoneville/980-River-Rd-27048/home/72198089,Triad MLS,1051167,N,Y,36.403538,-79.922134
MLS Listing,,Vacant Land,1454 Anglin Mill Rd,Stoneville,NC,27048,175000,,,Stoneville,,,,4,,,Active,,,https://www.redfin.com/NC/Stoneville/1454-Anglin-Mill-Rd-27048/home/72204686,Triad MLS,1050944,N,Y,36.5294879,-79.9670387
MLS Listing,,Mobile/Manufactured Home,3260 Nc Highway 135,Stoneville,NC,27048,65000,2,1.0,,,,2012,6,,,Active,,,https://www.redfin.com/NC/Stoneville/3260-NC-135-27048/home/72195909,Triad MLS,1050733,N,Y,36.4590869,-79.8365034
MLS Listing,,Single Family Residential,.69 AC Nc Highway 135,Stoneville,NC,27048,65000,,,,,,,6,,,Active,,,https://www.redfin.com/NC/Stoneville/2873-N-Carolina-135-27048/home/177359715,Triad MLS,1050734,N,Y,36.4635887,-79.8250274
MLS Listing,,Single Family Residential,501 C N Smith Mill Rd,Stoneville,NC,27048,115000,,,Stoneville,,,,6,,,Active,,,https://www.redfin.com/NC/Stoneville/501-N-C-Smith-Mill-Rd-27048/home/177350429,Triad MLS,1050736,N,Y,36.48848,-79.932518
MLS Listing,,Vacant Land,88 Acres Us Highway 220 S,Stoneville,NC,27048,440000,,,,,,,6,,,Active,,,https://www.redfin.com/NC/Stoneville/8901-U-S-220-27048/home/177350084,Triad MLS,1050732,N,Y,36.4616051,-79.9241393
MLS Listing,,Mobile/Manufactured Home,3600 Us Highway 220 Bus,Stoneville,NC,27048,159900,3,2.0,,,,1999,17,,,Active,,,https://www.redfin.com/NC/STONEVILLE/3600-US-HIGHWAY-220-BUS-27048/home/94760078,Triad MLS,1050036,N,Y,36.454438,-79.92239
MLS Listing,,Single Family Residential,207 Thomas St,Stoneville,NC,27048,140000,3,1.5,,,,1948,34,,,Active,,,https://www.redfin.com/NC/Stoneville/207-Thomas-St-27048/home/72194328,Triad MLS,1048111,N,Y,36.4722666,-79.9076165
MLS Listing,,Single Family Residential,175 Macgregor Ln,Stoneville,NC,27048,35000,,,Deep Springs Country Club,,,,37,,,Active,,,https://www.redfin.com/NC/Stoneville/175-Macgregor-Ln-27048/home/176999613,Triad MLS,1047836,N,Y,36.4132376,-79.8903714
MLS Listing,,Ranch,Tract C Center Meeting House Rd,Stoneville,NC,27048,132000,,,Stoneville,,,,41,,,Active,,,https://www.redfin.com/NC/Unknown/Tract-C-Center-Meeting-House-Rd-27048/home/177209797,Triad MLS,1046458,N,Y,36.523523,-79.865888
MLS Listing,,Single Family Residential,166 Deerwood Ln,Stoneville,NC,27048,370000,4,3.0,Deep Springs Country Club,,,1985,48,,,Active,,,https://www.redfin.com/NC/Stoneville/166-Deerwood-Ln-27048/home/94779051,Triad MLS,1046511,N,Y,36.4124191,-79.8759929
MLS Listing,,Vacant Land,000 Starling Rd,Stoneville,NC,27048,558900,,,Stoneville,,,,48,,,Active,,,https://www.redfin.com/NC/Stoneville/Starling-Rd-27048/home/101685131,Triad MLS,1045001,N,Y,36.515143,-79.895945
MLS Listing,,Mobile/Manufactured Home,150 Whitney Ln,Stoneville,NC,27048,147500,3,2.0,,,,1995,50,,,Active,,,https://www.redfin.com/NC/Stoneville/150-Whitney-Ln-27048/home/94773990,Triad MLS,1046335,N,Y,36.4549153,-79.9555332
MLS Listing,,Mobile/Manufactured Home,1815 Snead Rd,Stoneville,NC,27048,214900,3,2.5,Hamlett Estates,,,1998,58,,,Active,,,https://www.redfin.com/NC/Stoneville/1815-Snead-Rd-27048/home/94775033,Triad MLS,1045352,N,Y,36.5059312,-79.8650117
MLS Listing,,Single Family Residential,000 Duncan St,Stoneville,NC,27048,17900,,,Stoneville,,,,65,,,Active,,,https://www.redfin.com/NC/Stoneville/400-N-Henry-St-27048/home/176583395,Triad MLS,1044327,N,Y,36.4719086,-79.9092941
MLS Listing,,Single Family Residential,12 Noel Rd,Stoneville,NC,27048,17900,,,Stoneville,,,,65,,,Active,,,https://www.redfin.com/NC/Stoneville/12-Noel-Rd-27048/home/176583339,Triad MLS,1044321,N,Y,36.5047125,-79.8661802
MLS Listing,,Single Family Residential,14 Noel Rd,Stoneville,NC,27048,17900,,,Hamlett Estates,,,,65,,,Active,,,https://www.redfin.com/NC/Stoneville/14-Noel-Rd-27048/home/176583337,Triad MLS,1044325,N,Y,36.5047125,-79.8661802
MLS Listing,,Single Family Residential,13 Noel Rd,Stoneville,NC,27048,17900,,,Hamlett Estates,,,,65,,,Active,,,https://www.redfin.com/NC/Stoneville/13-Noel-Rd-27048/home/176583336,Triad MLS,1044322,N,Y,36.5047125,-79.8661802
MLS Listing,,Vacant Land,00 Nc Highway 770,Stoneville,NC,27048,350000,,,Stoneville,,,,78,,,Active,,,https://www.redfin.com/NC/Stoneville/6750-N-Carolina-770-27048/home/176762560,Triad MLS,1042937,N,Y,36.4772519,-79.8228213
MLS Listing,,Single Family Residential,147 Redmond Dr,Stoneville,NC,27048,339999,4,2.0,,,,1959,81,,,Active,,,https://www.redfin.com/NC/Stoneville/147-Redmond-Rd-27048/home/94780783,Triad MLS,1042561,N,Y,36.475209,-79.832203
MLS Listing,,Single Family Residential,105 Simpson St,Stoneville,NC,27048,89900,3,1.0,,,,1953,99,,,Active,,,https://www.redfin.com/NC/Stoneville/105-Simpson-St-27048/home/94757424,Triad MLS,1040362,N,Y,36.4684183,-79.9036806
MLS Listing,,Single Family Residential,00 Roberts Cemetery Rd,Stoneville,NC,27048,190000,,,Stoneville,,,,104,,,Active,,,https://www.redfin.com/NC/STONEVILLE/ROBERTS-CEMETERY-RD-27048/home/94775800,Triad MLS,1039515,N,Y,36.447914,-79.847241
MLS Listing,,Single Family Residential,4836 Us Highway 220 Bus,Stoneville,NC,27048,75000,0,,,,,1917,140,,,Active,,,https://www.redfin.com/NC/STONEVILLE/4836-US-HIGHWAY-220-BUS-27048/home/94775818,Triad MLS,1033844,N,Y,36.47813,-79.910655
MLS Listing,,Single Family Residential,00 Deerwood Ln,Stoneville,NC,27048,29600,,,Deep Springs Country Club,,,,144,,,Active,,,https://www.redfin.com/NC/STONEVILLE/DEERWOOD-LN-27048/home/163189970,Triad MLS,1033114,N,Y,36.407218,-79.874678
MLS Listing,,Vacant Land,121 Hogan Dr,Stoneville,NC,27048,24900,,,Deep Springs Country Club,,,,150,,,Active,,,https://www.redfin.com/NC/Stoneville/121-Hogan-Dr-27048/home/175621757,Triad MLS,1032495,N,Y,36.4096325,-79.8786753
MLS Listing,,Vacant Land,153 Hogan Dr,Stoneville,NC,27048,24900,,,Deep Springs Country Club,,,,150,,,Active,,,https://www.redfin.com/NC/Stoneville/153-Hogan-Dr-27048/home/175621756,Triad MLS,1032496,N,Y,36.4092911,-79.8784298
MLS Listing,,Vacant Land,01 Anglin Mill Rd,Stoneville,NC,27048,25000,,,Stoneville,,,,223,,,Active,,,https://www.redfin.com/NC/Stoneville/01-Anglin-Mill-Rd-27048/home/175009191,Triad MLS,1021192,N,Y,36.539181,-79.944104
MLS Listing,,Vacant Land,00 Anglin Mill Rd,Stoneville,NC,27048,95000,,,Stoneville,,,,227,,,Active,,,https://www.redfin.com/NC/STONEVILLE/ANGLIN-MILL-RD-27048/home/94759918,Triad MLS,1021190,N,Y,36.542385,-79.934872
MLS Listing,,Single Family Residential,280 Macgregor Ln,Stoneville,NC,27048,28900,,,Deep Springs Country Club,,,,515,,,Active,,,https://www.redfin.com/NC/Stoneville/280-MacGregor-Ln-27048/home/72196594,Triad MLS,984736,N,Y,36.4155896,-79.8922744
MLS Listing,,Single Family Residential,1759 Nc Highway 770,Stoneville,NC,27048,19900,,,Stoneville,,,,730,,,Active,,,https://www.redfin.com/NC/Stoneville/1759-N-Carolina-770-27048/home/170022822,Triad MLS,959677,N,Y,36.4699997,-79.9816928
MLS Listing,,Single Family Residential,1809 Nc Highway 770,Stoneville,NC,27048,29900,,,Stoneville,,,,730,,,Active,,,https://www.redfin.com/NC/Stoneville/1809-N-Carolina-770-27048/home/170022740,Triad MLS,959674,N,Y,36.4702868,-79.9790799
MLS Listing,,Vacant Land,157 Carriage Dr,Stoneville,NC,27048,34500,,,Deep Springs Country Club,,,,1194,,,Active,,,https://www.redfin.com/NC/Stoneville/157-Carriage-Dr-27048/home/146895980,Triad MLS,901616,N,Y,36.4028342,-79.8853423
