SALE TYPE,SOLD DATE,PROPERTY TYPE,ADDRESS,CITY,STATE OR PROVINCE,ZIP OR POSTAL CODE,PRICE,BEDS,BATHS,LOCATION,SQUARE FEET,LOT SIZE,YEAR BUILT,DAYS ON MARKET,$/SQUARE FEET,HOA/MONTH,STATUS,NEXT OPEN HOUSE START TIME,NEXT OPEN HOUSE END TIME,URL (SEE https://www.redfin.com/buy-a-home/comparative-market-analysis FOR INFO ON PRICING),SOURCE,MLS#,FAVORITE,INTERESTED,LATITUDE,LONGITUDE
PAST SALE,August-27-2021,Single Family Residential,15306 Iris Ln,Dumfries,VA,22025,535000,4,3.5,COUNTRY CLUB LAKE,2597,8159,1980,100,206,58,Sold,,,https://www.redfin.com/VA/Montclair/15306-Iris-Ln-22025/home/9086559,BRIGHT MLS,VAPW2001824,N,Y,38.6190932,-77.3478987
PAST SALE,May-31-2019,Single Family Residential,17322 Four Seasons Dr,Dumfries,VA,22025,440000,3,2.0,FOUR SEASONS IN HISTORIC,1802,6660,2003,919,244,220,Sold,,,https://www.redfin.com/VA/Montclair/17322-Four-Seasons-Dr-22025/home/9413761,BRIGHT MLS,VAPW465370,N,Y,38.590136,-77.3247921
PAST SALE,March-25-2019,Single Family Residential,5034 Spring Branch Blvd,Dumfries,VA,22025,420000,4,3.0,MONTCLAIR ST1,3016,9182,1985,986,139,55,Sold,,,https://www.redfin.com/VA/Montclair/5034-Spring-Branch-Blvd-22025/home/9229688,BRIGHT MLS,VAPW321826,N,Y,38.623455,-77.3545831
PAST SALE,September-4-2020,Townhouse,4318 Golden Gate Way,Dumfries,VA,22025,375000,3,3.5,FOREST PARK,2209,2217,2005,457,170,95,Sold,,,https://www.redfin.com/VA/Dumfries/4318-Golden-Gate-Way-22025/home/9606064,BRIGHT MLS,VAPW501300,N,Y,38.5725393,-77.3386903
PAST SALE,May-11-2020,Townhouse,17506 Victoria Falls Dr,Dumfries,VA,22025,352000,3,3.0,FOREST PARK,2130,1838,2005,573,165,95,Sold,,,https://www.redfin.com/VA/Dumfries/17506-Victoria-Falls-Dr-22025/home/9600992,BRIGHT MLS,VAPW491616,N,Y,38.5732038,-77.3387688
PAST SALE,May-29-2019,Single Family Residential,4352 Glastonbury Ct,Dumfries,VA,22025,550000,4,4.5,BRITTANY,3886,9331,1993,921,142,33,Sold,,,https://www.redfin.com/VA/Dumfries/4352-Glastonbury-Ct-22025/home/9282191,BRIGHT MLS,VAPW463004,N,Y,38.592439,-77.3432329
PAST SALE,August-21-2019,Single Family Residential,4900 Tallowwood Dr,Dumfries,VA,22025,380000,4,4.0,MONTCLAIR,2828,9457,1985,837,134,55,Sold,,,https://www.redfin.com/VA/Montclair/4900-Tallowwood-Dr-22025/home/9247379,BRIGHT MLS,VAPW472142,N,Y,38.6244892,-77.3544413
PAST SALE,May-29-2019,Townhouse,15459 Windsong Ln,Dumfries,VA,22025,299900,3,2.5,MONTCLAIR,1616,1429,1992,921,186,67,Sold,,,https://www.redfin.com/VA/Montclair/15459-Windsong-Ln-22025/home/9263342,BRIGHT MLS,VAPW466114,N,Y,38.617569,-77.335257
PAST SALE,January-15-2021,Townhouse,4079 Jasper Loop,Dumfries,VA,22025,360000,4,3.5,FOREST PARK,2152,1398,1994,324,167,92,Sold,,,https://www.redfin.com/VA/Dumfries/4079-Jasper-Loop-22025/home/9333892,BRIGHT MLS,VAPW507250,N,Y,38.5754591,-77.3335642
PAST SALE,July-10-2019,Townhouse,4172 La Mauricie Loop,Dumfries,VA,22025,310000,3,3.0,FOREST PARK,1950,1999,1999,879,159,71,Sold,,,https://www.redfin.com/VA/Dumfries/4172-La-Mauricie-Loop-22025/home/9345610,BRIGHT MLS,VAPW469098,N,Y,38.5761006,-77.3359197
PAST SALE,September-23-2019,Townhouse,4903 Sugar Maple Ln,Dumfries,VA,22025,259000,3,2.5,MONTCLAIR ST4,1680,1498,1984,804,154,,Sold,,,https://www.redfin.com/VA/Montclair/4903-Sugar-Maple-Ln-22025/home/9237556,BRIGHT MLS,VAPW476938,N,Y,38.626512,-77.354696
PAST SALE,July-14-2021,Single Family Residential,15243 Holleyside Dr,Dumfries,VA,22025,560000,4,3.5,Dumfries,3261,7941,1982,144,172,60,Sold,,,https://www.redfin.com/VA/Montclair/15243-Holleyside-Dr-22025/home/9222894,BRIGHT MLS,VAPW523888,N,Y,38.6241064,-77.34911
PAST SALE,February-21-2020,Single Family Residential,15717 Renton Ct,Dumfries,VA,22025,455000,4,2.5,SOUTHLAKE AT MONTCLAIR,2694,9945,1999,653,169,83,Sold,,,https://www.redfin.com/VA/Montclair/15717-Renton-Ct-22025/home/9328977,BRIGHT MLS,VAPW484680,N,Y,38.6117688,-77.3605942
PAST SALE,November-20-2020,Single Family Residential,17074 Four Seasons Dr,Dumfries,VA,22025,430000,3,2.0,FOUR SEASONS IN HISTORIC,2149,6708,2005,380,200,220,Sold,,,https://www.redfin.com/VA/Montclair/17074-Four-Seasons-Dr-22025/home/9601240,BRIGHT MLS,VAPW501698,N,Y,38.5989833,-77.3208433
PAST SALE,October-7-2019,Townhouse,17470 Bayou Bend Cir,Dumfries,VA,22025,366161,3,3.5,FOREST PARK,2388,2126,2005,790,153,92,Sold,,,https://www.redfin.com/VA/Dumfries/17470-Bayou-Bend-Cir-22025/home/9601055,BRIGHT MLS,VAPW478502,N,Y,38.574684,-77.3385557
PAST SALE,March-18-2019,Single Family Residential,15868 Montview Dr,Dumfries,VA,22025,356000,4,2.5,MONTCLAIR,1824,8451,1982,993,195,57,Sold,,,https://www.redfin.com/VA/Montclair/15868-Montview-Dr-22025/home/9222570,BRIGHT MLS,VAPW432146,N,Y,38.6074871,-77.3536298
PAST SALE,October-4-2019,Townhouse,17540 Victoria Falls Dr,Dumfries,VA,22025,342000,3,3.5,FOREST PARK,2542,2705,2005,793,135,92,Sold,,,https://www.redfin.com/VA/Dumfries/17540-Victoria-Falls-Dr-22025/home/9605982,BRIGHT MLS,VAPW474254,N,Y,38.5727281,-77.3396773
PAST SALE,March-29-2021,Townhouse,4392 Palton Dr,Dumfries,VA,22025,385000,3,3.0,FOREST PARK,1960,1838,2006,251,196,84,Sold,,,https://www.redfin.com/VA/Dumfries/4392-Palton-Dr-22025/home/12324527,BRIGHT MLS,VAPW515238,N,Y,38.57144,-77.3393408
PAST SALE,September-6-2019,Single Family Residential,15302 Holly Hill Dr,Dumfries,VA,22025,407000,4,2.5,COUNTRY CLUB LAKE,2212,9169,1980,821,184,56,Sold,,,https://www.redfin.com/VA/Montclair/15302-Holly-Hill-Dr-22025/home/9086505,BRIGHT MLS,VAPW468968,N,Y,38.6195639,-77.347164
PAST SALE,August-9-2021,Townhouse,17419 Grant Cottage Dr,Dumfries,VA,22025,445000,3,3.5,FOREST PARK,2242,2840,2005,118,198,95,Sold,,,https://www.redfin.com/VA/Dumfries/17419-Grant-Cottage-Dr-22025/home/9606059,BRIGHT MLS,VAPW2002910,N,Y,38.5717724,-77.3386903
PAST SALE,July-22-2020,Single Family Residential,4348 Glastonbury Ct,Dumfries,VA,22025,600000,4,3.5,BRITTANY,3814,8882,1993,501,157,25,Sold,,,https://www.redfin.com/VA/Dumfries/4348-Glastonbury-Ct-22025/home/9282197,BRIGHT MLS,VAPW496752,N,Y,38.5926762,-77.343188
PAST SALE,November-1-2021,Townhouse,4261 Hudson River Ct,Dumfries,VA,22025,460000,3,3.5,FOREST PARK,2358,2923,2005,34,195,97,Sold,,,https://www.redfin.com/VA/Dumfries/4261-Hudson-River-Ct-22025/home/9601006,BRIGHT MLS,VAPW2009346,N,Y,38.5740715,-77.3392287
PAST SALE,October-30-2019,Single Family Residential,15504 Golf Club Dr,Dumfries,VA,22025,369000,4,2.5,COUNTRY CLUB LAKE,2328,10001,1979,767,159,48,Sold,,,https://www.redfin.com/VA/Montclair/15504-Golf-Club-Dr-22025/home/9375292,BRIGHT MLS,VAPW469872,N,Y,38.616899,-77.3429637
PAST SALE,September-13-2019,Townhouse,14494 Whisperwood Ct,Dumfries,VA,22025,265000,2,2.0,MONTCLAIR,1256,2108,1989,814,211,105,Sold,,,https://www.redfin.com/VA/Montclair/14494-Whisperwood-Ct-22025/home/9263032,BRIGHT MLS,VAPW475696,N,Y,38.620497,-77.334823
PAST SALE,October-29-2021,Townhouse,4005 Mammoth Cave Loop,Dumfries,VA,22025,385000,3,3.5,FOREST PARK,2152,1398,1995,37,179,78,Sold,,,https://www.redfin.com/VA/Dumfries/4005-Mammoth-Cave-Loop-22025/home/9298162,BRIGHT MLS,VAPW2004652,N,Y,38.576365,-77.33147
PAST SALE,October-23-2020,Townhouse,4156 Ashmere Cir,Dumfries,VA,22025,320000,4,2.5,MONTCLAIR MEWS,1654,1080,1997,408,193,130,Sold,,,https://www.redfin.com/VA/Montclair/4156-Ashmere-Cir-22025/home/9298492,BRIGHT MLS,VAPW503076,N,Y,38.598952,-77.33261
PAST SALE,July-30-2021,Townhouse,17307 Pacific Rim Ter,Dumfries,VA,22025,415500,4,3.5,FOREST PARK,2234,3001,1995,128,186,78,Sold,,,https://www.redfin.com/VA/Dumfries/17307-Pacific-Rim-Ter-22025/home/9301419,BRIGHT MLS,VAPW524512,N,Y,38.5772007,-77.3323303
PAST SALE,March-30-2020,Single Family Residential,15490 Cliffview Dr,Dumfries,VA,22025,485999,5,3.5,MONTCLAIR,3528,10102,1981,615,138,57,Sold,,,https://www.redfin.com/VA/Montclair/15490-Cliffview-Dr-22025/home/9376443,BRIGHT MLS,VAPW486796,N,Y,38.617702,-77.340502
PAST SALE,June-5-2020,Single Family Residential,5061 Willow Oak Pl,Dumfries,VA,22025,450000,4,2.5,MONTCLAIR ST2,2672,19171,1985,548,168,53,Sold,,,https://www.redfin.com/VA/Montclair/5061-Willow-Oak-Pl-22025/home/9232981,BRIGHT MLS,VAPW493124,N,Y,38.6242877,-77.3526092
PAST SALE,April-12-2019,Single Family Residential,4266 Moot Dr,Dumfries,VA,22025,430000,4,2.5,BRITTANY,2362,11565,1989,968,182,50,Sold,,,https://www.redfin.com/VA/Dumfries/4266-Moot-Dr-22025/home/9276901,BRIGHT MLS,VAPW376848,N,Y,38.5911049,-77.3406307
PAST SALE,December-9-2020,Single Family Residential,15730 Vista Dr,Dumfries,VA,22025,485000,4,2.5,COUNTRY CLUB/LAKE MONTCLAIR,2272,8455,1977,361,213,59,Sold,,,https://www.redfin.com/VA/Montclair/15730-Vista-Dr-22025/home/9083712,BRIGHT MLS,VAPW507778,N,Y,38.6111148,-77.3233113
PAST SALE,July-9-2020,Single Family Residential,16218 Cypress Ct,Montclair,VA,22025,458000,5,3.5,COUNTRY CLUB LAKE,2778,11866,1979,514,165,57,Sold,,,https://www.redfin.com/VA/Montclair/16218-Cypress-Ct-22025/home/9375376,BRIGHT MLS,VAPW496842,N,Y,38.6007029,-77.336346
PAST SALE,March-18-2019,Single Family Residential,5081 Willow Oak Pl,Dumfries,VA,22025,505000,5,3.5,MONTCLAIR ST2,3400,15712,1984,993,149,46,Sold,,,https://www.redfin.com/VA/Montclair/5081-Willow-Oak-Pl-22025/home/9375582,BRIGHT MLS,VAPW390972,N,Y,38.6231267,-77.3530578
PAST SALE,June-25-2021,Townhouse,4217 Allstadt Farm Loop,Dumfries,VA,22025,430000,3,3.5,FOREST PARK,2244,2026,2006,163,192,95,Sold,,,https://www.redfin.com/VA/Dumfries/4217-ALLSTADT-Farm-Loop-22025/home/12324559,BRIGHT MLS,VAPW522964,N,Y,38.5727147,-77.3378042
PAST SALE,August-16-2019,Single Family Residential,16212 Dartmoor Dr,Dumfries,VA,22025,424950,4,2.5,COUNTRY CLUB LAKE,2940,9592,1978,842,145,57,Sold,,,https://www.redfin.com/VA/Montclair/16212-Dartmoor-Dr-22025/home/9082454,BRIGHT MLS,VAPW470042,N,Y,38.6014498,-77.3370863
PAST SALE,December-30-2020,Townhouse,15385 Inlet Pl,Dumfries,VA,22025,332500,3,3.5,MONTCLAIR ST3,1964,1481,1986,340,169,56,Sold,,,https://www.redfin.com/VA/Montclair/15385-Inlet-Pl-22025/home/9252446,BRIGHT MLS,VAPW509126,N,Y,38.618963,-77.3530849
PAST SALE,October-21-2021,Townhouse,4222 Stockbridge Dr,Dumfries,VA,22025,279000,3,2.5,STOCKBRIDGE CONDO,1316,,1990,45,212,295,Sold,,,https://www.redfin.com/VA/Montclair/4222-Stockbridge-Dr-22025/home/9318519,BRIGHT MLS,VAPW2008726,N,Y,38.598917,-77.335181
PAST SALE,June-14-2019,Townhouse,5246 Spring Branch Blvd,Dumfries,VA,22025,295200,3,3.5,MONTCLAIR ST4,1690,1599,1987,905,175,115,Sold,,,https://www.redfin.com/VA/Montclair/5246-Spring-Branch-Blvd-22025/home/9257921,BRIGHT MLS,VAPW464776,N,Y,38.618461,-77.357116
PAST SALE,June-10-2021,Single Family Residential,15009 Woodglen Ct,Dumfries,VA,22025,560000,5,2.5,MONTCLAIR,2420,12027,1984,178,231,42,Sold,,,https://www.redfin.com/VA/Montclair/15009-Woodglen-Ct-22025/home/9229635,BRIGHT MLS,VAPW520596,N,Y,38.6256958,-77.3542936
PAST SALE,May-11-2021,Single Family Residential,15334 Edgehill Dr,Dumfries,VA,22025,575000,4,2.5,COUNTRY CLUB/LAKE MONTCLAIR,3140,10036,1979,208,183,48,Sold,,,https://www.redfin.com/VA/Montclair/15334-Edgehill-Dr-22025/home/9087218,BRIGHT MLS,VAPW518054,N,Y,38.6183854,-77.3502764
PAST SALE,November-18-2019,Single Family Residential,15060 Holleyside Dr,Dumfries,VA,22025,390000,3,2.5,MONTCLAIR ST1,1937,5728,1985,748,201,57,Sold,,,https://www.redfin.com/VA/Montclair/15060-Holleyside-Dr-22025/home/9241902,BRIGHT MLS,VAPW479830,N,Y,38.6257748,-77.3551596
PAST SALE,June-18-2019,Single Family Residential,15234 Chula Pl,Woodbridge,VA,22193,515000,5,3.5,LAKE TERRAPIN,3420,10019,2004,901,151,75,Sold,,,https://www.redfin.com/VA/Woodbridge/15234-Chula-Pl-22193/home/9413208,BRIGHT MLS,VAPW467272,N,Y,38.6229455,-77.3613567
PAST SALE,July-7-2020,Townhouse,16160 Taconic Cir,Dumfries,VA,22025,299900,4,3.5,MONTCLAIR MEWS,2102,2261,1994,516,143,130,Sold,,,https://www.redfin.com/VA/Montclair/16160-Taconic-Cir-22025/home/9297917,BRIGHT MLS,VAPW495624,N,Y,38.599504,-77.334672
PAST SALE,November-20-2019,Single Family Residential,15883 Cliffbrook Ct,Dumfries,VA,22025,390000,4,3.5,COUNTRY CLUB LAKE,3600,11208,1981,746,108,48,Sold,,,https://www.redfin.com/VA/Montclair/15883-Cliffbrook-Ct-22025/home/9084719,BRIGHT MLS,VAPW470058,N,Y,38.6104956,-77.3373824
MLS Listing,,Single Family Residential,15348 Edgehill Dr,Dumfries,VA,22025,725000,5,3.5,COUNTRY CLUB LAKE,3691,9988,1986,5,196,60,Active,December-5-2021 01:00 PM,December-5-2021 03:00 PM,https://www.redfin.com/VA/Montclair/15348-Edgehill-Dr-22025/home/9087190,BRIGHT MLS,VAPW2012180,N,Y,38.616996,-77.3512185
MLS Listing,,Single Family Residential,15108 Cardinal Dr,Woodbridge,VA,22193,639000,4,2.5,CARDINAL DRIVE,2932,18121,1985,12,218,,Active,,,https://www.redfin.com/VA/Woodbridge/15108-Cardinal-Dr-22193/home/9255587,BRIGHT MLS,VAPW2012654,N,Y,38.6234451,-77.344175
MLS Listing,,Single Family Residential,15062 Lindenberry Ln,Dumfries,VA,22025,485000,3,2.5,MONTCLAIR,1969,8329,1986,17,246,60,Active,December-5-2021 01:00 PM,December-5-2021 03:00 PM,https://www.redfin.com/VA/Montclair/15062-Lindenberry-Ln-22025/home/9247558,BRIGHT MLS,VAPW2011528,N,Y,38.6238678,-77.3586306
MLS Listing,,Vacant Land,4097 Shady Knoll Ct,Dumfries,VA,22025,275000,,,COUNTRY CLUB LAKE,,8224,,46,,60,Active,,,https://www.redfin.com/VA/Montclair/4097-Shady-Knoll-Ct-22025/home/162672901,BRIGHT MLS,VAPW2010488,N,Y,38.601002,-77.333409
MLS Listing,,Single Family Residential,4204 Avon Dr,Dumfries,VA,22025,546500,5,3.5,COUNTRY CLUB LAKE,2766,8525,1988,79,198,58,Active,,,https://www.redfin.com/VA/Montclair/4204-Avon-Dr-22025/home/9084683,BRIGHT MLS,VAPW2006788,N,Y,38.6086892,-77.3361441
MLS Listing,,Single Family Residential,15697 Thistle Ct,Dumfries,VA,22025,599000,4,2.5,COUNTRY CLUB LAKE,2364,8472,1989,93,253,58,Active,,,https://www.redfin.com/VA/Montclair/15697-Thistle-Ct-22025/home/9085819,BRIGHT MLS,VAPW2007058,N,Y,38.6121706,-77.3394928
MLS Listing,,Vacant Land,17675 Batestown Rd,Dumfries,VA,22025,360000,,,Dumfries,,1079347,,129,,,Active,,,https://www.redfin.com/VA/Dumfries/17675-Batestown-Rd-22025/home/143777926,BRIGHT MLS,VAPW2004532,N,Y,38.572428,-77.341154
MLS Listing,,Townhouse,15344 Inlet Pl,Dumfries,VA,22025,350000,3,3.5,MONTCLAIR ST3,1655,1625,1986,170,211,116,Active,,,https://www.redfin.com/VA/Montclair/15344-Inlet-Pl-22025/home/9252516,BRIGHT MLS,VAPW2000440,N,Y,38.6201269,-77.353663
MLS Listing,,Single Family Residential,17320 Batestown Rd,Dumfries,VA,22025,399900,3,1.5,Dumfries,1575,7854,1955,279,254,,Active,,,https://www.redfin.com/VA/Dumfries/17320-Batestown-Rd-22025/home/9078247,BRIGHT MLS,VAPW515764,N,Y,38.5762137,-77.3454312
MLS Listing,,Vacant Land,17305 Mine Rd,Dumfries,VA,22025,400000,,,Dumfries,,574121,,489,,,Active,,,https://www.redfin.com/VA/Dumfries/17305-Batestown-Rd-22025/home/162730739,BRIGHT MLS,VAPW501306,N,Y,38.5773668,-77.344534
MLS Listing,,Vacant Land,16923 Old Stage Rd,Dumfries,VA,22025,407000,,,DUMFRIES,,40511,,1538,,,Active,,,https://www.redfin.com/VA/Montclair/16923-Old-Stage-Rd-22025/home/143844401,BRIGHT MLS,1000984105,N,Y,38.585166,-77.32896
New Construction Plan,,Single Family Residential,The Charlotte,Woodbridge,VA,22193,772900,4,4.5,Mia's Meadow,3103,,,,249,,Active,,,https://www.redfin.com/VA/Montclair/Mia-s-Meadow/The-Charlotte/home/174799085,NewHomeSource.com,Plan-181810216,N,Y,38.585054,-77.330333
New Construction Plan,,Single Family Residential,The Caroline,Woodbridge,VA,22193,863900,5,5.5,Mia's Meadow,4093,,,,211,,Active,,,https://www.redfin.com/VA/Montclair/Mia-s-Meadow/The-Caroline/home/174799086,NewHomeSource.com,Plan-181810214,N,Y,38.585054,-77.330333
New Construction Plan,,Single Family Residential,The Mason,Woodbridge,VA,22193,764900,4,3.5,Mia's Meadow,3360,,,,228,,Active,,,https://www.redfin.com/VA/Woodbridge/Mia-s-Meadow/The-Mason/home/173644010,NewHomeSource.com,Plan-171805196,N,Y,38.585054,-77.330333
New Construction Plan,,Single Family Residential,The Savannah,Woodbridge,VA,22193,759900,4,2.5,Mia's Meadow,2816,,,,270,,Active,,,https://www.redfin.com/VA/Woodbridge/Mia-s-Meadow/The-Savannah/home/173644011,NewHomeSource.com,Plan-171805195,N,Y,38.585054,-77.330333
PAST SALE,September-8-2021,Single Family Residential,4059 Great Harvest Ct,Dumfries,VA,22025,475000,2,2.0,FOUR SEASONS IN HISTORIC VIRGINIA,1719,7279,2006,88,276,230,Sold,,,https://www.redfin.com/VA/Montclair/4059-Great-Harvest-Ct-22025/home/12324604,BRIGHT MLS,VAPW2003404,N,Y,38.6029529,-77.3298176
PAST SALE,July-30-2021,Single Family Residential,4346 Mulcaster Ter,Dumfries,VA,22025,680000,5,4.5,BRITTANY,4570,10420,1993,128,149,33,Sold,,,https://www.redfin.com/VA/Dumfries/4346-Mulcaster-Ter-22025/home/9283834,BRIGHT MLS,VAPW524604,N,Y,38.593172,-77.3443994
PAST SALE,September-10-2020,Townhouse,4839 Keswick Ct,Dumfries,VA,22025,515000,3,3.0,MONTCLAIR,2559,5249,1986,451,201,90,Sold,,,https://www.redfin.com/VA/Montclair/4839-Keswick-Ct-22025/home/9249195,BRIGHT MLS,VAPW500926,N,Y,38.6153314,-77.3548074
PAST SALE,January-15-2020,Single Family Residential,15589 Bloomfield Dr,Woodbridge,VA,22193,435000,4,2.5,CARDINAL RIDGE,2368,10524,1996,690,184,42,Sold,,,https://www.redfin.com/VA/Woodbridge/15589-Bloomfield-Dr-22193/home/9322128,BRIGHT MLS,VAPW484200,N,Y,38.614514,-77.3340802
PAST SALE,October-30-2020,Single Family Residential,15609 Bloomfield Dr,Woodbridge,VA,22193,540000,4,3.0,CARDINAL RIDGE,3214,14283,1996,401,168,43,Sold,,,https://www.redfin.com/VA/Woodbridge/15609-Bloomfield-Dr-22193/home/9322125,BRIGHT MLS,VAPW505192,N,Y,38.6142543,-77.3341026
PAST SALE,April-8-2020,Townhouse,15746 Widewater Dr,Dumfries,VA,22025,340000,3,3.5,MONTCLAIR,1678,1599,1989,606,203,123,Sold,,,https://www.redfin.com/VA/Montclair/15746-Widewater-Dr-22025/home/9264003,BRIGHT MLS,VAPW490254,N,Y,38.612812,-77.354937
PAST SALE,September-4-2020,Townhouse,17470 Denali Pl,Dumfries,VA,22025,391000,3,3.5,FOREST PARK,2388,2975,2001,457,164,75,Sold,,,https://www.redfin.com/VA/Dumfries/17470-Denali-Pl-22025/home/9399179,BRIGHT MLS,VAPW500002,N,Y,38.5738797,-77.3358188
PAST SALE,April-6-2020,Single Family Residential,15776 Edgewood Dr,Dumfries,VA,22025,325000,3,2.5,COUNTRY CLUB LAKE,1680,8002,1978,608,193,59,Sold,,,https://www.redfin.com/VA/Montclair/15776-Edgewood-Dr-22025/home/9084652,BRIGHT MLS,VAPW483962,N,Y,38.6112506,-77.3326444
PAST SALE,September-11-2020,Single Family Residential,15774 Edgewood Dr,Dumfries,VA,22025,406000,4,3.0,COUNTRY CLUB/LAKE MONTCLAIR,2032,8002,1976,450,200,48,Sold,,,https://www.redfin.com/VA/Montclair/15774-Edgewood-Dr-22025/home/9084656,BRIGHT MLS,VAPW497034,N,Y,38.6113204,-77.3329136
PAST SALE,August-31-2020,Townhouse,15760 Widewater Dr,Dumfries,VA,22025,370000,3,3.0,MONTCLAIR,2149,2326,1989,461,172,120,Sold,,,https://www.redfin.com/VA/Montclair/15760-Widewater-Dr-22025/home/9375198,BRIGHT MLS,VAPW499798,N,Y,38.612405,-77.3553457
PAST SALE,July-9-2019,Townhouse,4228 Ashmere Cir,Dumfries,VA,22025,305000,4,3.5,MONTCLAIR MEWS,1993,2352,1995,880,153,130,Sold,,,https://www.redfin.com/VA/Montclair/4228-Ashmere-Cir-22025/home/9298187,BRIGHT MLS,VAPW469540,N,Y,38.599624,-77.332572
PAST SALE,July-24-2020,Single Family Residential,15259 Larkspur Ln,Dumfries,VA,22025,376000,3,2.5,MONTCLAIR,2023,7240,1983,499,186,59,Sold,,,https://www.redfin.com/VA/Montclair/15259-Larkspur-Ln-22025/home/9235017,BRIGHT MLS,VAPW497694,N,Y,38.6223186,-77.3449377
PAST SALE,June-28-2019,Townhouse,4202 Ashmere Cir,Dumfries,VA,22025,295000,3,2.5,MONTCLAIR MEWS,1742,1786,1997,891,169,130,Sold,,,https://www.redfin.com/VA/Montclair/4202-Ashmere-Cir-22025/home/9298313,BRIGHT MLS,VAPW466792,N,Y,38.599487,-77.331708
PAST SALE,August-10-2021,Single Family Residential,3731 Detrick Trl,Dumfries,VA,22025,455000,2,2.0,FOUR SEASONS IN HISTORIC VIRGINIA,1797,6917,2003,117,253,230,Sold,,,https://www.redfin.com/VA/Montclair/3731-Detrick-Trl-22025/home/9413735,BRIGHT MLS,VAPW2001660,N,Y,38.5917678,-77.3256895
PAST SALE,December-11-2020,Townhouse,4244 La Mauricie Loop,Dumfries,VA,22025,385000,4,3.5,FOREST PARK,2726,2797,2004,359,141,70,Sold,,,https://www.redfin.com/VA/Dumfries/4244-La-Mauricie-Loop-22025/home/9399031,BRIGHT MLS,VAPW507040,N,Y,38.574927,-77.3369966
PAST SALE,,Single Family Residential,16218 Sunny Knoll Dr,Montclair,VA,22025,464600,3,4.0,,3206,14880,1988,,145,,,,,https://www.redfin.com/VA/Montclair/16218-Sunny-Knoll-Dr-22025/home/9082665,,,N,Y,38.59986,-77.3321508
PAST SALE,April-24-2020,Single Family Residential,4033 Historic Virginia Ct,Dumfries,VA,22025,540000,5,4.0,FOUR SEASONS IN HISTORIC,5327,7902,2008,590,101,220,Sold,,,https://www.redfin.com/VA/Montclair/4033-Historic-Virginia-Ct-22025/home/21968760,BRIGHT MLS,VAPW486040,N,Y,38.5918285,-77.3319489
PAST SALE,August-5-2021,Townhouse,5045 Sanibel Ct,Dumfries,VA,22025,420000,3,3.5,SOUTHLAKE AT MONTCLAIR,2058,1599,1989,122,204,94,Sold,,,https://www.redfin.com/VA/Montclair/5045-Sanibel-Ct-22025/home/9306720,BRIGHT MLS,VAPW2002718,N,Y,38.615666,-77.36005
PAST SALE,October-27-2020,Single Family Residential,16628 Downy Flake Mews,Montclair,VA,22025,440000,3,2.0,FOUR SEASONS AT HISTORIC VA,2367,12384,2008,404,186,250,Sold,,,https://www.redfin.com/VA/Montclair/16628-Downy-Flake-Mews-22025/home/21968795,BRIGHT MLS,VAPW506376,N,Y,38.5929091,-77.3315002
PAST SALE,February-5-2021,Single Family Residential,4001 Historic Virginia Ct,Dumfries,VA,22025,535000,3,2.5,Dumfries,2881,22342,2008,303,186,230,Sold,,,https://www.redfin.com/VA/Montclair/4001-Historic-Virginia-Ct-22025/home/21968895,BRIGHT MLS,VAPW505552,N,Y,38.592178,-77.3312828
PAST SALE,July-30-2020,Townhouse,15787 Widewater Dr,Dumfries,VA,22025,350000,3,3.5,MONTCLAIR,1806,1599,1988,493,194,110,Sold,,,https://www.redfin.com/VA/Montclair/15787-Widewater-Dr-22025/home/9264094,BRIGHT MLS,VAPW498034,N,Y,38.6114559,-77.354659
PAST SALE,October-31-2019,Townhouse,4214 La Mauricie Loop,Dumfries,VA,22025,304000,3,3.5,FOREST PARK,2484,1760,2003,766,122,75,Sold,,,https://www.redfin.com/VA/Dumfries/4214-La-Mauricie-Loop-22025/home/9399012,BRIGHT MLS,VAPW478432,N,Y,38.5755491,-77.3373331
PAST SALE,June-2-2020,Single Family Residential,15888 Cliffbrook Ct,Dumfries,VA,22025,397000,4,2.5,COUNTRY CLUB LAKE,1936,8651,1977,551,205,50,Sold,,,https://www.redfin.com/VA/Montclair/15888-Cliffbrook-Ct-22025/home/9084749,BRIGHT MLS,VAPW492100,N,Y,38.6097773,-77.3374228
PAST SALE,August-12-2020,Townhouse,16344 Taconic Cir,Dumfries,VA,22025,255000,3,2.5,STOCKBRIDGE CONDO,1290,,1990,480,198,295,Sold,,,https://www.redfin.com/VA/Montclair/16344-Taconic-Cir-22025/home/9320855,BRIGHT MLS,VAPW496414,N,Y,38.598503,-77.335798
PAST SALE,May-18-2020,Townhouse,4899 Benecia Ln,Dumfries,VA,22025,335000,3,3.5,LAKECREST,2060,1516,1996,566,163,67,Sold,,,https://www.redfin.com/VA/Montclair/4899-Benecia-Ln-22025/home/9299558,BRIGHT MLS,VAPW490018,N,Y,38.609039,-77.354473
PAST SALE,December-5-2019,Townhouse,16308 Taconic Cir Unit 99B,Dumfries,VA,22025,237000,3,2.5,STOCKBRIDGE CONDO,1366,,1992,731,173,245,Sold,,,https://www.redfin.com/VA/Montclair/16308-Taconic-Cir-22025/unit-99B/home/9325199,BRIGHT MLS,VAPW481422,N,Y,38.599087,-77.336387
PAST SALE,August-10-2020,Single Family Residential,15531 Barrington Pl,Dumfries,VA,22025,531000,5,3.5,MONTCLAIR,3306,12262,1982,482,161,59,Sold,,,https://www.redfin.com/VA/Montclair/15531-Barrington-Pl-22025/home/9219462,BRIGHT MLS,VAPW498590,N,Y,38.6153953,-77.3380734
PAST SALE,November-24-2020,Single Family Residential,4867 Crestleigh Ct,Dumfries,VA,22025,499900,4,3.5,LAKECREST,3527,12545,1997,376,142,45,Sold,,,https://www.redfin.com/VA/Montclair/4867-Crestleigh-Ct-22025/home/9335067,BRIGHT MLS,VAPW505130,N,Y,38.6074744,-77.3548971
PAST SALE,July-22-2020,Townhouse,17461 Denali Pl,Dumfries,VA,22025,354000,4,3.5,FOREST PARK,2484,1760,2002,501,143,95,Sold,,,https://www.redfin.com/VA/Dumfries/17461-Denali-Pl-22025/home/9398964,BRIGHT MLS,VAPW497508,N,Y,38.5733973,-77.3360207
PAST SALE,October-28-2020,Townhouse,4259 Hudson River Ct,Dumfries,VA,22025,390000,3,3.0,FOREST PARK,2388,1978,2005,403,163,95,Sold,,,https://www.redfin.com/VA/Dumfries/4259-Hudson-River-Ct-22025/home/9601007,BRIGHT MLS,VAPW501462,N,Y,38.5739795,-77.3392174
PAST SALE,October-27-2020,Single Family Residential,4253 Moot Dr,Dumfries,VA,22025,545000,3,3.5,BRITTANY,3651,11535,1989,404,149,33,Sold,,,https://www.redfin.com/VA/Dumfries/4253-Moot-Dr-22025/home/9276959,BRIGHT MLS,VAPW503462,N,Y,38.5910354,-77.338522
PAST SALE,October-27-2020,Single Family Residential,17276 Four Seasons Dr,Dumfries,VA,22025,440000,3,2.0,FOUR SEASONS AT HISTORIC VA,2149,7427,2004,404,205,230,Sold,,,https://www.redfin.com/VA/Montclair/17276-Four-Seasons-Dr-22025/home/9418483,BRIGHT MLS,VAPW505726,N,Y,38.592504,-77.3239395
PAST SALE,January-15-2021,Single Family Residential,17188 Four Seasons Dr,Dumfries,VA,22025,455500,3,2.0,FOUR SEASONS AT HISTORIC VA,2391,9884,2005,324,191,230,Sold,,,https://www.redfin.com/VA/Montclair/17188-Four-Seasons-Dr-22025/home/9424525,BRIGHT MLS,VAPW511436,N,Y,38.5957565,-77.3223241
PAST SALE,May-17-2019,Single Family Residential,15699 Thistle Ct,Dumfries,VA,22025,494000,4,3.5,COUNTRY CLUB LAKE,3548,11752,1989,933,139,47,Sold,,,https://www.redfin.com/VA/Montclair/15699-Thistle-Ct-22025/home/9085823,BRIGHT MLS,VAPW432514,N,Y,38.6120185,-77.3392847
PAST SALE,September-25-2020,Single Family Residential,17207 Four Seasons Dr,Dumfries,VA,22025,500000,4,3.5,Dumfries,4216,11325,2007,436,119,230,Sold,,,https://www.redfin.com/VA/Montclair/17207-Four-Seasons-Dr-22025/home/21498986,BRIGHT MLS,VAPW492648,N,Y,38.594981,-77.3218754
PAST SALE,July-24-2020,Single Family Residential,17167 Four Seasons Dr,Dumfries,VA,22025,450000,2,2.0,Dumfries,2484,7876,2005,499,181,230,Sold,,,https://www.redfin.com/VA/Montclair/17167-Four-Seasons-Dr-22025/home/9424572,BRIGHT MLS,VAPW494410,N,Y,38.5963972,-77.3213594
PAST SALE,January-21-2021,Single Family Residential,17163 Four Seasons Dr,Dumfries,VA,22025,420000,2,2.0,FOUR SEASONS AT HISTORIC VA,1854,6560,2005,318,227,230,Sold,,,https://www.redfin.com/VA/Montclair/17163-Four-Seasons-Dr-22025/home/9424577,BRIGHT MLS,VAPW510630,N,Y,38.5965212,-77.3212023
PAST SALE,May-31-2019,Single Family Residential,3754 Blowing Leaf Pl,Dumfries,VA,22025,480000,3,3.0,FOUR SEASONS IN HISTORIC,4626,14227,2005,919,104,220,Sold,,,https://www.redfin.com/VA/Montclair/3754-Blowing-Leaf-Pl-22025/home/9606376,BRIGHT MLS,VAPW435100,N,Y,38.5987078,-77.3238498
PAST SALE,May-15-2019,Single Family Residential,3710 Apple Cider Ct,Dumfries,VA,22025,525000,4,3.5,FOUR SEASONS IN HISTORIC,5107,11234,2007,935,103,220,Sold,,,https://www.redfin.com/VA/Montclair/3710-Apple-Cider-Ct-22025/home/12324680,BRIGHT MLS,VAPW322806,N,Y,38.6015891,-77.3223466
PAST SALE,April-12-2019,Townhouse,15265 Streamside Ct,Montclair,VA,22025,279990,4,2.5,MONTCLAIR ST2,1937,2779,1985,968,145,108,Sold,,,https://www.redfin.com/VA/Montclair/15265-Streamside-Ct-22025/home/9248552,BRIGHT MLS,VAPW322652,N,Y,38.619069,-77.354362
PAST SALE,September-3-2020,Single Family Residential,5065 Spring Branch Blvd,Dumfries,VA,22025,480000,5,3.5,MONTCLAIR ST2,3567,14018,1986,458,135,56,Sold,,,https://www.redfin.com/VA/Montclair/5065-Spring-Branch-Blvd-22025/home/9233008,BRIGHT MLS,VAPW498596,N,Y,38.6237847,-77.3539102
PAST SALE,October-6-2020,Townhouse,15007 Bridgeport Dr,Dumfries,VA,22025,265000,3,2.0,MONTCLAIR STAGE2B,1531,2422,1985,425,173,110,Sold,,,https://www.redfin.com/VA/Montclair/15007-Bridgeport-Dr-22025/home/9231440,BRIGHT MLS,VAPW502874,N,Y,38.627977,-77.353977
PAST SALE,December-7-2018,Single Family Residential,15016 Afton Ct,Dumfries,VA,22025,340000,5,2.5,MONTCLAIR,2450,13159,1983,1094,139,53,Sold,,,https://www.redfin.com/VA/Montclair/15016-Afton-Ct-22025/home/9223914,BRIGHT MLS,1004251214,N,Y,38.6270756,-77.3526541
PAST SALE,September-4-2020,Single Family Residential,4628 Timber Ridge Dr,Dumfries,VA,22025,560000,5,3.5,MONTCLAIR,3528,26376,1983,457,159,48,Sold,,,https://www.redfin.com/VA/Montclair/4628-Timber-Ridge-Dr-22025/home/9222441,BRIGHT MLS,VAPW500714,N,Y,38.6210621,-77.3513307
PAST SALE,August-4-2020,Single Family Residential,15412 Beachview Dr,Dumfries,VA,22025,464900,5,3.5,COUNTRY CLUB LAKE,3304,8298,1980,488,141,48,Sold,,,https://www.redfin.com/VA/Montclair/15412-Beachview-Dr-22025/home/9087098,BRIGHT MLS,VAPW497148,N,Y,38.617658,-77.349852
PAST SALE,April-15-2020,Single Family Residential,4607 Timber Ridge Dr,Dumfries,VA,22025,550000,5,3.5,MONTCLAIR,4060,23570,1982,599,135,292,Sold,,,https://www.redfin.com/VA/Montclair/4607-Timber-Ridge-Dr-22025/home/9222526,BRIGHT MLS,VAPW488286,N,Y,38.621761,-77.349424
PAST SALE,June-18-2020,Single Family Residential,4743 Hickory Nut Pl,Dumfries,VA,22025,425000,4,2.5,MONTCLAIR,2116,10106,1982,535,201,48,Sold,,,https://www.redfin.com/VA/Montclair/4743-Hickory-Nut-Pl-22025/home/9222749,BRIGHT MLS,VAPW494836,N,Y,38.625449,-77.3503213
PAST SALE,May-24-2019,Single Family Residential,4554 Rincon Pl,Dumfries,VA,22025,385000,4,3.0,MONTCLAIR,3304,9710,1983,926,117,59,Sold,,,https://www.redfin.com/VA/Montclair/4554-Rincon-Pl-22025/home/9224110,BRIGHT MLS,VAPW464326,N,Y,38.6279075,-77.3491997
PAST SALE,April-25-2019,Single Family Residential,15198 Holleyside Dr,Dumfries,VA,22025,425000,5,3.5,MONTCLAIR,2796,9143,1983,955,152,57,Sold,,,https://www.redfin.com/VA/Montclair/15198-Holleyside-Dr-22025/home/9224143,BRIGHT MLS,VAPW434130,N,Y,38.6274108,-77.3483473
PAST SALE,May-15-2020,Single Family Residential,15308 Holly Hill Dr,Dumfries,VA,22025,430000,4,3.5,COUNTRY CLUB LAKE,2383,8398,1981,569,180,59,Sold,,,https://www.redfin.com/VA/Montclair/15308-Holly-Hill-Dr-22025/home/9086489,BRIGHT MLS,VAPW489690,N,Y,38.6189704,-77.3467771
PAST SALE,March-6-2019,Single Family Residential,15254 Larkspur Ln,Dumfries,VA,22025,345000,3,2.5,MONTCLAIR,1502,6068,1983,1005,230,57,Sold,,,https://www.redfin.com/VA/Montclair/15254-Larkspur-Ln-22025/home/9234995,BRIGHT MLS,VAPW322800,N,Y,38.6228152,-77.3457901
PAST SALE,April-22-2019,Single Family Residential,4992 Breeze Way,Dumfries,VA,22025,395000,3,3.5,SOUTHLAKE AT MONTCLAIR,2261,5049,2000,958,175,83,Sold,,,https://www.redfin.com/VA/Montclair/4992-Breeze-Way-22025/home/9344472,BRIGHT MLS,VAPW391102,N,Y,38.6146827,-77.3592036
PAST SALE,March-30-2020,Single Family Residential,4639 Holleyside Ct,Dumfries,VA,22025,491825,4,2.5,MONTCLAIR,2824,14401,1983,615,174,59,Sold,,,https://www.redfin.com/VA/Montclair/4639-Holleyside-Ct-22025/home/9234081,BRIGHT MLS,VAPW487844,N,Y,38.6236462,-77.3478538
PAST SALE,October-11-2019,Single Family Residential,15242 Larkspur Ln,Dumfries,VA,22025,346800,3,2.5,MONTCLAIR,1494,7305,1983,786,232,59,Sold,,,https://www.redfin.com/VA/Montclair/15242-Larkspur-Ln-22025/home/9234125,BRIGHT MLS,VAPW475386,N,Y,38.623174,-77.346194
PAST SALE,March-5-2021,Single Family Residential,4499 Southwood Pl,Dumfries,VA,22025,545000,4,2.5,COUNTRY CLUB LAKE,3064,8316,1981,275,178,56,Sold,,,https://www.redfin.com/VA/Montclair/4499-Southwood-Pl-22025/home/9086336,BRIGHT MLS,VAPW516234,N,Y,38.6176781,-77.3438161
PAST SALE,,Townhouse,4779 Benecia Ln,Montclair,VA,22025,298000,3,3.5,,2158,1516,2000,,138,,,,,https://www.redfin.com/VA/Montclair/4779-Benecia-Ln-22025/home/9332617,,,N,Y,38.6076904,-77.3568709
PAST SALE,September-30-2019,Single Family Residential,4295 Pemberley Ct,Woodbridge,VA,22193,535000,5,3.0,WITHERIDGE ESTATES,3110,17738,2003,797,172,42,Sold,,,https://www.redfin.com/VA/Woodbridge/4295-Pemberley-Ct-22193/home/9413825,BRIGHT MLS,VAPW474222,N,Y,38.6204931,-77.341528
PAST SALE,October-20-2020,Single Family Residential,15227 Larkspur Ln,Dumfries,VA,22025,370000,3,2.5,MONTCLAIR,1999,8677,1983,411,185,59,Sold,,,https://www.redfin.com/VA/Montclair/15227-Larkspur-Ln-22025/home/9234184,BRIGHT MLS,VAPW504450,N,Y,38.6236359,-77.3444442
PAST SALE,January-29-2020,Townhouse,15483 Cliffview Dr,Dumfries,VA,22025,298000,2,3.5,MONTCLAIR,1810,1442,1986,676,165,57,Sold,,,https://www.redfin.com/VA/Montclair/15483-Cliffview-Dr-22025/home/9262702,BRIGHT MLS,VAPW483734,N,Y,38.617994,-77.339488
PAST SALE,May-7-2020,Townhouse,4333 Jonathan Ct,Dumfries,VA,22025,310000,4,3.5,MONTCLAIR,1810,1420,1986,577,171,59,Sold,,,https://www.redfin.com/VA/Montclair/4333-Jonathan-Ct-22025/home/9262738,BRIGHT MLS,VAPW489906,N,Y,38.618436,-77.33872
PAST SALE,January-7-2019,Single Family Residential,4355 Edinborough Ct,Woodbridge,VA,22193,500000,4,3.5,WITHERIDGE ESTATES,4268,11670,2003,1063,117,43,Sold,,,https://www.redfin.com/VA/Woodbridge/4355-Edinborough-Ct-22193/home/9413862,BRIGHT MLS,1009958380,N,Y,38.6214071,-77.3410345
PAST SALE,December-17-2020,Single Family Residential,4282 Pemberley Ct,Woodbridge,VA,22193,581000,4,3.5,WITHERIDGE ESTATES,3873,13613,2003,353,150,57,Sold,,,https://www.redfin.com/VA/Woodbridge/4282-Pemberley-Ct-22193/home/9413864,BRIGHT MLS,VAPW508416,N,Y,38.6210342,-77.3409448
PAST SALE,December-28-2020,Single Family Residential,4271 Pemberley Ct,Woodbridge,VA,22193,599000,7,4.5,Woodbridge,3110,10542,2003,342,193,42,Sold,,,https://www.redfin.com/VA/Woodbridge/4271-Pemberley-Ct-22193/home/9413891,BRIGHT MLS,VAPW510550,N,Y,38.6207018,-77.3399353
PAST SALE,,Single Family Residential,15418 Silvan Glen Dr,Montclair,VA,22025,435000,4,2.5,,2965,8002,1980,,147,,,,,https://www.redfin.com/VA/Montclair/15418-Silvan-Glen-Dr-22025/home/9086164,,,N,Y,38.6178306,-77.3453907
PAST SALE,August-26-2019,Single Family Residential,15703 Cranberry Ct,Dumfries,VA,22025,420000,5,3.5,COUNTRY CLUB LAKE,3316,8242,1987,832,127,48,Sold,,,https://www.redfin.com/VA/Montclair/15703-Cranberry-Ct-22025/home/9084435,BRIGHT MLS,VAPW473876,N,Y,38.611649,-77.335067
PAST SALE,June-12-2019,Townhouse,15470 Windsong Ln,Dumfries,VA,22025,308500,3,2.5,MONTCLAIR,1896,1498,1990,907,163,59,Sold,,,https://www.redfin.com/VA/Montclair/15470-Windsong-Ln-22025/home/9263387,BRIGHT MLS,VAPW466572,N,Y,38.617435,-77.335958
PAST SALE,December-29-2020,Townhouse,4215 Kenton Cir,Dumfries,VA,22025,300000,3,2.5,MONTCLAIR,1718,1568,1991,341,175,46,Sold,,,https://www.redfin.com/VA/Montclair/4215-Kenton-Cir-22025/home/9263178,BRIGHT MLS,VAPW510476,N,Y,38.619102,-77.335818
PAST SALE,February-19-2019,Single Family Residential,17247 Four Seasons Dr,Dumfries,VA,22025,500000,4,3.5,FOUR SEASONS IN HISTORIC,4747,8891,2004,1020,105,220,Sold,,,https://www.redfin.com/VA/Montclair/17247-Four-Seasons-Dr-22025/home/9419846,BRIGHT MLS,VAPW128782,N,Y,38.5931968,-77.3223466
PAST SALE,December-15-2020,Single Family Residential,4386 Ashgrove Dr,Dumfries,VA,22025,449900,5,2.5,COUNTRY CLUB/LAKE MONTCLAIR,2544,10934,1997,355,177,59,Sold,,,https://www.redfin.com/VA/Montclair/4386-Ashgrove-Dr-22025/home/9084886,BRIGHT MLS,VAPW506188,N,Y,38.6066313,-77.3398231
PAST SALE,February-12-2021,Single Family Residential,17394 Four Seasons Dr,Dumfries,VA,22025,415000,3,2.0,FOUR SEASONS IN HISTORIC,1842,9056,2003,296,225,230,Sold,,,https://www.redfin.com/VA/Montclair/17394-Four-Seasons-Dr-22025/home/9424392,BRIGHT MLS,VAPW513020,N,Y,38.587018,-77.3250613
PAST SALE,July-31-2020,Single Family Residential,17268 Four Seasons Dr,Dumfries,VA,22025,410000,3,2.0,FOUR SEASONS AT HISTORIC VA,1878,7366,2004,492,218,230,Sold,,,https://www.redfin.com/VA/Montclair/17268-Four-Seasons-Dr-22025/home/9418512,BRIGHT MLS,VAPW498592,N,Y,38.5927166,-77.3236703
PAST SALE,November-2-2020,Single Family Residential,17152 Four Seasons Dr,Dumfries,VA,22025,405000,2,2.0,FOUR SEASONS IN HISTORIC,1831,8956,2005,398,221,230,Sold,,,https://www.redfin.com/VA/Montclair/17152-Four-Seasons-Dr-22025/home/9424535,BRIGHT MLS,VAPW502912,N,Y,38.5971343,-77.32201
PAST SALE,July-19-2019,Townhouse,16145 Alexander Pl,Dumfries,VA,22025,285000,3,3.5,MONTCLAIR,1730,1420,1981,870,165,59,Sold,,,https://www.redfin.com/VA/Montclair/16145-Alexander-Pl-22025/home/9219617,BRIGHT MLS,VAPW468420,N,Y,38.6022683,-77.3382977
PAST SALE,December-20-2019,Single Family Residential,3712 Chapman Mill Trl,Dumfries,VA,22025,452500,3,3.0,FOUR SEASONS IN HISTORIC,2890,9426,2004,716,157,220,Sold,,,https://www.redfin.com/VA/Montclair/3712-Chapman-Mill-Trl-22025/home/9418497,BRIGHT MLS,VAPW478236,N,Y,38.5916743,-77.3229972
PAST SALE,September-20-2019,Single Family Residential,3800 Dalebrook Dr,Dumfries,VA,22025,460000,5,3.5,COUNTRY CLUB LAKE,3234,9601,1979,807,142,48,Sold,,,https://www.redfin.com/VA/Montclair/3800-Dalebrook-Dr-22025/home/9084151,BRIGHT MLS,VAPW476744,N,Y,38.6091707,-77.3261831
PAST SALE,April-24-2020,Townhouse,16126 Henderson Ln,Dumfries,VA,22025,302000,3,3.0,MONTCLAIR,1922,1420,1981,590,157,114,Sold,,,https://www.redfin.com/VA/Montclair/16126-Henderson-Ln-22025/home/9219562,BRIGHT MLS,VAPW490520,N,Y,38.602751,-77.339145
PAST SALE,August-10-2020,Single Family Residential,3854 Champion Oak Dr,Dumfries,VA,22025,415000,2,2.0,FOUR SEASONS,1804,6865,2004,482,230,230,Sold,,,https://www.redfin.com/VA/Montclair/3854-Champion-Oak-Dr-22025/home/9424390,BRIGHT MLS,VAPW494852,N,Y,38.5895248,-77.3251062
PAST SALE,August-6-2020,Townhouse,17515 Denali Pl,Dumfries,VA,22025,370000,3,3.5,FOREST PARK,2338,1869,2002,486,158,75,Sold,,,https://www.redfin.com/VA/Dumfries/17515-Denali-Pl-22025/home/9399133,BRIGHT MLS,VAPW497608,N,Y,38.5746514,-77.3363235
PAST SALE,May-15-2019,Single Family Residential,3806 Dalebrook Dr,Dumfries,VA,22025,440000,4,3.5,COUNTRY CLUB LAKE,2329,8799,1976,935,189,56,Sold,,,https://www.redfin.com/VA/Montclair/3806-Dalebrook-Dr-22025/home/9084156,BRIGHT MLS,VAPW434622,N,Y,38.6092041,-77.3268562
PAST SALE,October-26-2020,Single Family Residential,16061 Dancing Leaf Pl,Dumfries,VA,22025,440000,3,3.0,FOUR SEASONS IN HISTORIC,2630,7488,2007,405,167,230,Sold,,,https://www.redfin.com/VA/Montclair/16061-Dancing-Leaf-Pl-22025/home/12324669,BRIGHT MLS,VAPW502396,N,Y,38.6021638,-77.3261158
PAST SALE,January-4-2019,Single Family Residential,4312 Marhalt Pl,Dumfries,VA,22025,445000,4,2.5,BRITTANY,2877,15128,1989,1066,155,34,Sold,,,https://www.redfin.com/VA/Dumfries/4312-Marhalt-Pl-22025/home/9282229,BRIGHT MLS,1005331190,N,Y,38.5936857,-77.3395091
PAST SALE,April-30-2021,Single Family Residential,16065 Dancing Leaf Pl,Dumfries,VA,22025,539900,4,3.0,FOUR SEASONS IN HISTORIC,3499,7261,2007,219,154,230,Sold,,,https://www.redfin.com/VA/Montclair/16065-Dancing-Leaf-Pl-22025/home/12324667,BRIGHT MLS,VAPW516376,N,Y,38.6020024,-77.3261158
PAST SALE,June-6-2019,Single Family Residential,16023 Dancing Leaf Pl,Dumfries,VA,22025,532000,3,3.5,FOUR SEASONS IN HISTORIC,4588,10001,2007,913,116,220,Sold,,,https://www.redfin.com/VA/Montclair/16023-Dancing-Leaf-Pl-22025/home/12324656,BRIGHT MLS,VAPW466012,N,Y,38.6034362,-77.3264972
PAST SALE,November-10-2020,Single Family Residential,16654 Purcival Ct,Dumfries,VA,22025,550000,4,3.5,BRITTANY,3430,9300,1989,390,160,33,Sold,,,https://www.redfin.com/VA/Dumfries/16654-Purcival-Ct-22025/home/9275505,BRIGHT MLS,VAPW504932,N,Y,38.5921228,-77.3392399
PAST SALE,September-30-2019,Single Family Residential,17416 Celebration Way,Dumfries,VA,22025,400000,2,2.0,FOUR SEASONS IN HISTORIC,1982,8350,2004,797,202,220,Sold,,,https://www.redfin.com/VA/Montclair/17416-Celebration-Way-22025/home/9424370,BRIGHT MLS,VAPW475480,N,Y,38.5880829,-77.3257568
PAST SALE,January-31-2020,Single Family Residential,16028 Dancing Leaf Pl,Dumfries,VA,22025,455000,3,2.0,FOUR SEASONS IN HISTORIC,2739,7405,2006,674,166,230,Sold,,,https://www.redfin.com/VA/Montclair/16028-Dancing-Leaf-Pl-22025/home/12324646,BRIGHT MLS,VAPW484480,N,Y,38.6031774,-77.3270805
PAST SALE,July-24-2020,Single Family Residential,16957 Four Seasons Dr,Dumfries,VA,22025,440000,2,2.0,FOUR SEASONS,2242,9147,2006,499,196,230,Sold,,,https://www.redfin.com/VA/Montclair/16957-Four-Seasons-Dr-22025/home/12324643,BRIGHT MLS,VAPW493688,N,Y,38.6001505,-77.3246799
PAST SALE,December-21-2020,Single Family Residential,4263 Exeter Dr,Dumfries,VA,22025,510000,4,3.0,BRITTANY,3663,10328,1988,349,139,33,Sold,,,https://www.redfin.com/VA/Dumfries/4263-Exeter-Dr-22025/home/9275518,BRIGHT MLS,VAPW510308,N,Y,38.5919081,-77.3402269
PAST SALE,December-10-2019,Single Family Residential,16941 Four Seasons Dr,Dumfries,VA,22025,375000,2,2.0,FOUR SEASONS IN HISTORIC,1783,6599,2006,726,210,220,Sold,,,https://www.redfin.com/VA/Montclair/16941-Four-Seasons-Dr-22025/home/9606322,BRIGHT MLS,VAPW481016,N,Y,38.599501,-77.325196
PAST SALE,April-26-2019,Single Family Residential,17319 Four Seasons Dr,Dumfries,VA,22025,509000,3,4.0,FOUR SEASONS IN HISTORIC,4519,7906,2003,954,113,220,Sold,,,https://www.redfin.com/VA/Montclair/17319-Four-Seasons-Dr-22025/home/9413786,BRIGHT MLS,VAPW432392,N,Y,38.5902561,-77.3242312
PAST SALE,June-15-2020,Single Family Residential,16662 Malory Ct,Dumfries,VA,22025,535000,4,2.5,BRITTANY,2656,8599,1993,538,201,42,Sold,,,https://www.redfin.com/VA/Dumfries/16662-Malory-Ct-22025/home/9310117,BRIGHT MLS,VAPW491020,N,Y,38.59044,-77.3437713
PAST SALE,January-11-2021,Single Family Residential,17422 Celebration Way,Dumfries,VA,22025,439900,3,2.0,FOUR SEASONS AT HISTORIC VA,2583,8194,2004,328,170,230,Sold,,,https://www.redfin.com/VA/Montclair/17422-Celebration-Way-22025/home/9424365,BRIGHT MLS,VAPW508790,N,Y,38.5879136,-77.325869
PAST SALE,May-29-2020,Single Family Residential,16731 Tintagel Ct,Dumfries,VA,22025,530000,4,3.5,BRITTANY,3465,9418,1989,555,153,33,Sold,,,https://www.redfin.com/VA/Dumfries/16731-Tintagel-Ct-22025/home/9277103,BRIGHT MLS,VAPW491124,N,Y,38.5891767,-77.3410794
PAST SALE,April-13-2020,Single Family Residential,16756 Anglia Loop,Dumfries,VA,22025,505000,4,4.5,BRITTANY,3831,13386,1992,601,132,48,Sold,,,https://www.redfin.com/VA/Dumfries/16756-Anglia-Loop-22025/home/9285251,BRIGHT MLS,VAPW485944,N,Y,38.5891655,-77.343188
PAST SALE,March-1-2021,Townhouse,4799 Benecia Ln,Dumfries,VA,22025,350000,3,3.5,LAKECREST,1784,1516,2000,279,196,72,Sold,,,https://www.redfin.com/VA/Montclair/4799-Benecia-Ln-22025/home/9333377,BRIGHT MLS,VAPW513708,N,Y,38.608163,-77.357109
PAST SALE,April-23-2021,Townhouse,5009 Buena Vista Dr,Dumfries,VA,22025,375000,4,3.5,SOUTHLAKE AT MONTCLAIR,1892,1599,1992,226,198,94,Sold,,,https://www.redfin.com/VA/Montclair/5009-Buena-Vista-Dr-22025/home/9306758,BRIGHT MLS,VAPW513578,N,Y,38.6164865,-77.3598471
PAST SALE,October-9-2020,Single Family Residential,3725 Detrick Trl,Dumfries,VA,22025,412000,2,2.0,FOUR SEASONS IN HISTORIC,2063,7767,2003,422,200,230,Sold,,,https://www.redfin.com/VA/Montclair/3725-Detrick-Trl-22025/home/9403743,BRIGHT MLS,VAPW500802,N,Y,38.5918347,-77.3261158
PAST SALE,June-28-2019,Townhouse,5013 Buena Vista Dr,Dumfries,VA,22025,300500,3,2.5,SOUTHLAKE AT MONTCLAIR,1965,1599,1993,891,153,92,Sold,,,https://www.redfin.com/VA/Montclair/5013-Buena-Vista-Dr-22025/home/9306752,BRIGHT MLS,VAPW463046,N,Y,38.6164322,-77.3598716
PAST SALE,August-31-2020,Single Family Residential,15804 Corwin Pl,Dumfries,VA,22025,570000,4,3.5,LAKE MONTCLAIR,3562,17620,2001,461,160,50,Sold,,,https://www.redfin.com/VA/Montclair/15804-Corwin-Pl-22025/home/9082128,BRIGHT MLS,VAPW498664,N,Y,38.6096224,-77.3516671
PAST SALE,September-25-2020,Townhouse,5014 Barnacle Pl,Dumfries,VA,22025,350000,3,3.5,SOUTHLAKE AT MONTCLAIR,1960,1420,2001,436,179,121,Sold,,,https://www.redfin.com/VA/Montclair/5014-Barnacle-Pl-22025/home/9297246,BRIGHT MLS,VAPW498398,N,Y,38.612136,-77.357657
PAST SALE,July-10-2020,Townhouse,15727 London Pl,Dumfries,VA,22025,355000,4,3.5,SOUTH LAKE AT MONTCLAIR,2360,1498,2000,513,150,121,Sold,,,https://www.redfin.com/VA/Montclair/15727-London-Pl-22025/home/9297448,BRIGHT MLS,VAPW496668,N,Y,38.611999,-77.3569009
PAST SALE,June-18-2020,Townhouse,15735 Lansdale Pl,Dumfries,VA,22025,310000,3,2.5,SOUTHLAKE AT MONTCLAIR,1762,4125,2000,535,176,117,Sold,,,https://www.redfin.com/VA/Montclair/15735-Lansdale-Pl-22025/home/9372022,BRIGHT MLS,VAPW490892,N,Y,38.6118469,-77.3560522
PAST SALE,August-16-2019,Townhouse,4893 Saltwater Dr,Dumfries,VA,22025,280000,3,2.5,MONTCLAIR,1484,2017,1989,842,189,120,Sold,,,https://www.redfin.com/VA/Montclair/4893-Saltwater-Dr-22025/home/9372050,BRIGHT MLS,VAPW471810,N,Y,38.6096956,-77.3557252
PAST SALE,December-10-2019,Townhouse,15729 Lansdale Pl,Dumfries,VA,22025,321000,3,3.5,SOUTHLAKE AT MONTCLAIR,1716,1498,1994,726,187,82,Sold,,,https://www.redfin.com/VA/Montclair/15729-Lansdale-Pl-22025/home/9297689,BRIGHT MLS,VAPW482792,N,Y,38.612121,-77.356084
PAST SALE,July-17-2020,Single Family Residential,15585 Skiff Ct,Dumfries,VA,22025,500000,4,3.5,SOUTHLAKE AT MONTCLAIR,3251,5963,2000,506,154,73,Sold,,,https://www.redfin.com/VA/Montclair/15585-Skiff-Ct-22025/home/9350957,BRIGHT MLS,VAPW494350,N,Y,38.615099786,-77.35776864
PAST SALE,October-30-2019,Townhouse,17509 Cajun Ct,Dumfries,VA,22025,343000,3,3.0,FOREST PARK,2299,2126,2005,767,149,70,Sold,,,https://www.redfin.com/VA/Dumfries/17509-Cajun-Ct-22025/home/9601150,BRIGHT MLS,VAPW478078,N,Y,38.5741246,-77.3370414
PAST SALE,September-11-2020,Townhouse,4855 Ebb Tide Ct,Dumfries,VA,22025,349900,3,3.5,SOUTHLAKE AT MONTCLAIR,1998,1599,1993,450,175,25,Sold,,,https://www.redfin.com/VA/Montclair/4855-Ebb-Tide-Ct-22025/home/9278204,BRIGHT MLS,VAPW495836,N,Y,38.6178456,-77.3598842
PAST SALE,December-28-2020,Single Family Residential,15047 Camellia Ln,Dumfries,VA,22025,445000,3,2.5,MONTCLAIR,1964,6821,1986,342,227,59,Sold,,,https://www.redfin.com/VA/Montclair/15047-Camellia-Ln-22025/home/9372835,BRIGHT MLS,VAPW506002,N,Y,38.623726,-77.360011
PAST SALE,November-30-2020,Townhouse,15331 Waters Edge Ct,Dumfries,VA,22025,330000,3,3.5,MONTCLAIR,1910,2326,1987,370,173,115,Sold,,,https://www.redfin.com/VA/Montclair/15331-Waters-Edge-Ct-22025/home/9257949,BRIGHT MLS,VAPW506944,N,Y,38.61998,-77.358011
PAST SALE,June-1-2020,Townhouse,15326 Waters Edge Ct,Dumfries,VA,22025,303000,3,2.5,MONTCLAIR ST4,1643,1869,1988,552,184,115,Sold,,,https://www.redfin.com/VA/Montclair/15326-Waters-Edge-Ct-22025/home/9257959,BRIGHT MLS,VAPW492050,N,Y,38.6200793,-77.357555
PAST SALE,March-17-2020,Townhouse,5159 Spring Branch Blvd,Dumfries,VA,22025,325000,3,3.5,MONTCLAIR ST4,1915,2326,1987,628,170,108,Sold,,,https://www.redfin.com/VA/Montclair/5159-Spring-Branch-Blvd-22025/home/9257813,BRIGHT MLS,VAPW487088,N,Y,38.6193778,-77.3561226
PAST SALE,July-24-2020,Townhouse,5229 Spring Branch Blvd,Dumfries,VA,22025,332100,3,2.5,MONTCLAIR ST4,1795,1498,1987,499,185,104,Sold,,,https://www.redfin.com/VA/Montclair/5229-Spring-Branch-Blvd-22025/home/9257866,BRIGHT MLS,VAPW497058,N,Y,38.6186099,-77.356014
PAST SALE,February-9-2021,Townhouse,5225 Spring Branch Blvd,Dumfries,VA,22025,343000,3,3.5,MONTCLAIR,1781,1498,1987,299,193,115,Sold,,,https://www.redfin.com/VA/Montclair/5225-Spring-Branch-Blvd-22025/home/9257857,BRIGHT MLS,VAPW512152,N,Y,38.618659,-77.35589
PAST SALE,July-13-2020,Townhouse,5209 Spring Branch Blvd,Dumfries,VA,22025,293000,3,3.5,MONTCLAIR WATERS EDGE,1781,1498,1987,510,165,103,Sold,,,https://www.redfin.com/VA/Montclair/5209-Spring-Branch-Blvd-22025/home/9257833,BRIGHT MLS,VAPW494076,N,Y,38.619006,-77.355898
PAST SALE,November-24-2020,Townhouse,15307 Waters Edge Ct,Dumfries,VA,22025,333000,3,3.5,MONTCLAIR ST4,1980,1498,1987,376,168,116,Sold,,,https://www.redfin.com/VA/Montclair/15307-Waters-Edge-Ct-22025/home/9257935,BRIGHT MLS,VAPW502600,N,Y,38.6204517,-77.3573644
PAST SALE,October-13-2020,Single Family Residential,15084 Holleyside Dr,Dumfries,VA,22025,390000,3,3.5,MONTCLAIR ST1,2112,5846,1985,418,185,57,Sold,,,https://www.redfin.com/VA/Montclair/15084-Holleyside-Dr-22025/home/9372929,BRIGHT MLS,VAPW503156,N,Y,38.6275942,-77.3562877
PAST SALE,October-13-2020,Single Family Residential,15076 Holleyside Dr,Dumfries,VA,22025,379000,3,2.5,MONTCLAIR,1856,5593,1985,418,204,57,Sold,,,https://www.redfin.com/VA/Montclair/15076-Holleyside-Dr-22025/home/9229543,BRIGHT MLS,VAPW503944,N,Y,38.6269843,-77.3562429
PAST SALE,December-30-2019,Townhouse,17440 Isle Royale Ter,Dumfries,VA,22025,340000,3,3.5,FOREST PARK,2220,1398,1994,706,153,71,Sold,,,https://www.redfin.com/VA/Dumfries/17440-Isle-Royale-Ter-22025/home/9333230,BRIGHT MLS,VAPW100203,N,Y,38.574488,-77.334339
PAST SALE,December-7-2018,Single Family Residential,16860 Four Seasons Dr,Dumfries,VA,22025,435000,3,2.5,FOUR SEASONS IN HISTORIC,2469,10415,2006,1094,176,220,Sold,,,https://www.redfin.com/VA/Montclair/16860-Four-Seasons-Dr-22025/home/9606212,BRIGHT MLS,1001530018,N,Y,38.5975309,-77.3272825
PAST SALE,October-3-2019,Townhouse,3991 Mammoth Cave Loop,Dumfries,VA,22025,334950,3,3.5,FOREST PARK,2056,2448,1995,794,163,72,Sold,,,https://www.redfin.com/VA/Dumfries/3991-Mammoth-Cave-Loop-22025/home/9298730,BRIGHT MLS,VAPW474298,N,Y,38.5767499,-77.3317919
PAST SALE,June-21-2019,Townhouse,4894 Saltwater Dr,Dumfries,VA,22025,262000,3,2.5,MONTCLAIR,1442,1498,1989,898,182,105,Sold,,,https://www.redfin.com/VA/Montclair/4894-Saltwater-Dr-22025/home/9372039,BRIGHT MLS,VAPW469034,N,Y,38.610075,-77.3558369
PAST SALE,October-21-2021,Single Family Residential,4323 Fallstone Pl,Dumfries,VA,22025,635000,4,3.5,COUNTRY CLUB LAKE,3304,12824,1981,45,192,54,Sold,,,https://www.redfin.com/VA/Montclair/4323-Fallstone-Pl-22025/home/9085717,BRIGHT MLS,VAPW2008810,N,Y,38.6111259,-77.3410794
PAST SALE,May-24-2019,Townhouse,4069 Jasper Loop,Dumfries,VA,22025,330000,4,3.5,FOREST PARK,2236,1398,1994,926,148,95,Sold,,,https://www.redfin.com/VA/Dumfries/4069-Jasper-Loop-22025/home/9299415,BRIGHT MLS,VAPW432506,N,Y,38.5752269,-77.333194
PAST SALE,October-16-2019,Single Family Residential,16213 Sheffield Dr,Dumfries,VA,22025,370000,4,2.0,COUNTRY CLUB LAKE,2204,9487,1971,781,168,59,Sold,,,https://www.redfin.com/VA/Montclair/16213-Sheffield-Dr-22025/home/9082557,BRIGHT MLS,VAPW473084,N,Y,38.6001738,-77.3335417
PAST SALE,June-4-2019,Single Family Residential,16209 Sunny Knoll Dr,Dumfries,VA,22025,405000,4,2.5,COUNTRY CLUB LAKE,2441,8002,1974,915,166,57,Sold,,,https://www.redfin.com/VA/Montclair/16209-Sunny-Knoll-Dr-22025/home/9082688,BRIGHT MLS,VAPW435010,N,Y,38.6013685,-77.3319265
PAST SALE,October-31-2019,Single Family Residential,15904 Fairway Dr,Dumfries,VA,22025,412000,4,3.0,COUNTRY CLUB LAKE,2184,9413,1977,766,189,100,Sold,,,https://www.redfin.com/VA/Montclair/15904-Fairway-Dr-22025/home/9085552,BRIGHT MLS,VAPW472784,N,Y,38.6072612,-77.338208
PAST SALE,August-29-2019,Single Family Residential,16718 Tintagel Ct,Dumfries,VA,22025,499000,4,3.5,BRITTANY,4628,8551,1989,829,108,33,Sold,,,https://www.redfin.com/VA/Dumfries/16718-Tintagel-Ct-22025/home/9277132,BRIGHT MLS,VAPW462904,N,Y,38.5898941,-77.3415505
PAST SALE,July-24-2020,Single Family Residential,15528 Yorktown Dr,Dumfries,VA,22025,480000,5,2.5,COUNTRY CLUB LAKE,2420,9100,1979,499,198,105,Sold,,,https://www.redfin.com/VA/Montclair/15528-Yorktown-Dr-22025/home/9086728,BRIGHT MLS,VAPW496796,N,Y,38.6151815,-77.3475398
PAST SALE,June-13-2019,Townhouse,15697 Viewpoint Cir,Dumfries,VA,22025,305000,4,3.5,SOUTHLAKE AT MONTCLAIR,1735,1259,1997,906,176,119,Sold,,,https://www.redfin.com/VA/Montclair/15697-Viewpoint-Cir-22025/home/9327725,BRIGHT MLS,VAPW466610,N,Y,38.613773,-77.357701
PAST SALE,June-1-2020,Townhouse,16134 Taconic Cir,Dumfries,VA,22025,318500,3,2.5,MONTCLAIR MEWS,1856,2008,1994,552,172,125,Sold,,,https://www.redfin.com/VA/Montclair/16134-Taconic-Cir-22025/home/9297995,BRIGHT MLS,VAPW491230,N,Y,38.5999709,-77.334341
PAST SALE,,Single Family Residential,16081 Deer Park Dr,Montclair,VA,22025,585000,5,4.0,,3954,19646,1981,,148,,,,,https://www.redfin.com/VA/Montclair/16081-Deer-Park-Dr-22025/home/9427108,,,N,Y,38.6047418,-77.3303112
PAST SALE,February-25-2020,Townhouse,4228 Kenton Cir,Dumfries,VA,22025,299000,3,3.5,MONTCLAIR,1872,1599,1991,649,160,105,Sold,,,https://www.redfin.com/VA/Montclair/4228-Kenton-Cir-22025/home/9376634,BRIGHT MLS,VAPW480286,N,Y,38.619332,-77.33624
PAST SALE,,Townhouse,16036 Atwater Ln,Montclair,VA,22025,210000,3,3.0,,1680,1516,1995,,125,,,,,https://www.redfin.com/VA/Montclair/16036-Atwater-Ln-22025/home/9332103,,,N,Y,38.60724,-77.356413
PAST SALE,October-27-2021,Single Family Residential,15233 Holleyside Dr,Dumfries,VA,22025,630000,5,3.5,MONTCLAIR,3598,8146,1982,39,175,60,Sold,,,https://www.redfin.com/VA/Montclair/15233-Holleyside-Dr-22025/home/9222824,BRIGHT MLS,VAPW2008274,N,Y,38.6250379,-77.3495138
PAST SALE,December-2-2019,Single Family Residential,16129 Hunley Mill Pl,Dumfries,VA,22025,392500,2,2.0,FOUR SEASONS IN HISTORIC,2207,7501,2005,734,178,220,Sold,,,https://www.redfin.com/VA/Montclair/16129-Hunley-Mill-Pl-22025/home/9602143,BRIGHT MLS,VAPW479066,N,Y,38.6001415,-77.3196318
PAST SALE,April-5-2019,Single Family Residential,3741 Grey Ghost Ct,Dumfries,VA,22025,355000,2,2.0,FOUR SEASONS IN HISTORIC,1567,5998,2005,975,227,220,Sold,,,https://www.redfin.com/VA/Montclair/3741-Grey-Ghost-Ct-22025/home/9602144,BRIGHT MLS,VAPW434732,N,Y,38.599123,-77.319542
PAST SALE,August-14-2019,Single Family Residential,3729 Grey Ghost Ct,Dumfries,VA,22025,440000,3,3.0,FOUR SEASONS IN HISTORIC,3320,5998,2005,844,133,220,Sold,,,https://www.redfin.com/VA/Montclair/3729-Grey-Ghost-Ct-22025/home/9602167,BRIGHT MLS,VAPW471732,N,Y,38.5994014,-77.3191381
PAST SALE,April-23-2020,Single Family Residential,3642 Secret Grove Ct,Dumfries,VA,22025,400000,3,2.0,FOUR SEASONS IN HISTORIC,2107,5998,2005,591,190,230,Sold,,,https://www.redfin.com/VA/Montclair/3642-Secret-Grove-Ct-22025/home/9602183,BRIGHT MLS,VAPW488602,N,Y,38.5989478,-77.3190484
PAST SALE,August-29-2019,Single Family Residential,3651 Secret Grove Ct,Dumfries,VA,22025,435000,3,2.0,FOUR SEASONS IN HISTORIC,2391,6599,2005,829,182,220,Sold,,,https://www.redfin.com/VA/Montclair/3651-Secret-Grove-Ct-22025/home/9602192,BRIGHT MLS,VAPW473634,N,Y,38.5983731,-77.3189586
PAST SALE,April-29-2019,Single Family Residential,3721 Grey Ghost Ct,Dumfries,VA,22025,440000,2,2.0,FOUR SEASONS IN HISTORIC,2167,8115,2005,951,203,220,Sold,,,https://www.redfin.com/VA/Montclair/3721-Grey-Ghost-Ct-22025/home/9602204,BRIGHT MLS,VAPW462818,N,Y,38.5996592,-77.3189138
PAST SALE,April-19-2019,Townhouse,15873 Pebblewood St,Dumfries,VA,22025,311000,3,2.5,LAKECREST,1586,1516,1998,961,196,67,Sold,,,https://www.redfin.com/VA/Montclair/15873-Pebblewood-St-22025/home/9332268,BRIGHT MLS,VAPW435844,N,Y,38.608497,-77.35566
PAST SALE,August-16-2019,Townhouse,5265 Spring Branch Blvd,Dumfries,VA,22025,295000,3,3.5,MONTCLAIR ST4,2060,1498,1988,842,143,115,Sold,,,https://www.redfin.com/VA/Montclair/5265-Spring-Branch-Blvd-22025/home/9372871,BRIGHT MLS,VAPW474590,N,Y,38.6176699,-77.3577959
PAST SALE,,Single Family Residential,15253 Larkspur Ln,Montclair,VA,22025,360000,3,3.0,,2087,6238,1983,,172,,,,,https://www.redfin.com/VA/Montclair/15253-Larkspur-Ln-22025/home/9376050,,,N,Y,38.6224957,-77.3447134
PAST SALE,July-30-2021,Townhouse,15646 Montview Dr,Dumfries,VA,22025,421500,3,2.5,MONTCLAIR,1822,2056,1988,128,231,130,Sold,,,https://www.redfin.com/VA/Montclair/15646-Montview-Dr-22025/home/9264154,BRIGHT MLS,VAPW525742,N,Y,38.6101979,-77.353315
PAST SALE,,Single Family Residential,15572 Atterbury Ct,Dumfries,VA,22025,575000,4,3.5,,3532,8250,1997,,163,,,,,https://www.redfin.com/VA/Dumfries/15572-Atterbury-Ct-22025/home/9307871,,,N,Y,38.5940149,-77.3425151
PAST SALE,July-31-2019,Single Family Residential,16639 Caxton Pl,Dumfries,VA,22025,520000,5,3.5,BRITTANY,3786,8921,1996,858,137,33,Sold,,,https://www.redfin.com/VA/Dumfries/16639-Caxton-Pl-22025/home/9282200,BRIGHT MLS,VAPW471264,N,Y,38.5931843,-77.3419318
PAST SALE,March-10-2020,Townhouse,4305 Stone Mountain Ct,Dumfries,VA,22025,380000,3,3.5,FOREST PARK,2404,1978,2006,635,158,95,Sold,,,https://www.redfin.com/VA/Dumfries/4305-Stone-Mountain-Ct-22025/home/12325208,BRIGHT MLS,VAPW486870,N,Y,38.5703928,-77.3398231
PAST SALE,February-27-2020,Single Family Residential,15833 Ibsen Pl,Dumfries,VA,22025,486000,5,3.5,MARBURY,4122,8011,2001,647,118,57,Sold,,,https://www.redfin.com/VA/Montclair/15833-Ibsen-Pl-22025/home/9371863,BRIGHT MLS,VAPW481014,N,Y,38.6090783,-77.3614465
PAST SALE,April-11-2019,Single Family Residential,15690 Thistle Ct,Dumfries,VA,22025,429000,5,3.5,COUNTRY CLUB LAKE,3304,9431,1978,969,130,57,Sold,,,https://www.redfin.com/VA/Montclair/15690-Thistle-Ct-22025/home/9085777,BRIGHT MLS,VAPW433566,N,Y,38.6124542,-77.3403167
PAST SALE,May-8-2020,Single Family Residential,16011 Edgewood Dr,Dumfries,VA,22025,519500,5,3.5,COUNTRY CLUB LAKE,2864,10716,1981,576,181,57,Sold,,,https://www.redfin.com/VA/Montclair/16011-Edgewood-Dr-22025/home/9082889,BRIGHT MLS,VAPW492244,N,Y,38.6044072,-77.3318592
PAST SALE,February-13-2020,Single Family Residential,15058 Holleyside Dr,Dumfries,VA,22025,410000,4,3.5,MONTCLAIR ST1,2828,5946,1985,661,145,59,Sold,,,https://www.redfin.com/VA/Montclair/15058-Holleyside-Dr-22025/home/9375577,BRIGHT MLS,VAPW483630,N,Y,38.6255991,-77.3550982
PAST SALE,June-12-2021,Single Family Residential,15784 Edgewood Dr,Dumfries,VA,22025,485000,3,2.5,COUNTRY CLUB LAKE,1955,8059,1993,176,248,59,Sold,,,https://www.redfin.com/VA/Montclair/15784-Edgewood-Dr-22025/home/9084643,BRIGHT MLS,VAPW525450,N,Y,38.6110361,-77.3317919
PAST SALE,September-16-2021,Single Family Residential,4655 Timber Ridge Dr,Dumfries,VA,22025,630000,5,3.0,MONTCLAIR,3382,20726,1982,80,186,60,Sold,,,https://www.redfin.com/VA/Montclair/4655-Timber-Ridge-Dr-22025/home/9222486,BRIGHT MLS,VAPW2002038,N,Y,38.6199261,-77.3501342
PAST SALE,September-24-2021,Single Family Residential,4402 Ashgrove Dr,Dumfries,VA,22025,525000,4,2.5,COUNTRY CLUB LAKE,2933,8612,1977,72,179,59,Sold,,,https://www.redfin.com/VA/Montclair/4402-Ashgrove-Dr-22025/home/9085154,BRIGHT MLS,VAPW2006784,N,Y,38.605808,-77.342001
PAST SALE,January-4-2019,Single Family Residential,17296 Four Seasons Dr,Dumfries,VA,22025,405000,3,2.5,FOUR SEASONS IN HISTORIC,2501,8873,2003,1066,162,220,Sold,,,https://www.redfin.com/VA/Montclair/17296-Four-Seasons-Dr-22025/home/9413778,BRIGHT MLS,VAPW101150,N,Y,38.5917285,-77.3244107
PAST SALE,May-17-2021,Townhouse,14489 Whisperwood Ct,Dumfries,VA,22025,365000,3,3.0,MONCLAIR,1832,2143,1988,202,199,59,Sold,,,https://www.redfin.com/VA/Montclair/14489-Whisperwood-Ct-22025/home/9263083,BRIGHT MLS,VAPW517614,N,Y,38.620492,-77.334315
PAST SALE,March-9-2021,Single Family Residential,16080 Deer Park Dr,Dumfries,VA,22025,450000,4,3.0,COUNTRY CLUB LAKE,2660,8398,1980,271,169,49,Sold,,,https://www.redfin.com/VA/Montclair/16080-Deer-Park-Dr-22025/home/9082867,BRIGHT MLS,VAPW513342,N,Y,38.6058203,-77.3305804
PAST SALE,August-29-2019,Single Family Residential,4296 Candlestick Ct,Dumfries,VA,22025,385000,5,3.0,COUNTRY CLUB LAKE,2408,10515,1986,829,160,46,Sold,,,https://www.redfin.com/VA/Montclair/4296-Candlestick-Ct-22025/home/9375385,BRIGHT MLS,VAPW468708,N,Y,38.6059713,-77.337849
PAST SALE,November-30-2021,Single Family Residential,4908 Tallowwood Dr,Dumfries,VA,22025,436000,4,3.0,MONTCLAIR,2889,7488,1985,5,151,55,Sold,,,https://www.redfin.com/VA/Montclair/4908-Tallowwood-Dr-22025/home/9247392,BRIGHT MLS,VAPW2008082,N,Y,38.6249098,-77.3553457
PAST SALE,November-22-2021,Townhouse,4911 Backwater Ct,Dumfries,VA,22025,332700,3,2.5,MONTCLAIR,1452,1481,1989,13,229,136,Sold,,,https://www.redfin.com/VA/Montclair/4911-Backwater-Ct-22025/home/9372003,BRIGHT MLS,VAPW2009552,N,Y,38.61051,-77.356543
PAST SALE,June-12-2020,Townhouse,16151 Alexander Pl,Dumfries,VA,22025,320000,3,3.0,MONTCLAIR,2006,2200,1981,541,160,112,Sold,,,https://www.redfin.com/VA/Montclair/16151-Alexander-Pl-22025/home/9219629,BRIGHT MLS,VAPW493490,N,Y,38.602084,-77.338278
PAST SALE,November-8-2021,Single Family Residential,16100 Edgewood Dr,Dumfries,VA,22025,475000,4,2.5,COUNTRY CLUB LAKE,2822,10372,1987,27,168,60,Sold,,,https://www.redfin.com/VA/Montclair/16100-Edgewood-Dr-22025/home/9083030,BRIGHT MLS,VAPW2000301,N,Y,38.6035118,-77.3319713
PAST SALE,February-28-2019,Townhouse,4994 Marshlake Ln,Dumfries,VA,22025,265000,2,3.5,SOUTHLAKE AT MONTCLAIR,1487,1259,1994,1011,178,116,Sold,,,https://www.redfin.com/VA/Montclair/4994-Marshlake-Ln-22025/home/9327644,BRIGHT MLS,VAPW196052,N,Y,38.6129109,-77.358483
PAST SALE,November-23-2020,Townhouse,15569 Winding Creek Dr,Dumfries,VA,22025,375000,3,3.5,SOUTH LAKE AT MONTCLAIR,2138,2901,1994,377,175,59,Sold,,,https://www.redfin.com/VA/Montclair/15569-Winding-Creek-Dr-22025/home/9278460,BRIGHT MLS,VAPW505316,N,Y,38.6172169,-77.362345
PAST SALE,December-6-2019,Townhouse,4945 Buena Vista Dr,Dumfries,VA,22025,329000,3,3.5,SOUTHLAKE AT MONTCLAIR,2099,2962,1993,730,157,116,Sold,,,https://www.redfin.com/VA/Montclair/4945-Buena-Vista-Dr-22025/home/9278145,BRIGHT MLS,VAPW481120,N,Y,38.617527,-77.359397
PAST SALE,April-30-2019,Single Family Residential,4257 Wiltshire Pl,Dumfries,VA,22025,520000,4,3.5,BRITTANY,4078,10899,1999,950,128,42,Sold,,,https://www.redfin.com/VA/Dumfries/4257-Wiltshire-Pl-22025/home/9325609,BRIGHT MLS,VAPW434070,N,Y,38.5962896,-77.3408102
PAST SALE,July-19-2019,Townhouse,4228 Jonathan Ct,Dumfries,VA,22025,289900,3,3.5,MONTCLAIR,1780,1420,1988,870,163,95,Sold,,,https://www.redfin.com/VA/Montclair/4228-Jonathan-Ct-22025/home/9262897,BRIGHT MLS,VAPW466920,N,Y,38.617137,-77.337419
PAST SALE,September-9-2019,Townhouse,4308 Stone Mountain Ct,Dumfries,VA,22025,360000,3,3.5,FOREST PARK,2201,1978,2006,818,164,92,Sold,,,https://www.redfin.com/VA/Dumfries/4308-Stone-Mountain-Ct-22025/home/12325714,BRIGHT MLS,VAPW475346,N,Y,38.5707512,-77.3397783
PAST SALE,January-29-2019,Single Family Residential,3713 Equinox Way,Dumfries,VA,22025,399900,3,2.0,FOUR SEASONS IN HISTORIC,2367,7762,2002,1041,169,220,Sold,,,https://www.redfin.com/VA/Montclair/3713-Equinox-Way-22025/home/9403679,BRIGHT MLS,VAPW100254,N,Y,38.5909233,-77.3273722
PAST SALE,December-11-2018,Townhouse,15317 Inlet Pl,Dumfries,VA,22025,309900,3,2.5,MONTCLAIR ST3,2080,2326,1986,1090,149,110,Sold,,,https://www.redfin.com/VA/Montclair/15317-Inlet-Pl-22025/home/9252322,BRIGHT MLS,VAPW101330,N,Y,38.6215904,-77.3538541
PAST SALE,March-15-2019,Single Family Residential,16081 Dancing Leaf Pl,Dumfries,VA,22025,333000,2,2.0,FOUR SEASONS IN HISTORIC,1755,7126,2006,996,190,220,Sold,,,https://www.redfin.com/VA/Montclair/16081-Dancing-Leaf-Pl-22025/home/12324661,BRIGHT MLS,1009913466,N,Y,38.601425,-77.326268
PAST SALE,May-10-2021,Townhouse,17457 Kagera Dr,Dumfries,VA,22025,394000,4,3.5,FOREST PARK,2226,1398,1997,209,177,78,Sold,,,https://www.redfin.com/VA/Dumfries/17457-Kagera-Dr-22025/home/9305092,BRIGHT MLS,VAPW517900,N,Y,38.574076,-77.332013
PAST SALE,May-24-2019,Townhouse,17474 Denali Pl,Dumfries,VA,22025,351000,3,3.5,FOREST PARK,2364,1869,2001,926,148,71,Sold,,,https://www.redfin.com/VA/Dumfries/17474-Denali-Pl-22025/home/9399175,BRIGHT MLS,VAPW463836,N,Y,38.5739703,-77.3359085
PAST SALE,September-30-2019,Single Family Residential,4703 Harmony Pl,Dumfries,VA,22025,440000,5,3.5,LAKE MONTCLAIR,3326,20922,1979,797,132,59,Sold,,,https://www.redfin.com/VA/Montclair/4703-Harmony-Pl-22025/home/9082050,BRIGHT MLS,VAPW476650,N,Y,38.6099441,-77.3497477
PAST SALE,May-28-2019,Single Family Residential,15721 Edgewood Dr,Dumfries,VA,22025,495000,4,3.5,COUNTRY CLUB LAKE,3795,9278,1977,922,130,59,Sold,,,https://www.redfin.com/VA/Montclair/15721-Edgewood-Dr-22025/home/9084324,BRIGHT MLS,VAPW463908,N,Y,38.6098765,-77.3356534
PAST SALE,September-27-2019,Single Family Residential,17662 Four Seasons Dr,Dumfries,VA,22025,440000,3,2.0,FOUR SEASONS IN HISTORIC,2527,8908,2002,800,174,220,Sold,,,https://www.redfin.com/VA/Montclair/17662-Four-Seasons-Dr-22025/home/9403787,BRIGHT MLS,VAPW100027,N,Y,38.592808,-77.3270805
PAST SALE,January-15-2020,Single Family Residential,4641 Holleyside Ct,Dumfries,VA,22025,439000,5,2.5,MONTCLAIR,2857,12606,1983,690,154,60,Sold,,,https://www.redfin.com/VA/Montclair/4641-Holleyside-Ct-22025/home/9234084,BRIGHT MLS,VAPW476470,N,Y,38.6237781,-77.3475847
PAST SALE,February-27-2020,Single Family Residential,15711 Cranberry Ct,Dumfries,VA,22025,429999,5,3.5,COUNTRY CLUB LAKE,3100,8799,1981,647,139,59,Sold,,,https://www.redfin.com/VA/Montclair/15711-Cranberry-Ct-22025/home/9084448,BRIGHT MLS,VAPW479928,N,Y,38.610851,-77.3348878
PAST SALE,November-12-2021,Single Family Residential,3647 Secret Grove Ct,Dumfries,VA,22025,525000,3,2.0,FOUR SEASONS IN HISTORIC VIRGINIA,2527,,2005,23,208,230,Sold,,,https://www.redfin.com/VA/Montclair/3647-Secret-Grove-Ct-22025/home/9602212,BRIGHT MLS,VAPW2010306,N,Y,38.5984794,-77.318824
PAST SALE,September-30-2019,Townhouse,4960 Marshlake Ln,Dumfries,VA,22025,275000,3,2.5,SOUTHLAKE AT MONTCLAIR,1476,1076,1994,797,186,119,Sold,,,https://www.redfin.com/VA/Montclair/4960-Marshlake-Ln-22025/home/9295436,BRIGHT MLS,VAPW472232,N,Y,38.613223,-77.357395
PAST SALE,April-23-2021,Townhouse,16146 Taconic Cir,Dumfries,VA,22025,360000,4,3.5,MONTCLAIR MEWS,2079,1599,1994,226,173,133,Sold,,,https://www.redfin.com/VA/Montclair/16146-Taconic-Cir-22025/home/9333050,BRIGHT MLS,VAPW518070,N,Y,38.599863,-77.334567
PAST SALE,May-31-2019,Townhouse,5009 Seal Pl,Dumfries,VA,22025,333000,3,3.5,SOUTHLAKE AT MONTCLAIR,2170,1498,2001,919,153,113,Sold,,,https://www.redfin.com/VA/Montclair/5009-Seal-Pl-22025/home/9297199,BRIGHT MLS,VAPW467462,N,Y,38.6123199,-77.357962
PAST SALE,June-14-2019,Townhouse,17574 Victoria Falls Dr,Dumfries,VA,22025,364000,3,3.5,FOREST PARK,2201,3049,2006,905,165,92,Sold,,,https://www.redfin.com/VA/Dumfries/17574-Victoria-Falls-Dr-22025/home/12324515,BRIGHT MLS,VAPW467894,N,Y,38.571457,-77.3399577
PAST SALE,October-18-2019,Single Family Residential,16098 Deer Park Dr,Dumfries,VA,22025,470000,6,3.5,COUNTRY CLUB LAKE,4284,11164,1987,779,110,48,Sold,,,https://www.redfin.com/VA/Montclair/16098-Deer-Park-Dr-22025/home/9082884,BRIGHT MLS,VAPW469458,N,Y,38.6040874,-77.3317021
PAST SALE,July-25-2019,Single Family Residential,16797 Mill Station Way #51,Dumfries,VA,22025,644000,5,4.0,COPPER MILL ESTATES,,9492,2018,864,,87,Sold,,,https://www.redfin.com/VA/Dumfries/16797-Mill-Station-Way-22025/unit-51/home/167900464,BRIGHT MLS,1005959705,N,Y,38.5856774,-77.3292827
PAST SALE,January-31-2020,Townhouse,15771 Viewpoint Cir,Dumfries,VA,22025,340000,4,3.5,SOUTHLAKE AT MONTCLAIR,2532,1638,2001,674,134,119,Sold,,,https://www.redfin.com/VA/Montclair/15771-Viewpoint-Cir-22025/home/9356906,BRIGHT MLS,VAPW483712,N,Y,38.6133968,-77.3558575
PAST SALE,March-14-2019,Single Family Residential,4582 Rincon Pl,Dumfries,VA,22025,420000,4,2.5,MONTCLAIR,2198,8899,1983,997,191,57,Sold,,,https://www.redfin.com/VA/Montclair/4582-Rincon-Pl-22025/home/9223972,BRIGHT MLS,VAPW322948,N,Y,38.6275932,-77.3512492
PAST SALE,July-8-2019,Single Family Residential,15812 Moncure Dr,Dumfries,VA,22025,439000,4,3.5,LAKE MONTCLAIR,3003,18374,1977,881,146,57,Sold,,,https://www.redfin.com/VA/Montclair/15812-Moncure-Dr-22025/home/9082114,BRIGHT MLS,VAPW433590,N,Y,38.6089713,-77.3501418
PAST SALE,February-14-2020,Townhouse,15778 Widewater Dr,Dumfries,VA,22025,338000,3,3.5,MONTCLAIR,1870,1599,1988,660,181,131,Sold,,,https://www.redfin.com/VA/Montclair/15778-Widewater-Dr-22025/home/9263954,BRIGHT MLS,VAPW484194,N,Y,38.611734,-77.355209
PAST SALE,June-30-2021,Single Family Residential,16721 Mill Station Way,Dumfries,VA,22025,810000,5,5.0,COPPER MILL ESTATES,3833,7501,2020,158,211,87,Sold,,,https://www.redfin.com/VA/Dumfries/16721-Mill-Station-Way-22025/home/167790123,BRIGHT MLS,VAPW521202,N,Y,38.5881173,-77.3317969
PAST SALE,March-1-2021,Townhouse,15744 London Pl,Dumfries,VA,22025,344500,3,3.5,MONTCLAIR,1912,1498,2001,279,180,115,Sold,,,https://www.redfin.com/VA/Montclair/15744-London-Pl-22025/home/9332538,BRIGHT MLS,VAPW508988,N,Y,38.611387,-77.357258
PAST SALE,August-28-2020,Townhouse,16177 Taconic Cir,Dumfries,VA,22025,315000,3,2.5,MONTCLAIR MEWS,1704,1250,1994,464,185,130,Sold,,,https://www.redfin.com/VA/Montclair/16177-Taconic-Cir-22025/home/9332978,BRIGHT MLS,VAPW495644,N,Y,38.599251,-77.33538
PAST SALE,December-28-2020,Townhouse,15561 Winding Creek Dr,Dumfries,VA,22025,375000,3,3.5,SOUTHLAKE AT MONTCLAIR,2103,1599,1994,342,178,60,Sold,,,https://www.redfin.com/VA/Montclair/15561-Winding-Creek-Dr-22025/home/9278466,BRIGHT MLS,VAPW509074,N,Y,38.617246,-77.3625859
PAST SALE,June-10-2019,Single Family Residential,3989 Hidden Valley Ct,Dumfries,VA,22025,445000,5,3.5,COUNTRY CLUB LAKE,2880,11561,2015,909,155,57,Sold,,,https://www.redfin.com/VA/Montclair/3989-Hidden-Valley-Ct-22025/home/17537978,BRIGHT MLS,VAPW432174,N,Y,38.6031692,-77.3307797
PAST SALE,July-22-2020,Townhouse,15549 Winding Creek Dr,Montclair,VA,22025,334000,3,3.5,SOUTHLAKE AT MONTCLAIR,2045,1599,1994,501,163,48,Sold,,,https://www.redfin.com/VA/Montclair/15549-Winding-Creek-Dr-22025/home/9278478,BRIGHT MLS,VAPW497482,N,Y,38.617264,-77.3627939
PAST SALE,July-30-2020,Single Family Residential,4019 Great Harvest Ct,Dumfries,VA,22025,395000,2,2.0,FOUR SEASONS,1793,6599,2006,493,220,230,Sold,,,https://www.redfin.com/VA/Montclair/4019-Great-Harvest-Ct-22025/home/12324594,BRIGHT MLS,VAPW495466,N,Y,38.6014641,-77.3302214
PAST SALE,June-17-2020,Single Family Residential,15559 Atterbury Ct,Dumfries,VA,22025,500000,4,2.5,BRITTANY,2640,9675,1994,536,189,55,Sold,,,https://www.redfin.com/VA/Dumfries/15559-Atterbury-Ct-22025/home/9283877,BRIGHT MLS,VAPW489132,N,Y,38.5945079,-77.3429637
PAST SALE,June-4-2020,Townhouse,17419 Isle Royale Ter,Dumfries,VA,22025,324900,3,3.5,FOREST PARK,2136,1398,1994,549,152,75,Sold,,,https://www.redfin.com/VA/Dumfries/17419-Isle-Royale-Ter-22025/home/9296903,BRIGHT MLS,VAPW493452,N,Y,38.5747897,-77.3334408
PAST SALE,September-4-2020,Townhouse,15550 Winding Creek Dr,Dumfries,VA,22025,367001,3,2.5,SOUTHLAKE AT MONTCLAIR,2000,3241,1994,457,184,47,Sold,,,https://www.redfin.com/VA/Montclair/15550-Winding-Creek-Dr-22025/home/9278484,BRIGHT MLS,VAPW499344,N,Y,38.6169,-77.362858
PAST SALE,April-2-2019,Single Family Residential,5317 Gunston Hall Dr,Woodbridge,VA,22193,483000,4,2.5,ASHLAND,2580,6194,2003,978,187,86,Sold,,,https://www.redfin.com/VA/Woodbridge/5317-Gunston-Hall-Dr-22193/home/9413070,BRIGHT MLS,VAPW433392,N,Y,38.6168118,-77.3653939
PAST SALE,February-21-2019,Single Family Residential,3954 Great Harvest Ct,Dumfries,VA,22025,415000,2,2.0,FOUR SEASONS IN HISTORIC,2361,8046,2006,1018,176,220,Sold,,,https://www.redfin.com/VA/Montclair/3954-Great-Harvest-Ct-22025/home/12324583,BRIGHT MLS,VAPW321162,N,Y,38.5993838,-77.3292792
PAST SALE,May-4-2020,Single Family Residential,5321 Gunston Hall Dr,Woodbridge,VA,22193,450000,5,3.5,ASHLAND,3651,6059,2004,580,123,80,Sold,,,https://www.redfin.com/VA/Woodbridge/5321-Gunston-Hall-Dr-22193/home/9413065,BRIGHT MLS,VAPW435614,N,Y,38.61667,-77.3655733
PAST SALE,May-17-2019,Townhouse,15485 Port Washington Ct,Dumfries,VA,22025,331750,4,3.5,SOUTHLAKE AT MONTCLAIR,2152,2962,1993,933,154,116,Sold,,,https://www.redfin.com/VA/Montclair/15485-Port-Washington-Ct-22025/home/9278316,BRIGHT MLS,VAPW464840,N,Y,38.617011,-77.360917
PAST SALE,November-22-2019,Single Family Residential,16223 Rising Fawn Ter,Dumfries,VA,22025,452000,3,2.0,FOUR SEASONS IN HISTORIC,2391,15804,2006,744,189,220,Sold,,,https://www.redfin.com/VA/Montclair/16223-Rising-Fawn-Ter-22025/home/12324582,BRIGHT MLS,VAPW482004,N,Y,38.6003793,-77.329329
PAST SALE,February-21-2020,Single Family Residential,15807 Moncure Dr,Dumfries,VA,22025,425000,4,3.0,LAKE MONTCLAIR,2580,19001,1978,653,165,59,Sold,,,https://www.redfin.com/VA/Montclair/15807-Moncure-Dr-22025/home/9082063,BRIGHT MLS,VAPW483884,N,Y,38.6093387,-77.3487062
PAST SALE,February-27-2019,Townhouse,5071 Lands End Ct,Dumfries,VA,22025,330000,3,3.0,SOUTHLAKE AT MONTCLAIR,1901,3149,1996,1012,174,46,Sold,,,https://www.redfin.com/VA/Montclair/5071-Lands-End-Ct-22025/home/9278572,BRIGHT MLS,VAPW390762,N,Y,38.615633,-77.3615398
PAST SALE,April-17-2020,Single Family Residential,15721 Marbury Heights Way,Dumfries,VA,22025,485000,4,2.5,MARBURY,2588,7449,2001,597,187,60,Sold,,,https://www.redfin.com/VA/Montclair/15721-Marbury-Heights-Way-22025/home/9371955,BRIGHT MLS,VAPW486762,N,Y,38.6116522,-77.3591587
PAST SALE,August-18-2020,Single Family Residential,15608 Rhame Dr,Dumfries,VA,22025,515000,5,3.5,MONTCLAIR,3489,9095,1978,474,148,,Sold,,,https://www.redfin.com/VA/Montclair/15608-Rhame-Dr-22025/home/9086028,BRIGHT MLS,VAPW504900,N,Y,38.6144503,-77.3423356
PAST SALE,September-11-2020,Townhouse,4202 Jonathan Ct,Dumfries,VA,22025,313620,2,3.5,MONTCLAIR,1960,1577,1988,450,160,59,Sold,,,https://www.redfin.com/VA/Montclair/4202-Jonathan-Ct-22025/home/9262955,BRIGHT MLS,VAPW496442,N,Y,38.616471,-77.3371669
PAST SALE,March-25-2019,Townhouse,15707 London Pl,Dumfries,VA,22025,330000,4,3.5,SOUTHLAKE AT MONTCLAIR,2208,1498,2000,986,149,115,Sold,,,https://www.redfin.com/VA/Montclair/15707-London-Pl-22025/home/9297342,BRIGHT MLS,VAPW432878,N,Y,38.612535,-77.357251
PAST SALE,November-8-2019,Single Family Residential,15789 Edgewood Dr,Dumfries,VA,22025,397000,4,3.0,COUNTRY CLUB LAKE,2650,14323,1979,758,150,55,Sold,,,https://www.redfin.com/VA/Montclair/15789-Edgewood-Dr-22025/home/9084214,BRIGHT MLS,VAPW477994,N,Y,38.6111404,-77.3305355
PAST SALE,February-13-2019,Single Family Residential,4703 Duncan Pl,Dumfries,VA,22025,428500,5,3.5,LAKE MONTCLAIR,3304,13499,1976,1026,130,57,Sold,,,https://www.redfin.com/VA/Montclair/4703-Duncan-Pl-22025/home/9082045,BRIGHT MLS,VAPW101092,N,Y,38.6073576,-77.3501418
PAST SALE,January-29-2021,Townhouse,17433 Kagera Dr,Dumfries,VA,22025,345000,3,2.5,FOREST PARK,2022,1398,1997,310,171,75,Sold,,,https://www.redfin.com/VA/Dumfries/17433-Kagera-Dr-22025/home/9339292,BRIGHT MLS,VAPW510784,N,Y,38.5746309,-77.331515
PAST SALE,October-14-2020,Single Family Residential,17581 Barron Heights Rd,Dumfries,VA,22025,345000,5,1.5,BARRY C LANDRY,2726,109985,1960,417,127,,Sold,,,https://www.redfin.com/VA/Dumfries/17581-Barron-Heights-Rd-22025/home/9398962,BRIGHT MLS,VAPW500458,N,Y,38.5704536,-77.3363235
PAST SALE,December-13-2019,Single Family Residential,15891 Jester Ct,Dumfries,VA,22025,480000,4,3.5,BRITTANY,3052,12693,1997,723,157,33,Sold,,,https://www.redfin.com/VA/Dumfries/15891-Jester-Ct-22025/home/9290160,BRIGHT MLS,VAPW480256,N,Y,38.5959805,-77.3413037
PAST SALE,,Single Family Residential,15498 Golf Club Dr,Montclair,VA,22025,370500,3,2.5,,2203,9352,1980,,168,,,,,https://www.redfin.com/VA/Montclair/15498-Golf-Club-Dr-22025/home/9376199,,,N,Y,38.6177443,-77.3418421
PAST SALE,June-12-2020,Single Family Residential,16067 Deer Park Dr,Dumfries,VA,22025,485000,4,3.5,MONTCLAIR,3356,9448,1981,541,145,54,Sold,,,https://www.redfin.com/VA/Montclair/16067-Deer-Park-Dr-22025/home/9082832,BRIGHT MLS,VAPW493464,N,Y,38.606271,-77.3299074
PAST SALE,May-28-2021,Single Family Residential,15971 Kensington Pl,Dumfries,VA,22025,675000,5,3.5,BRITTANY,3490,9474,1996,191,193,33,Sold,,,https://www.redfin.com/VA/Dumfries/15971-Kensington-Pl-22025/home/9290134,BRIGHT MLS,VAPW520870,N,Y,38.5951114,-77.3418421
PAST SALE,October-15-2021,Single Family Residential,16158 Dancing Leaf Pl,Dumfries,VA,22025,475000,3,2.0,FOUR SEASONS IN HISTORIC VIRGINIA,1992,6264,2006,51,238,230,Sold,,,https://www.redfin.com/VA/Montclair/16158-Dancing-Leaf-Pl-22025/home/12324632,BRIGHT MLS,VAPW2007328,N,Y,38.5986704,-77.3264523
PAST SALE,September-10-2019,Townhouse,4212 Ashmere Cir,Dumfries,VA,22025,250000,3,2.5,MONTCLAIR MEWS,1729,1215,1996,817,145,130,Sold,,,https://www.redfin.com/VA/Montclair/4212-Ashmere-Cir-22025/home/9298278,BRIGHT MLS,VAPW470384,N,Y,38.599524,-77.3320899
PAST SALE,October-14-2021,Townhouse,4230 Kenton Cir,Dumfries,VA,22025,342000,2,2.5,MONTCLAIR,1953,2810,1991,52,175,115,Sold,,,https://www.redfin.com/VA/Montclair/4230-Kenton-Cir-22025/home/9376632,BRIGHT MLS,VAPW2006032,N,Y,38.619252,-77.3362609
PAST SALE,May-7-2021,Townhouse,15302 Inlet Pl,Dumfries,VA,22025,365000,4,3.5,MONTCLAIR WATERS EDGE,1907,1398,1986,212,191,113,Sold,,,https://www.redfin.com/VA/Montclair/15302-Inlet-Pl-22025/home/9252597,BRIGHT MLS,VAPW516774,N,Y,38.6214135,-77.3548186
PAST SALE,May-20-2021,Single Family Residential,3783 Blowing Leaf Pl,Dumfries,VA,22025,585000,5,4.0,FOUR SEASONS IN HISTORIC,4903,7222,2005,199,119,230,Sold,,,https://www.redfin.com/VA/Montclair/3783-Blowing-Leaf-Pl-22025/home/9606272,BRIGHT MLS,VAPW521720,N,Y,38.5976273,-77.3242985
PAST SALE,January-15-2019,Single Family Residential,3700 Chapman Mill Trl,Dumfries,VA,22025,509900,5,4.0,FOUR SEASONS IN HISTORIC,5017,10280,2004,1055,102,220,Sold,,,https://www.redfin.com/VA/Montclair/3700-Chapman-Mill-Trl-22025/home/9418975,BRIGHT MLS,1006217506,N,Y,38.5913879,-77.3235133
PAST SALE,August-30-2019,Single Family Residential,15485 Golf Club Dr,Dumfries,VA,22025,425000,5,3.5,MONTCLAIR,2674,7802,1981,828,159,57,Sold,,,https://www.redfin.com/VA/Montclair/15485-Golf-Club-Dr-22025/home/9218181,BRIGHT MLS,VAPW476098,N,Y,38.6188853,-77.3408793
PAST SALE,August-27-2021,Townhouse,15715 Viewpoint Cir,Dumfries,VA,22025,350000,3,3.5,SOUTHLAKE AT MONTCLAIR,1780,1420,2000,100,197,136,Sold,,,https://www.redfin.com/VA/Montclair/15715-Viewpoint-Cir-22025/home/9356860,BRIGHT MLS,VAPW2005854,N,Y,38.613937,-77.357212
PAST SALE,November-20-2020,Townhouse,4903 Saltwater Dr,Dumfries,VA,22025,290000,3,2.5,MONTCLAIR,1447,1298,1989,380,200,120,Sold,,,https://www.redfin.com/VA/Montclair/4903-Saltwater-Dr-22025/home/9372016,BRIGHT MLS,VAPW505408,N,Y,38.609621,-77.356077
PAST SALE,June-27-2019,Single Family Residential,4063 Presidential Hill Loop,Dumfries,VA,22025,467000,5,3.5,VAN BUREN VILLAGE,3353,4112,2009,892,139,65,Sold,,,https://www.redfin.com/VA/Dumfries/4063-Presidential-Hill-Loop-22025/home/25670779,BRIGHT MLS,VAPW468792,N,Y,38.5712951,-77.3340824
PAST SALE,November-22-2019,Single Family Residential,4749 Shadow Woods Ct,Dumfries,VA,22025,483500,5,3.5,MONTCLAIR,3223,12837,1986,744,150,59,Sold,,,https://www.redfin.com/VA/Montclair/4749-Shadow-Woods-Ct-22025/home/9375765,BRIGHT MLS,VAPW481206,N,Y,38.6234705,-77.3510391
PAST SALE,November-3-2020,Townhouse,4879 Benecia Ln,Dumfries,VA,22025,351000,4,3.5,LAKECREST,1992,1516,1997,397,176,72,Sold,,,https://www.redfin.com/VA/Montclair/4879-Benecia-Ln-22025/home/9333871,BRIGHT MLS,VAPW506034,N,Y,38.609514,-77.354753
PAST SALE,October-19-2020,Single Family Residential,17720 Van Buren,Montclair,VA,22025,1000800,4,4.5,DUMFRIES,4115,450789,1983,412,243,,Sold,,,https://www.redfin.com/VA/Dumfries/17720-Van-Buren-Rd-22025/home/9427084,BRIGHT MLS,VAPW503774,N,Y,38.5688181,-77.3416626
PAST SALE,,Single Family Residential,15467 Golf Club Dr,Montclair,VA,22025,343500,3,1.5,,1718,6826,1981,,200,,,,,https://www.redfin.com/VA/Montclair/15467-Golf-Club-Dr-22025/home/9218155,,,N,Y,38.6202889,-77.3419655
PAST SALE,August-12-2019,Single Family Residential,15483 Golf Club Dr,Dumfries,VA,22025,339900,3,1.5,MONTCLAIR,1342,7732,1980,846,253,59,Sold,,,https://www.redfin.com/VA/Montclair/15483-Golf-Club-Dr-22025/home/9218177,BRIGHT MLS,VAPW473126,N,Y,38.6190224,-77.3409896
PAST SALE,October-14-2021,Townhouse,4202 La Mauricie Loop,Dumfries,VA,22025,439900,3,3.5,FOREST PARK,2400,2200,2003,52,183,28,Sold,,,https://www.redfin.com/VA/Dumfries/4202-La-Mauricie-Loop-22025/home/9399039,BRIGHT MLS,VAPW2008422,N,Y,38.5756387,-77.336862
PAST SALE,September-24-2021,Townhouse,17411 Denali Pl,Dumfries,VA,22025,408000,3,3.5,FOREST PARK,2480,2770,2000,72,165,98,Sold,,,https://www.redfin.com/VA/Dumfries/17411-Denali-Pl-22025/home/9374943,BRIGHT MLS,VAPW2003136,N,Y,38.5744331,-77.3350673
PAST SALE,December-19-2019,Single Family Residential,15512 Windward Ct,Dumfries,VA,22025,455000,4,3.5,SOUTHLAKE AT MONTCLAIR,3131,6460,1999,717,145,32,Sold,,,https://www.redfin.com/VA/Montclair/15512-Windward-Ct-22025/home/9344507,BRIGHT MLS,VAPW478140,N,Y,38.6161595,-77.3594279
PAST SALE,June-15-2021,Single Family Residential,3782 Blowing Leaf Pl,Dumfries,VA,22025,485000,2,2.0,FOUR SEASONS IN HISTORIC,2259,7523,2005,173,215,230,Sold,,,https://www.redfin.com/VA/Montclair/3782-Blowing-Leaf-Pl-22025/home/9606263,BRIGHT MLS,VAPW521412,N,Y,38.5980065,-77.3247168
PAST SALE,,Single Family Residential,15350 Maywood Dr,Montclair,VA,22025,300000,4,2.5,,3154,22995,1982,,95,,,,,https://www.redfin.com/VA/Montclair/15350-Maywood-Dr-22025/home/9222503,,,N,Y,38.6203979,-77.3490014
PAST SALE,,Townhouse,15738 London Pl,Montclair,VA,22025,310000,3,3.5,,2334,1498,2001,,133,,,,,https://www.redfin.com/VA/Montclair/15738-London-Pl-22025/home/9427393,,,N,Y,38.61155,-77.357297
PAST SALE,December-2-2021,Single Family Residential,5090 Willow Oak Pl,Dumfries,VA,22025,626000,5,4.0,MONTCLAIR ST2,3724,16396,1985,3,168,20,Sold,,,https://www.redfin.com/VA/Montclair/5090-Willow-Oak-Pl-22025/home/9232914,BRIGHT MLS,VAPW2010822,N,Y,38.6223838,-77.353641
PAST SALE,December-1-2021,Single Family Residential,4700 Maybury Pl,Dumfries,VA,22025,610000,4,3.5,LAKE MONTCLAIR,3662,12550,1976,4,167,60,Sold,,,https://www.redfin.com/VA/Montclair/4700-Maybury-Pl-22025/home/9082181,BRIGHT MLS,VAPW2005820,N,Y,38.6064248,-77.350097
PAST SALE,July-12-2021,Single Family Residential,16075 Deer Park Dr,Dumfries,VA,22025,585000,4,3.5,COUNTRY CLUB LAKE,3424,9509,1986,146,171,60,Sold,,,https://www.redfin.com/VA/Montclair/16075-Deer-Park-Dr-22025/home/9308038,BRIGHT MLS,VAPW2002866,N,Y,38.6054306,-77.3301541
PAST SALE,May-15-2020,Single Family Residential,15491 Golf Club Dr,Dumfries,VA,22025,360000,3,2.0,MONTCLAIR,1776,6774,1980,569,203,55,Sold,,,https://www.redfin.com/VA/Montclair/15491-Golf-Club-Dr-22025/home/9218191,BRIGHT MLS,VAPW513860,N,Y,38.6182412,-77.340855
PAST SALE,,Townhouse,17435 Kagera Dr,Dumfries,VA,22025,230000,3,3.5,,1984,2448,1997,,116,,,,,https://www.redfin.com/VA/Dumfries/17435-Kagera-Dr-22025/home/9339297,,,N,Y,38.5745662,-77.331491
PAST SALE,August-29-2019,Single Family Residential,16765 Mill Station Way #43,Dumfries,VA,22025,645000,5,4.0,COPPER MILL ESTATES,3208,9108,2018,829,201,87,Sold,,,https://www.redfin.com/VA/Dumfries/16765-Mill-Station-Way-22025/home/147652585,BRIGHT MLS,1009942588,N,Y,38.5867765,-77.329539
PAST SALE,May-27-2020,Townhouse,17502 Cajun Ct,Dumfries,VA,22025,384000,3,2.5,FOREST PARK,2370,3036,2005,557,162,95,Sold,,,https://www.redfin.com/VA/Dumfries/17502-Cajun-Ct-22025/home/9601091,BRIGHT MLS,VAPW492690,N,Y,38.5739871,-77.3379051
PAST SALE,July-2-2020,Townhouse,4160 Ashmere Cir,Dumfries,VA,22025,318000,4,3.5,MONTCLAIR MEWS,1898,1085,1997,521,168,120,Sold,,,https://www.redfin.com/VA/Montclair/4160-Ashmere-Cir-22025/home/9298481,BRIGHT MLS,VAPW492548,N,Y,38.598971,-77.3325
PAST SALE,December-3-2021,Single Family Residential,5297 Gunston Hall Dr,Woodbridge,VA,22193,700000,6,3.5,ASHLAND,4154,6255,2004,2,169,82,Sold,,,https://www.redfin.com/VA/Woodbridge/5297-Gunston-Hall-Dr-22193/home/9413085,BRIGHT MLS,VAPW2011104,N,Y,38.6175695,-77.3649453
PAST SALE,,Vacant Land,4101 Talon Dr,Dumfries,VA,22025,2550000,,,,,249703,,,,,,,,https://www.redfin.com/VA/Dumfries/4101-Talon-Dr-22025/home/162672425,,,N,Y,38.5858717,-77.3337483
PAST SALE,August-11-2020,Single Family Residential,16090 Deer Park Dr,Dumfries,VA,22025,440000,4,2.5,MONTCLAIR/COUNTRY CLUB,2676,8398,1987,481,164,48,Sold,,,https://www.redfin.com/VA/Montclair/16090-Deer-Park-Dr-22025/home/9082873,BRIGHT MLS,VAPW497506,N,Y,38.60473,-77.3309394
PAST SALE,July-22-2021,Townhouse,15557 Winding Creek Dr,Dumfries,VA,22025,413000,4,3.5,SOUTHLAKE AT MONTCLAIR,2060,1599,1994,136,200,123,Sold,,,https://www.redfin.com/VA/Montclair/15557-Winding-Creek-Dr-22025/home/9278468,BRIGHT MLS,VAPW522568,N,Y,38.617253,-77.362656
PAST SALE,August-9-2021,Townhouse,5135 Lands End Ct,Montclair,VA,22025,403000,3,3.5,SOUTHLAKE AT MONTCLAIR,2631,2862,1990,118,153,130,Sold,,,https://www.redfin.com/VA/Montclair/5135-Lands-End-Ct-22025/home/9278639,BRIGHT MLS,VAPW2001884,N,Y,38.616312,-77.362637
PAST SALE,August-9-2021,Townhouse,4087 Yellow Stone Loop,Dumfries,VA,22025,385000,3,2.5,FOREST PARK,2150,1398,1997,118,179,78,Sold,,,https://www.redfin.com/VA/Dumfries/4087-Yellow-Stone-Loop-22025/home/9336568,BRIGHT MLS,VAPW2002576,N,Y,38.5740037,-77.3330818
PAST SALE,March-30-2020,Single Family Residential,16050 Dancing Leaf Pl,Dumfries,VA,22025,527900,3,3.0,FOUR SEASONS IN HISTORIC,3381,8089,2007,615,156,230,Sold,,,https://www.redfin.com/VA/Montclair/16050-Dancing-Leaf-Pl-22025/home/12324653,BRIGHT MLS,VAPW488052,N,Y,38.6024521,-77.3267216
PAST SALE,June-11-2021,Townhouse,17429 Kagera Dr,Dumfries,VA,22025,390000,3,3.0,FOREST PARK,2099,1398,1997,177,186,78,Sold,,,https://www.redfin.com/VA/Dumfries/17429-Kagera-Dr-22025/home/9339289,BRIGHT MLS,VAPW520416,N,Y,38.574736,-77.331554
PAST SALE,June-16-2021,Single Family Residential,4702 Fishermans Cv,Dumfries,VA,22025,624702,5,3.5,MONTCLAIR,3014,9683,1979,172,207,60,Sold,,,https://www.redfin.com/VA/Montclair/4702-Fishermans-Cv-22025/home/9086989,BRIGHT MLS,VAPW521758,N,Y,38.6150471,-77.3503661
PAST SALE,November-30-2020,Single Family Residential,15396 Autumn Ln,Dumfries,VA,22025,425000,3,2.5,COUNTRY CLUB/LAKE MONTCLAIR,1890,13804,1980,370,225,59,Sold,,,https://www.redfin.com/VA/Montclair/15396-Autumn-Ln-22025/home/59450964,BRIGHT MLS,VAPW506292,N,Y,38.61956,-77.345162
PAST SALE,September-25-2020,Single Family Residential,17606 Harpers Ferry Dr,Dumfries,VA,22025,390000,3,3.0,FOREST PARK,2298,1982,2006,436,170,95,Sold,,,https://www.redfin.com/VA/Dumfries/17606-Harpers-Ferry-Dr-22025/home/9606106,BRIGHT MLS,VAPW502082,N,Y,38.571863,-77.3383201
PAST SALE,October-18-2021,Townhouse,4399 Palton Dr,Dumfries,VA,22025,425000,3,3.5,FOREST PARK,2497,2705,2006,48,170,96,Sold,,,https://www.redfin.com/VA/Dumfries/4399-Palton-Dr-22025/home/12324519,BRIGHT MLS,VAPW2008376,N,Y,38.571145,-77.3396885
PAST SALE,October-28-2020,Single Family Residential,15811 Edgewood Dr,Dumfries,VA,22025,580000,5,3.5,COUNTRY CLUB LAKE,3872,8799,1977,403,150,59,Sold,,,https://www.redfin.com/VA/Montclair/15811-Edgewood-Dr-22025/home/9084189,BRIGHT MLS,VAPW500528,N,Y,38.6091598,-77.3319713
PAST SALE,September-27-2019,Townhouse,15704 Lansdale Pl,Dumfries,VA,22025,335000,3,2.5,SOUTHLAKE AT MONTCLAIR,1760,1664,1995,800,190,59,Sold,,,https://www.redfin.com/VA/Montclair/15704-Lansdale-Pl-22025/home/9332678,BRIGHT MLS,VAPW475132,N,Y,38.612649,-77.356979
PAST SALE,September-27-2019,Townhouse,16287 Taconic Cir Unit 91A,Dumfries,VA,22025,236000,3,2.5,STOCKBRIDGE CONDO,1402,,1991,800,168,240,Sold,,,https://www.redfin.com/VA/Montclair/16287-Taconic-Cir-22025/home/9323573,BRIGHT MLS,VAPW469766,N,Y,38.5996542,-77.3367853
PAST SALE,March-19-2021,Townhouse,15469 Cliffview Dr,Dumfries,VA,22025,341000,3,3.5,NOB HILL,1690,1490,1986,261,202,48,Sold,,,https://www.redfin.com/VA/Montclair/15469-Cliffview-Dr-22025/home/9262724,BRIGHT MLS,VAPW513806,N,Y,38.618226,-77.33902
PAST SALE,December-31-2019,Single Family Residential,4152 Philena St,Dumfries,VA,22025,445000,4,3.5,DAVIS ESTATES,4340,10001,2005,705,103,33,Sold,,,https://www.redfin.com/VA/Dumfries/4152-Philena-St-22025/home/9595583,BRIGHT MLS,VAPW481072,N,Y,38.585266,-77.3363235
PAST SALE,September-10-2021,Townhouse,4013 Mammoth Cave Loop,Dumfries,VA,22025,395000,3,3.5,FOREST PARK,2270,2448,1996,86,174,63,Sold,,,https://www.redfin.com/VA/Dumfries/4013-Mammoth-Cave-Loop-22025/home/9333113,BRIGHT MLS,VAPW2006730,N,Y,38.576089,-77.331506
PAST SALE,,Townhouse,17438 Tangariro Sq,Dumfries,VA,22025,290000,3,2.5,,2048,1398,1998,,142,,,,,https://www.redfin.com/VA/Dumfries/17438-Tangariro-Sq-22025/home/9336588,,,N,Y,38.5735913,-77.3326332
PAST SALE,April-26-2019,Single Family Residential,15508 Yorktown Dr,Dumfries,VA,22025,385000,3,2.5,COUNTRY CLUB LAKE,1820,11461,1979,954,212,48,Sold,,,https://www.redfin.com/VA/Montclair/15508-Yorktown-Dr-22025/home/9086767,BRIGHT MLS,VAPW463134,N,Y,38.6167073,-77.3482127
PAST SALE,,Single Family Residential,15544 Windward Ct,Montclair,VA,22025,525000,3,3.5,,3167,10350,1998,,166,,,,,https://www.redfin.com/VA/Montclair/15544-Windward-Ct-22025/home/9344535,,,N,Y,38.6147563,-77.3598764
PAST SALE,September-16-2019,Townhouse,14454 Whisperwood Ct,Dumfries,VA,22025,252500,3,2.5,MONTCLAIR,1350,1390,1989,811,187,48,Sold,,,https://www.redfin.com/VA/Montclair/14454-Whisperwood-Ct-22025/home/9263029,BRIGHT MLS,VAPW476844,N,Y,38.620635,-77.334943
PAST SALE,March-31-2020,Single Family Residential,15310 Iris Ln,Dumfries,VA,22025,476000,5,3.0,COUNTRY CLUB LAKE,3170,8159,1981,614,150,59,Sold,,,https://www.redfin.com/VA/Montclair/15310-Iris-Ln-22025/home/9086553,BRIGHT MLS,VAPW488166,N,Y,38.6186958,-77.3475847
PAST SALE,,Single Family Residential,17721 Batestown Rd,Dumfries,VA,22025,158000,4,2.0,,3320,30945,1930,,48,,,,,https://www.redfin.com/VA/Dumfries/17721-Batestown-Rd-22025/home/162672261,,,N,Y,38.5697164,-77.3399129
PAST SALE,November-18-2021,Townhouse,16291 Taconic Cir Unit 90D,Dumfries,VA,22025,273000,3,2.5,STOCKBRIDGE CONDO,1290,,1991,17,212,295,Sold,,,https://www.redfin.com/VA/Montclair/16291-Taconic-Cir-22025/unit-90D/home/9323586,BRIGHT MLS,VAPW2001068,N,Y,38.599586,-77.33617
PAST SALE,March-4-2019,Townhouse,15310 Inlet Pl,Dumfries,VA,22025,300000,3,3.0,MONTCLAIR ST3,1916,2169,1986,1007,157,108,Sold,,,https://www.redfin.com/VA/Montclair/15310-Inlet-Pl-22025/home/9252586,BRIGHT MLS,VAPW321338,N,Y,38.6212821,-77.3546445
PAST SALE,June-19-2020,Single Family Residential,5313 Gunston Hall Dr,Woodbridge,VA,22193,560000,5,3.5,ASHLAND,3668,7514,2003,534,153,75,Sold,,,https://www.redfin.com/VA/Woodbridge/5313-Gunston-Hall-Dr-22193/home/9413071,BRIGHT MLS,VAPW494266,N,Y,38.6169181,-77.3652593
PAST SALE,October-6-2021,Townhouse,15213 Streamside Ct,Dumfries,VA,22025,355500,3,2.5,MONTCLAIR ST2,1742,1498,1985,60,204,110,Sold,,,https://www.redfin.com/VA/Montclair/15213-Streamside-Ct-22025/home/9248440,BRIGHT MLS,VAPW2005830,N,Y,38.6210693,-77.3550171
PAST SALE,August-12-2021,Townhouse,4371 Palton Dr,Dumfries,VA,22025,449900,3,3.0,FOREST PARK,2340,1934,2006,115,192,95,Sold,,,https://www.redfin.com/VA/Dumfries/4371-Palton-Dr-22025/home/12324534,BRIGHT MLS,VAPW525692,N,Y,38.5711078,-77.3386118
PAST SALE,February-28-2019,Townhouse,16228 Taconic Cir,Dumfries,VA,22025,215000,3,2.5,STOCKBRIDGE CONDO,1332,,1993,1011,161,245,Sold,,,https://www.redfin.com/VA/Montclair/16228-Taconic-Cir-22025/unit-112A/home/9292954,BRIGHT MLS,VAPW323338,N,Y,38.600501,-77.336954
PAST SALE,,Townhouse,4100 Ashmere Cir,Montclair,VA,22025,310000,2,2.5,,1716,2012,1996,,181,,,,,https://www.redfin.com/VA/Montclair/4100-Ashmere-Cir-22025/home/9297780,,,N,Y,38.5986956,-77.3341363
PAST SALE,June-28-2019,Single Family Residential,15897 Beaver Dam Rd,Dumfries,VA,22025,425000,4,3.0,COUNTRY CLUB LAKE,2642,9531,1983,891,161,59,Sold,,,https://www.redfin.com/VA/Montclair/15897-Beaver-Dam-Rd-22025/home/9084786,BRIGHT MLS,VAPW468574,N,Y,38.6091563,-77.3385669
PAST SALE,August-13-2021,Townhouse,15423 Beachwater Ct,Dumfries,VA,22025,334900,3,3.0,MONTCLAIR,1907,1498,1987,114,176,114,Sold,,,https://www.redfin.com/VA/Montclair/15423-Beachwater-Ct-22025/home/9264261,BRIGHT MLS,VAPW521976,N,Y,38.619167,-77.357804
PAST SALE,August-15-2019,Townhouse,4262 Ashmere Cir,Dumfries,VA,22025,290000,4,2.5,MONTCLAIR MEWS,1696,1263,1995,843,171,134,Sold,,,https://www.redfin.com/VA/Montclair/4262-Ashmere-Cir-22025/home/9333208,BRIGHT MLS,VAPW472956,N,Y,38.599609,-77.3335139
PAST SALE,March-31-2020,Townhouse,4385 Palton Dr,Dumfries,VA,22025,380000,3,3.5,FOREST PARK,2340,2858,2006,614,162,92,Sold,,,https://www.redfin.com/VA/Dumfries/4385-Palton-Dr-22025/home/21498686,BRIGHT MLS,VAPW486664,N,Y,38.5710555,-77.3392399
PAST SALE,July-28-2021,Single Family Residential,3615 Secret Grove Ct,Dumfries,VA,22025,538000,3,3.0,FOUR SEASONS IN HISTORIC,3178,6521,2005,130,169,230,Sold,,,https://www.redfin.com/VA/Montclair/3615-Secret-Grove-Ct-22025/home/9602267,BRIGHT MLS,VAPW524520,N,Y,38.5994604,-77.3178368
PAST SALE,August-21-2019,Single Family Residential,15735 Marbury Heights Way,Dumfries,VA,22025,525000,5,3.5,MARBURY,3932,11269,2001,837,134,59,Sold,,,https://www.redfin.com/VA/Montclair/15735-Marbury-Heights-Way-22025/home/9371959,BRIGHT MLS,VAPW472924,N,Y,38.6111032,-77.3589344
PAST SALE,October-22-2021,Townhouse,14499 Whisperwood Ct,Dumfries,VA,22025,360000,3,3.0,MONTCLAIR,1940,2361,1988,44,186,105,Sold,,,https://www.redfin.com/VA/Montclair/14499-Whisperwood-Ct-22025/home/9263105,BRIGHT MLS,VAPW2006530,N,Y,38.6202094,-77.3344075
PAST SALE,October-11-2019,Single Family Residential,15046 Silver Leaf Ct,Dumfries,VA,22025,354500,3,2.5,MONTCLAIR,1761,8015,1986,786,201,59,Sold,,,https://www.redfin.com/VA/Montclair/15046-Silver-Leaf-Ct-22025/home/9247529,BRIGHT MLS,VAPW472886,N,Y,38.6244729,-77.3584265
PAST SALE,September-3-2020,Single Family Residential,15601 Sabine Hall Pl,Woodbridge,VA,22193,590000,4,3.5,ASHLAND,4146,10071,2003,458,142,86,Sold,,,https://www.redfin.com/VA/Woodbridge/15601-Sabine-Hall-Pl-22193/home/9412890,BRIGHT MLS,VAPW498734,N,Y,38.6152997,-77.3700139
PAST SALE,,Single Family Residential,15705 Bacons Castle Ct,Woodbridge,VA,22193,410000,4,2.5,,2148,7640,2004,,191,,,,,https://www.redfin.com/VA/Woodbridge/15705-Bacons-Castle-Ct-22193/home/9412986,,,N,Y,38.6169876,-77.3671887
PAST SALE,,Single Family Residential,15639 Sabine Hall Pl,Woodbridge,VA,22193,640000,4,3.5,,4194,6556,2003,,153,,,,,https://www.redfin.com/VA/Woodbridge/15639-Sabine-Hall-Pl-22193/home/9412959,,,N,Y,38.6158505,-77.3680403
PAST SALE,July-17-2019,Townhouse,4397 Palton Dr,Dumfries,VA,22025,325000,3,3.5,FOREST PARK,2140,1642,2006,872,152,65,Sold,,,https://www.redfin.com/VA/Dumfries/4397-Palton-Dr-22025/home/12324520,BRIGHT MLS,VAPW471648,N,Y,38.5710594,-77.3396437
PAST SALE,June-27-2019,Townhouse,15690 Viewpoint Cir,Dumfries,VA,22025,280000,3,2.5,SOUTHLAKE AT MONTCLAIR,1188,2274,1996,892,236,100,Sold,,,https://www.redfin.com/VA/Montclair/15690-Viewpoint-Cir-22025/home/9327694,BRIGHT MLS,VAPW466450,N,Y,38.6133559,-77.3578288
