SALE TYPE,SOLD DATE,PROPERTY TYPE,ADDRESS,CITY,STATE OR PROVINCE,ZIP OR POSTAL CODE,PRICE,BEDS,BATHS,LOCATION,SQUARE FEET,LOT SIZE,YEAR BUILT,DAYS ON MARKET,$/SQUARE FEET,HOA/MONTH,STATUS,NEXT OPEN HOUSE START TIME,NEXT OPEN HOUSE END TIME,URL (SEE https://www.redfin.com/buy-a-home/comparative-market-analysis FOR INFO ON PRICING),SOURCE,MLS#,FAVORITE,INTERESTED,LATITUDE,LONGITUDE
MLS Listing,,Townhouse,4999 Oyster Reef Pl,Waldorf,MD,20602,339900,3,2.5,ST CHARLES SUB - SHEFFIE,1744,2177,2010,5,195,60,Active,,,https://www.redfin.com/MD/Waldorf/4999-Oyster-Reef-Pl-20602/home/23005337,BRIGHT MLS,MDCH2006004,N,Y,38.5793344,-76.9104909
PAST SALE,August-12-2020,Townhouse,4867 Olympia Pl,Waldorf,MD,20602,305000,3,2.5,ST CHARLES SUB - SHEFFIE,1732,2125,2009,480,176,102,Sold,,,https://www.redfin.com/MD/Waldorf/4867-Olympia-Pl-20602/home/23027302,BRIGHT MLS,MDCH214914,N,Y,38.5809786,-76.9117002
PAST SALE,February-28-2020,Single Family Residential,3544 Seagrape Ct,Waldorf,MD,20602,315000,3,2.5,ST CHARLES SUB - HUNTING,1886,9180,1984,646,167,45,Sold,,,https://www.redfin.com/MD/Waldorf/3544-Seagrape-Ct-20602/home/14417049,BRIGHT MLS,MDCH210086,N,Y,38.6032577,-76.8804945
PAST SALE,April-15-2020,Single Family Residential,3681 Red Bud Ct,Waldorf,MD,20602,332000,4,2.5,ST CHARLES SUB - HUNTING,2112,16348,1986,599,157,42,Sold,,,https://www.redfin.com/MD/Waldorf/3681-Red-Bud-Ct-20602/home/14421637,BRIGHT MLS,MDCH211418,N,Y,38.601932,-76.8784605
PAST SALE,,Single Family Residential,11024 McIntosh Ct,Waldorf,MD,20602,560000,,3.5,,5102,10125,2016,,110,,,,,https://www.redfin.com/MD/Waldorf/11024-McIntosh-Ct-20602/home/85690128,,,N,Y,38.5894428,-76.8968292
PAST SALE,September-11-2020,Townhouse,723 Barrington Dr,Waldorf,MD,20602,240000,3,1.5,ST CHARLES SUB - HUNTING,1056,,1979,450,227,26,Sold,,,https://www.redfin.com/MD/Waldorf/723-Barrington-Dr-20602/home/14382020,BRIGHT MLS,MDCH214776,N,Y,38.606368,-76.9051893
PAST SALE,January-15-2021,Single Family Residential,2329 Vale Ct,Waldorf,MD,20602,325000,3,1.5,ST CHARLES SUB - WAKEFIE,1628,7221,1983,324,200,33,Sold,,,https://www.redfin.com/MD/Waldorf/2329-Vale-Ct-20602/home/14395470,BRIGHT MLS,MDCH219888,N,Y,38.5988188,-76.8908994
PAST SALE,April-27-2020,Townhouse,5618 Barnstormers Ln,Waldorf,MD,20602,327500,3,3.0,ST CHARLES SUB - FIELDSI,2174,1786,2017,587,151,,Sold,,,https://www.redfin.com/MD/Waldorf/5618-Barnstormers-Ln-20602/home/113711578,BRIGHT MLS,MDCH212010,N,Y,38.5585342,-76.9115216
PAST SALE,December-3-2021,Townhouse,5636 Barnstormers Ln,Waldorf,MD,20602,390000,3,2.5,ST CHARLES SUB - FIELDSI,1920,1786,2017,2,203,53,Sold,,,https://www.redfin.com/MD/Waldorf/5636-Barnstormers-Ln-20602/home/142972397,BRIGHT MLS,MDCH2005628,N,Y,38.5585338,-76.9106525
PAST SALE,May-31-2019,Single Family Residential,915 Copley Ave,Waldorf,MD,20602,265000,3,1.5,ST CHARLES SUB - CARRING,1536,12020,1967,919,173,,Sold,,,https://www.redfin.com/MD/Waldorf/915-Copley-Ave-20602/home/14386956,BRIGHT MLS,MDCH201062,N,Y,38.6100355,-76.9155307
PAST SALE,February-15-2019,Single Family Residential,3619 Satinleaf Ct,Waldorf,MD,20602,298000,5,2.5,ST CHARLES SUB - HUNTINGTON,2128,8228,1986,1024,140,43,Sold,,,https://www.redfin.com/MD/Waldorf/3619-Satinleaf-Ct-20602/home/14400370,BRIGHT MLS,MDCH119782,N,Y,38.6041434,-76.8777419
PAST SALE,March-15-2019,Townhouse,4943 Olympia Pl,Waldorf,MD,20602,325000,3,3.0,ST CHARLES SUB - SHEFFIE,2192,3044,2009,996,148,1,Sold,,,https://www.redfin.com/MD/Waldorf/4943-Olympia-Pl-20602/home/23027285,BRIGHT MLS,MDCH141132,N,Y,38.5819186,-76.9103772
PAST SALE,October-8-2021,Single Family Residential,10 Bexhill Ct,Waldorf,MD,20602,300000,3,1.0,ST CHARLES SUB - CARRING,1108,10341,1976,58,271,,Sold,,,https://www.redfin.com/MD/Waldorf/10-Bexhill-Ct-20602/home/14382754,BRIGHT MLS,MDCH2002430,N,Y,38.5900328,-76.9208907
PAST SALE,August-31-2021,Single Family Residential,844 Copley Ave,Waldorf,MD,20602,290000,3,2.0,ST CHARLES SUB - CARRING,1536,9200,1966,96,189,,Sold,,,https://www.redfin.com/MD/Waldorf/844-Copley-Ave-20602/home/15153858,BRIGHT MLS,MDCH2001672,N,Y,38.6103075,-76.9080885
PAST SALE,December-26-2019,Single Family Residential,2442 Pimlico Ct,Waldorf,MD,20602,309000,4,2.0,ST CHARLES SUB - WAKEFIE,2073,8263,1979,710,149,45,Sold,,,https://www.redfin.com/MD/Waldorf/2442-Pimlico-Ct-20602/home/14380125,BRIGHT MLS,MDCH208894,N,Y,38.5955214,-76.8863508
PAST SALE,April-23-2019,Single Family Residential,3550 Seagrape Ct,Waldorf,MD,20602,325000,4,2.5,ST CHARLES SUB - HUNTING,1720,10350,1984,957,189,38,Sold,,,https://www.redfin.com/MD/Waldorf/3550-Seagrape-Ct-20602/home/14405969,BRIGHT MLS,MDCH184084,N,Y,38.6027398,-76.8803609
PAST SALE,April-30-2021,Single Family Residential,2308 Lambeth Hill Dr,Waldorf,MD,20602,333000,4,2.0,ST CHARLES SUB - WAKEFIE,2232,16080,1979,219,149,44,Sold,,,https://www.redfin.com/MD/Waldorf/2308-Lambeth-Hill-Dr-20602/home/14413892,BRIGHT MLS,MDCH222602,N,Y,38.6001994,-76.884682
PAST SALE,November-20-2020,Single Family Residential,3451-F Rose Pl,Waldorf,MD,20602,310000,3,2.5,ST CHARLES SUB - HUNTING,1434,5788,1983,380,216,75,Sold,,,https://www.redfin.com/MD/Waldorf/3451-Rose-Pl-20602/unit-F/home/14393197,BRIGHT MLS,MDCH218080,N,Y,38.6087739,-76.8829953
PAST SALE,,Single Family Residential,4640 La Costa Ln,Waldorf,MD,20602,420000,,4.0,,3910,6970,2008,,107,,,,,https://www.redfin.com/MD/Waldorf/4640-La-Costa-Ln-20602/home/18989544,,,N,Y,38.5847246,-76.9089158
PAST SALE,November-29-2021,Single Family Residential,4821 Underwood Ct,Waldorf,MD,20602,247500,3,1.0,ST CHARLES SUB - BANNIST,1056,4503,1977,6,234,25,Sold,,,https://www.redfin.com/MD/Waldorf/4821-Underwood-Ct-20602/home/14417955,BRIGHT MLS,MDCH2004046,N,Y,38.5903595,-76.9026057
PAST SALE,January-31-2020,Single Family Residential,4997 Saint Matthews Dr,Waldorf,MD,20602,430000,4,3.5,ST CHARLES SUB - GLENEAG,3934,8057,2011,674,109,60,Sold,,,https://www.redfin.com/MD/Waldorf/4997-St-Matthews-Dr-20602/home/28498356,BRIGHT MLS,MDCH207674,N,Y,38.5747766,-76.9088668
PAST SALE,May-3-2021,Single Family Residential,1409 Boswell Ct,Waldorf,MD,20602,350000,3,2.0,ST CHARLES SUB - BANNIST,1469,7941,1977,216,238,38,Sold,,,https://www.redfin.com/MD/Waldorf/1409-Boswell-Ct-20602/home/14421659,BRIGHT MLS,MDCH222000,N,Y,38.5942826,-76.9064176
PAST SALE,January-29-2021,Townhouse,4613 Scottsdale Pl,Waldorf,MD,20602,400000,3,3.0,ST CHARLES SUB - SHEFFIE,2400,3252,2008,310,167,108,Sold,,,https://www.redfin.com/MD/Waldorf/4613-Scottsdale-Pl-20602/home/15153091,BRIGHT MLS,MDCH220430,N,Y,38.5864084,-76.9158251
PAST SALE,July-24-2019,Single Family Residential,11680 Fountainhead Ct,Waldorf,MD,20602,415000,4,4.5,ST CHARLES SUB - SHEFFIE,4276,7303,2006,865,97,72,Sold,,,https://www.redfin.com/MD/WALDORF/11680-FOUNTAINHEAD-CT-20602/home/14384650,BRIGHT MLS,MDCH203168,N,Y,38.585617,-76.906099
PAST SALE,May-28-2020,Townhouse,11732 Sunningdale Pl,Waldorf,MD,20602,265000,2,2.5,ST CHARLES SUB - GLENEAG,1792,1527,2013,556,148,64,Sold,,,https://www.redfin.com/MD/Waldorf/11732-Sunningdale-Pl-20602/home/50274511,BRIGHT MLS,MDCH213088,N,Y,38.5777265,-76.9078808
PAST SALE,June-2-2021,Single Family Residential,5121 Mudville Ln,Waldorf,MD,20602,611000,5,3.5,ST CHARLES SUB - FIELDSI,4856,6273,2016,186,126,55,Sold,,,https://www.redfin.com/MD/Waldorf/5121-Mudville-Ln-20602/home/101839021,BRIGHT MLS,MDCH223864,N,Y,38.5627284,-76.910436
PAST SALE,March-22-2021,Single Family Residential,3903 Newman Ct,Waldorf,MD,20602,330000,3,2.0,ST CHARLES SUB - BANNIST,1554,6453,1977,258,212,32,Sold,,,https://www.redfin.com/MD/Waldorf/3903-Newman-Ct-20602/home/14375241,BRIGHT MLS,MDCH221862,N,Y,38.5943918,-76.8987938
PAST SALE,July-26-2019,Single Family Residential,11755 Nationals Ln,Waldorf,MD,20602,437900,4,3.5,ST CHARLES SUB - FIELDSI,5120,8102,2013,863,86,78,Sold,,,https://www.redfin.com/MD/Waldorf/11755-Nationals-Ln-20602/home/50274770,BRIGHT MLS,MDCH201366,N,Y,38.5621195,-76.9081914
PAST SALE,September-23-2020,Single Family Residential,1020 Dorset Dr,Waldorf,MD,20602,220000,3,1.5,ST CHARLES SUB - CARRING,1380,,1980,438,159,,Sold,,,https://www.redfin.com/MD/Waldorf/1020-Dorset-Dr-20602/home/14380592,BRIGHT MLS,MDCH215958,N,Y,38.6016117,-76.9091164
PAST SALE,May-24-2019,Townhouse,11873 Saint Linus Dr,Waldorf,MD,20602,293000,3,2.5,ST CHARLES SUB - FIELDSI,2052,1786,2013,926,143,42,Sold,,,https://www.redfin.com/MD/Waldorf/11873-St-Linus-Dr-20602/home/50274795,BRIGHT MLS,MDCH194840,N,Y,38.5588127,-76.9081914
PAST SALE,October-9-2020,Single Family Residential,5670 Barnstormers Ln,Waldorf,MD,20602,410000,3,2.5,ST CHARLES SUB - FIELDSI,2128,5881,2013,422,193,,Sold,,,https://www.redfin.com/MD/Waldorf/5670-Barnstormers-Ln-20602/home/64349170,BRIGHT MLS,MDCH217010,N,Y,38.5585194,-76.9093396
PAST SALE,May-31-2019,Townhouse,5045 Oyster Reef Pl,Waldorf,MD,20602,268000,3,2.5,ST CHARLES SUB - SHEFFIE,1720,2106,2010,919,156,75,Sold,,,https://www.redfin.com/MD/Waldorf/5045-Oyster-Reef-Pl-20602/home/23005417,BRIGHT MLS,MDCH200516,N,Y,38.5782239,-76.9093085
PAST SALE,May-14-2021,Townhouse,12333 Sweetbriar Pl,Waldorf,MD,20602,300000,3,2.5,LAKEWOOD EST SUB,1860,,1996,205,161,63,Sold,,,https://www.redfin.com/MD/Waldorf/12333-Sweetbriar-Pl-20602/home/14394838,BRIGHT MLS,MDCH222592,N,Y,38.6112092,-76.8819327
PAST SALE,,Single Family Residential,11719 Marston Moor Ln,Waldorf,MD,20602,490000,,2.5,,3909,9517,2011,,125,,,,,https://www.redfin.com/MD/Waldorf/11719-Marston-Moor-Ln-20602/home/23002387,,,N,Y,38.5747251,-76.9116135
PAST SALE,February-16-2021,Single Family Residential,4813 Girvan Ct,Waldorf,MD,20602,490000,5,5.5,ST CHARLES SUB - SHEFFIE,4007,9883,2006,292,122,85,Sold,,,https://www.redfin.com/MD/Waldorf/4813-Girvan-Ct-20602/home/14413514,BRIGHT MLS,MDCH219856,N,Y,38.5841845,-76.9049975
PAST SALE,April-30-2021,Townhouse,5076 Oyster Reef Pl,Waldorf,MD,20602,307750,2,2.5,ST CHARLES SUB - GLENEAG,1432,1530,2012,219,215,61,Sold,,,https://www.redfin.com/MD/Waldorf/5076-Oyster-Reef-Pl-20602/unit-P1/home/50274613,BRIGHT MLS,MDCH223024,N,Y,38.5785815,-76.9076507
PAST SALE,March-26-2021,Townhouse,4520C Ratcliff Pl Unit 36-M,Waldorf,MD,20602,184000,3,2.0,ST CHARLES SUB - BANNIST,1078,,1977,254,171,321,Sold,,,https://www.redfin.com/MD/Waldorf/4520C-Ratcliff-Pl-20602/unit-36-M/home/14393223,BRIGHT MLS,MDCH220336,N,Y,38.593043,-76.902027
PAST SALE,,Single Family Residential,2289 Vine Hill Ct,Waldorf,MD,20602,252289,5,2.0,,1446,9000,1984,,174,,,,,https://www.redfin.com/MD/Waldorf/2289-Vine-Hill-Ct-20602/home/14391310,,,N,Y,38.5981438,-76.8904893
PAST SALE,November-3-2021,Single Family Residential,2455 Yardley Ct,Waldorf,MD,20602,356000,3,3.0,ST CHARLES SUB - WAKEFIE,1506,6000,1982,32,236,40,Sold,,,https://www.redfin.com/MD/Waldorf/2455-Yardley-Ct-20602/home/14385520,BRIGHT MLS,MDCH2004126,N,Y,38.6014033,-76.8920853
PAST SALE,April-2-2019,Single Family Residential,3683 Red Bud Ct,Waldorf,MD,20602,278500,3,2.0,ST CHARLES SUB - HUNTING,1328,11349,1986,978,210,31,Sold,,,https://www.redfin.com/MD/Waldorf/3683-Red-Bud-Ct-20602/home/14417611,BRIGHT MLS,MDCH148934,N,Y,38.6016942,-76.8785634
PAST SALE,April-29-2021,Single Family Residential,1410 Boswell Ct,Waldorf,MD,20602,380000,4,2.5,ST CHARLES SUB - BANNIST,2149,7700,1978,220,177,,Sold,,,https://www.redfin.com/MD/Waldorf/1410-Boswell-Ct-20602/home/14424409,BRIGHT MLS,MDCH223154,N,Y,38.5940655,-76.9059287
PAST SALE,March-25-2019,Single Family Residential,2256 Hopkins Ct,Waldorf,MD,20602,327500,4,2.5,ST CHARLES SUB - WAKEFIE,2376,26479,1979,986,138,50,Sold,,,https://www.redfin.com/MD/Waldorf/2256-Hopkins-Ct-20602/home/14406624,BRIGHT MLS,MDCH193710,N,Y,38.6019644,-76.8863911
PAST SALE,December-31-2020,Single Family Residential,4838 Castlewood Ct,Waldorf,MD,20602,502000,6,3.5,ST CHARLES SUB - SHEFFIE,4167,8841,2004,339,120,80,Sold,,,https://www.redfin.com/MD/Waldorf/4838-Castlewood-Ct-20602/home/14412328,BRIGHT MLS,MDCH219410,N,Y,38.5889537,-76.9104836
PAST SALE,September-3-2021,Single Family Residential,3530 Pine Cone Cir,Waldorf,MD,20602,391500,3,2.5,ST CHARLES SUB - HUNTING,1900,9727,1986,93,206,38,Sold,,,https://www.redfin.com/MD/Waldorf/3530-Pine-Cone-Cir-20602/home/14405625,BRIGHT MLS,MDCH2001840,N,Y,38.6043847,-76.8806007
PAST SALE,May-13-2019,Townhouse,5355 Blue Crab Ln,Waldorf,MD,20602,335000,4,3.0,ST CHARLES SUB - FIELDSI,2646,1786,2014,937,127,46,Sold,,,https://www.redfin.com/MD/Waldorf/5355-Blue-Crab-Ln-20602/home/64348527,BRIGHT MLS,MDCH195062,N,Y,38.5605377,-76.9101628
PAST SALE,September-3-2021,Single Family Residential,3797 Merseyside Pl,Waldorf,MD,20602,355000,3,3.0,ST CHARLES SUB - HUNTING,2350,1600,2002,93,151,61,Sold,,,https://www.redfin.com/MD/Waldorf/3797-Merseyside-Pl-20602/home/14417847,BRIGHT MLS,MDCH2001050,N,Y,38.6124785,-76.8997841
PAST SALE,May-21-2021,Single Family Residential,310 Tompkins Ln,Waldorf,MD,20602,377000,4,2.0,ST CHARLES SUB - CARRING,2000,10650,1969,198,189,,Sold,,,https://www.redfin.com/MD/Waldorf/310-Tompkins-Ln-20602/home/14382051,BRIGHT MLS,MDCH220692,N,Y,38.6001678,-76.9147531
PAST SALE,June-30-2021,Townhouse,12402 Turtle Dove Pl,Waldorf,MD,20602,323000,3,3.5,LAKEWOOD EST SUB,1936,,1991,158,167,63,Sold,,,https://www.redfin.com/MD/Waldorf/12402-Turtle-Dove-Pl-20602/home/14413792,BRIGHT MLS,MDCH224410,N,Y,38.6110768,-76.8787027
PAST SALE,October-30-2020,Single Family Residential,11009 Mcintosh Ct,Waldorf,MD,20602,550000,6,3.5,Waldorf,5066,9107,2016,401,109,98,Sold,,,https://www.redfin.com/MD/Waldorf/11009-McIntosh-Ct-20602/home/85690139,BRIGHT MLS,MDCH217936,N,Y,38.5893963,-76.897902
PAST SALE,October-1-2021,Single Family Residential,12936 Broadview Run Dr,Waldorf,MD,20602,625000,4,3.5,BROADVIEW SUB,4194,54450,1996,65,149,15,Sold,,,https://www.redfin.com/MD/Waldorf/12936-Broadview-Run-Dr-20602/home/14408838,BRIGHT MLS,MDCH2000588,N,Y,38.5795009,-76.8649118
PAST SALE,,Townhouse,769 Hatfield Ct,Waldorf,MD,20602,215000,,1.5,,1056,5580,1979,,204,,,,,https://www.redfin.com/MD/Waldorf/769-Hatfield-Ct-20602/home/14403147,,,N,Y,38.6053573,-76.906498
PAST SALE,June-4-2021,Single Family Residential,12894 Broadview Run Dr,Waldorf,MD,20602,640000,4,2.5,BROADVIEW SUB,3519,71438,1999,184,182,25,Sold,,,https://www.redfin.com/MD/Waldorf/12894-Broadview-Run-Dr-20602/home/14413019,BRIGHT MLS,MDCH222894,N,Y,38.5798618,-76.8679072
PAST SALE,November-12-2020,Townhouse,4615 Scottsdale Pl,Waldorf,MD,20602,366500,3,3.0,ST CHARLES SUB - SHEFFIE,2400,2372,2008,388,153,112,Sold,,,https://www.redfin.com/MD/Waldorf/4615-Scottsdale-Pl-20602/home/15152872,BRIGHT MLS,MDCH217222,N,Y,38.5863764,-76.9157271
PAST SALE,,Single Family Residential,802 Kirkwood Rd,Waldorf,MD,20602,254000,,1.5,,1536,8245,1967,,165,,,,,https://www.redfin.com/MD/Waldorf/802-Kirkwood-Rd-20602/home/14421949,,,N,Y,38.6079475,-76.9070657
PAST SALE,September-25-2020,Single Family Residential,12130 Dornock Ct,Waldorf,MD,20602,415000,5,3.5,ST CHARLES SUB - SHEFFIE,3281,10135,2003,436,126,74,Sold,,,https://www.redfin.com/MD/Waldorf/12130-Dornock-Ct-20602/home/14418944,BRIGHT MLS,MDCH216564,N,Y,38.5879883,-76.9030508
PAST SALE,,Single Family Residential,11883 Winged Foot Ct,Waldorf,MD,20602,455000,,4.5,,3816,7944,2013,,119,,,,,https://www.redfin.com/MD/Waldorf/11883-Winged-Foot-Ct-20602/home/50274552,,,N,Y,38.5724184,-76.9074484
PAST SALE,April-10-2019,Single Family Residential,3479 Pine Cone Cir,Waldorf,MD,20602,325000,4,2.0,ST CHARLES IND PARK SUB,1909,25448,1984,970,170,41,Sold,,,https://www.redfin.com/MD/Waldorf/3479-Pine-Cone-Cir-20602/home/14383314,BRIGHT MLS,MDCH162882,N,Y,38.606852,-76.8814418
PAST SALE,September-4-2020,Single Family Residential,5538 Peanuts Ln,Waldorf,MD,20602,375000,4,4.0,ST CHARLES SUB - FIELDSI,2520,2265,2014,457,149,50,Sold,,,https://www.redfin.com/MD/Waldorf/5538-Peanuts-Ln-20602/home/58649858,BRIGHT MLS,MDCH215088,N,Y,38.5593297,-76.9104965
PAST SALE,April-17-2020,Single Family Residential,11943 Winged Foot Ct,Waldorf,MD,20602,430000,5,3.5,ST CHARLES SUB - GLENEAG,4208,8165,2013,597,102,70,Sold,,,https://www.redfin.com/MD/Waldorf/11943-Winged-Foot-Ct-20602/home/50274456,BRIGHT MLS,MDCH209514,N,Y,38.5696335,-76.9072458
PAST SALE,January-23-2019,Townhouse,4841 Olympia Pl,Waldorf,MD,20602,270000,3,2.5,ST CHARLES SUB - SHEFFIE,1720,1732,2009,1047,157,90,Sold,,,https://www.redfin.com/MD/Waldorf/4841-Olympia-Pl-20602/home/17883715,BRIGHT MLS,1003690448,N,Y,38.5816929,-76.9119949
PAST SALE,March-31-2021,Townhouse,3421-D Walnut Ct,Waldorf,MD,20602,270000,3,1.5,ST CHARLES SUB - HUNTING,1106,,1983,249,244,92,Sold,,,https://www.redfin.com/MD/Waldorf/3421-Walnut-Ct-20602/unit-D/home/14385044,BRIGHT MLS,MDCH221550,N,Y,38.6084374,-76.8855699
PAST SALE,September-17-2021,Single Family Residential,3001 Huntington Cir,Waldorf,MD,20602,412000,4,2.0,ST CHARLES SUB - HUNTING,1960,12764,1982,79,210,40,Sold,,,https://www.redfin.com/MD/Waldorf/3001-Huntington-Cir-20602/home/14423090,BRIGHT MLS,MDCH2002248,N,Y,38.6102155,-76.9023892
PAST SALE,October-14-2021,Single Family Residential,708 University Dr,Waldorf,MD,20602,390000,4,2.0,ST CHARLES SUB - CARRING,2028,12225,1975,52,192,,Sold,,,https://www.redfin.com/MD/Waldorf/708-University-Dr-20602/home/14404010,BRIGHT MLS,MDCH2003436,N,Y,38.5897849,-76.9223382
PAST SALE,May-26-2021,Townhouse,5658 Barnstormers Ln,Waldorf,MD,20602,425000,4,4.0,ST CHARLES SUB - FIELDSI,2520,2265,2017,193,169,53,Sold,,,https://www.redfin.com/MD/Waldorf/5658-Barnstormers-Ln-20602/home/143031488,BRIGHT MLS,MDCH223276,N,Y,38.5586088,-76.9098125
PAST SALE,April-1-2019,Townhouse,11821 Tower Hamlets Pl,Waldorf,MD,20602,255000,2,2.5,ST CHARLES SUB - GLENEAG,1430,1537,2013,979,178,56,Sold,,,https://www.redfin.com/MD/Waldorf/11821-Tower-Hamlets-Pl-20602/home/50274615,BRIGHT MLS,MDCH183942,N,Y,38.577651,-76.9072437
PAST SALE,November-19-2020,Townhouse,5406 Saint Rita Dr,Waldorf,MD,20602,363000,4,2.5,ST CHARLES SUB - FIELDSI,2172,1900,2015,381,167,4,Sold,,,https://www.redfin.com/MD/Waldorf/5406-St-Rita-Dr-20602/home/85690211,BRIGHT MLS,MDCH216990,N,Y,38.5597349,-76.9074984
PAST SALE,November-22-2021,Townhouse,5103-B Shepherd Dr,Waldorf,MD,20602,195000,3,2.5,ST CHARLES SUB - BANNIST,1350,,1977,13,144,300,Sold,,,https://www.redfin.com/MD/Waldorf/5103-Shepherd-Dr-20602/unit-B/home/15155900,BRIGHT MLS,MDCH2002982,N,Y,38.5918182,-76.9021871
PAST SALE,May-15-2019,Single Family Residential,813 Belfast Rd,Waldorf,MD,20602,305000,4,2.0,ST CHARLES SUB - CARRING,1689,8600,1969,935,181,,Sold,,,https://www.redfin.com/MD/Waldorf/813-Belfast-Rd-20602/home/15153600,BRIGHT MLS,MDCH194214,N,Y,38.6084532,-76.9083265
PAST SALE,May-13-2021,Townhouse,11846 Sunset Ridge Pl,Waldorf,MD,20602,370000,3,3.0,ST CHARLES SUB - GLENEAG,2212,2800,2013,206,167,75,Sold,,,https://www.redfin.com/MD/Waldorf/11846-Sunset-Ridge-Pl-20602/home/50274734,BRIGHT MLS,MDCH223282,N,Y,38.5721583,-76.903862
PAST SALE,June-10-2021,Single Family Residential,2574 Sussex Ct,Waldorf,MD,20602,382500,4,2.0,ST CHARLES SUB - WAKEFIE,1892,8347,1979,178,202,39,Sold,,,https://www.redfin.com/MD/Waldorf/2574-Sussex-Ct-20602/home/14419848,BRIGHT MLS,MDCH223688,N,Y,38.5942822,-76.8924756
PAST SALE,June-30-2020,Townhouse,5626 Barnstormers Ln,Waldorf,MD,20602,341000,4,3.5,ST CHARLES SUB - FIELDSI,2534,2265,2017,523,135,51,Sold,,,https://www.redfin.com/MD/Waldorf/5626-Barnstormers-Ln-20602/home/142972384,BRIGHT MLS,MDCH214162,N,Y,38.558534,-76.9111981
PAST SALE,June-14-2021,Single Family Residential,153 Jefferson Rd,Waldorf,MD,20602,375000,4,2.0,ST CHARLES SUB - CARRING,2012,10370,1969,174,186,,Sold,,,https://www.redfin.com/MD/Waldorf/153-Jefferson-Rd-20602/home/14387297,BRIGHT MLS,MDCH223952,N,Y,38.6038022,-76.9248957
PAST SALE,April-16-2021,Townhouse,12417 Turtle Dove Pl,Waldorf,MD,20602,317000,4,3.5,LAKEWOOD ESTATES,1762,1307,1992,233,180,190,Sold,,,https://www.redfin.com/MD/Waldorf/12417-Turtle-Dove-Pl-20602/home/14404150,BRIGHT MLS,MDCH222008,N,Y,38.6107995,-76.8778838
PAST SALE,December-11-2020,Single Family Residential,218 Middleton Rd,Waldorf,MD,20602,325000,3,2.0,ST CHARLES SUB - CARRING,1543,16560,1966,359,211,,Sold,,,https://www.redfin.com/MD/Waldorf/218-Middleton-Rd-20602/home/14424439,BRIGHT MLS,MDCH217862,N,Y,38.6040571,-76.9168101
PAST SALE,October-29-2021,Single Family Residential,12297 Revolution Ct,Waldorf,MD,20602,600000,4,3.5,ST CHARLES SUB - FIELDSI,4224,8843,2018,37,142,51,Sold,,,https://www.redfin.com/MD/Waldorf/12297-Revolution-Ct-20602/home/165861027,BRIGHT MLS,MDCH2001882,N,Y,38.55651,-76.914834
MLS Listing,,Townhouse,3994 Northgate Pl,Waldorf,MD,20602,269900,3,1.5,ST CHARLES SUB - HUNTING,1240,1742,1984,1,218,97,Active,,,https://www.redfin.com/MD/Waldorf/3994-Northgate-Pl-20602/home/14401641,BRIGHT MLS,MDCH2006252,N,Y,38.6140076,-76.8842831
MLS Listing,,Single Family Residential,2321 Valery Ct,Waldorf,MD,20602,318000,3,1.0,ST CHARLES SUB - WAKEFIE,1257,9175,1983,1,253,33,Active,,,https://www.redfin.com/MD/Waldorf/2321-Valery-Ct-20602/home/14385712,BRIGHT MLS,MDCH2006034,N,Y,38.5985868,-76.8901049
MLS Listing,,Single Family Residential,3521 Norwood Ct,Waldorf,MD,20602,315000,3,2.0,ST CHARLES SUB - BANNIST,1506,6000,1979,2,209,35,Active,,,https://www.redfin.com/MD/Waldorf/3521-Norwood-Ct-20602/home/14409363,BRIGHT MLS,MDCH2006248,N,Y,38.5957393,-76.8994881
MLS Listing,,Single Family Residential,11016 Mcintosh Ct,Waldorf,MD,20602,547500,4,3.5,GROVES AT PINEY CHURCH,4405,10125,2017,2,124,125,Active,,,https://www.redfin.com/MD/Waldorf/11016-McIntosh-Ct-20602/home/85690126,BRIGHT MLS,MDCH2005684,N,Y,38.5896513,-76.8972818
MLS Listing,,Single Family Residential,4717 Sheffield Cir,Waldorf,MD,20602,524900,4,4.5,ST CHARLES SUB - SHEFFIE,3657,7856,2007,2,144,100,Active,,,https://www.redfin.com/MD/Waldorf/4717-Sheffield-Cir-20602/home/14402403,BRIGHT MLS,MDCH2006100,N,Y,38.584739,-76.9053481
MLS Listing,,Townhouse,12604 Willow View Pl,Waldorf,MD,20602,350000,3,3.0,LAKEWOOD EST SUB,1904,1599,1995,3,184,63,Active,December-5-2021 01:00 PM,December-5-2021 03:00 PM,https://www.redfin.com/MD/Waldorf/12604-Willowview-Pl-20602/home/14385567,BRIGHT MLS,MDCH2005996,N,Y,38.6110054,-76.8792468
MLS Listing,,Townhouse,51 Keepsake Pl,Waldorf,MD,20602,199900,3,1.5,ST CHARLES SUB - WAKEFIE,1368,,1980,3,146,59,Active,,,https://www.redfin.com/MD/Waldorf/51-Keepsake-Pl-20602/home/14406149,BRIGHT MLS,MDCH2006180,N,Y,38.5984,-76.8820696
MLS Listing,,Townhouse,4525 Unit B Ratcliff Pl,Waldorf,MD,20602,230000,3,2.5,ST CHARLES SUB - BANNIST,1350,,1977,4,170,321,Active,,,https://www.redfin.com/MD/St-Charles/Ratcliff-Pl-20602/home/177421505,BRIGHT MLS,MDCH2006088,N,Y,38.59608,-76.90229
MLS Listing,,Townhouse,2603 Ferguson Ct,Waldorf,MD,20602,265000,3,2.0,ST CHARLES SUB - BANNIST,1100,5227,1977,6,241,28,Active,,,https://www.redfin.com/MD/Waldorf/2603-Ferguson-Ct-20602/home/14380734,BRIGHT MLS,MDCH2005718,N,Y,38.6002616,-76.9074125
MLS Listing,,Single Family Residential,904 Prentiss Rd,Waldorf,MD,20602,349900,3,1.5,ST CHARLES SUB - CARRING,1689,9895,1967,6,207,,Active,,,https://www.redfin.com/MD/Waldorf/904-Prentiss-Rd-20602/home/14375938,BRIGHT MLS,MDCH2006024,N,Y,38.6078915,-76.9153629
MLS Listing,,Townhouse,12401 Turtle Dove Pl,Waldorf,MD,20602,398900,3,3.5,LAKEWOOD EST SUB,3132,4200,1991,10,127,60,Active,,,https://www.redfin.com/MD/Waldorf/12401-Turtle-Dove-Pl-20602/home/14397150,BRIGHT MLS,MDCH2005954,N,Y,38.6111767,-76.8782778
MLS Listing,,Single Family Residential,2145 Freemantle Ct,Waldorf,MD,20602,299999,3,2.0,ST CHARLES SUB - WAKEFIE,1050,6000,1983,12,286,35,Active,,,https://www.redfin.com/MD/Waldorf/2145-Freemantle-Ct-20602/home/14402576,BRIGHT MLS,MDCH2005924,N,Y,38.6016178,-76.8907243
MLS Listing,,Townhouse,11867 Saint Linus Dr,Waldorf,MD,20602,409000,3,2.5,ST CHARLES SUB - FIELDSI,2268,2265,2013,14,180,46,Active,,,https://www.redfin.com/MD/Waldorf/11867-St-Linus-Dr-20602/home/50274797,BRIGHT MLS,MDCH2005634,N,Y,38.5590155,-76.9081126
MLS Listing,,Single Family Residential,2596 Poston Dr,Waldorf,MD,20602,319999,3,2.5,ST CHARLES SUB - WAKEFIE,1560,9304,1979,14,205,42,Active,,,https://www.redfin.com/MD/Waldorf/2596-Poston-Dr-20602/home/14397499,BRIGHT MLS,MDCH2005648,N,Y,38.5938555,-76.8932167
MLS Listing,,Townhouse,5135-C Shawe Pl Unit 14-M,Waldorf,MD,20602,210000,3,2.0,ST CHARLES SUB - BANNIST,1078,,1977,18,195,314,Active,,,https://www.redfin.com/MD/Waldorf/5135C-Shawe-Pl-20602/unit-14-M/home/40189407,BRIGHT MLS,MDCH2005764,N,Y,38.5909591,-76.9027381
MLS Listing,,Townhouse,5428 Doubleday Ln,Waldorf,MD,20602,405000,3,2.5,ST CHARLES SUB - FIELDSI,2465,1786,2014,20,164,54,Active,,,https://www.redfin.com/MD/WALDORF/5428-DOUBLEDAY-LN-20602/home/64348161,BRIGHT MLS,MDCH2005686,N,Y,38.560126,-76.910142
MLS Listing,,Single Family Residential,2457 Yardley Ct,Waldorf,MD,20602,330000,3,1.5,ST CHARLES SUB - WAKEFIE,1380,6000,1980,20,239,38,Active,,,https://www.redfin.com/MD/Waldorf/2457-Yardley-Ct-20602/home/14389416,BRIGHT MLS,MDCH2005550,N,Y,38.6013932,-76.8923097
MLS Listing,,Single Family Residential,2369 Walbrook Ct,Waldorf,MD,20602,305000,3,1.5,ST CHARLES SUB - WAKEFIE,1543,8975,1983,21,198,25,Active,,,https://www.redfin.com/MD/Waldorf/2369-Walbrook-Ct-20602/home/14411314,BRIGHT MLS,MDCH2004908,N,Y,38.5995953,-76.8913497
MLS Listing,,Townhouse,4503-C Ruston Pl Unit 43-M,Waldorf,MD,20602,165000,3,2.0,ST CHARLES SUB - BANNIST,1078,,1977,25,153,315,Active,,,https://www.redfin.com/MD/Waldorf/4503-Ruston-Pl-20602/unit-43-M/home/14375439,BRIGHT MLS,MDCH2005520,N,Y,38.5933664,-76.9012272
MLS Listing,,Townhouse,11768 Sunningdale Pl,Waldorf,MD,20602,310000,2,2.5,ST CHARLES SUB - GLENEAG,1780,1529,2013,27,174,65,Active,,,https://www.redfin.com/MD/Waldorf/11768-Sunningdale-Pl-20602/home/50274504,BRIGHT MLS,MDCH2005290,N,Y,38.5768423,-76.9069658
MLS Listing,,Townhouse,1012 Red Lion Ct,Waldorf,MD,20602,263000,3,1.5,ST CHARLES SUB - CARRING,1380,3049,1980,27,191,27,Active,,,https://www.redfin.com/MD/Waldorf/1012-Red-Lion-Ct-20602/home/14423902,BRIGHT MLS,MDCH2005484,N,Y,38.6011337,-76.9112816
MLS Listing,,Single Family Residential,3791 Old Washington Rd,Waldorf,MD,20602,349900,4,2.0,WALDORF PARK SUB,1560,25003,1965,28,224,,Active,,,https://www.redfin.com/MD/Waldorf/3791-Old-Washington-Rd-20602/home/14394907,BRIGHT MLS,MDCH2005248,N,Y,38.6076282,-76.9261247
MLS Listing,,Single Family Residential,406 University Dr,Waldorf,MD,20602,358900,4,1.5,ST CHARLES SUB - CARRING,1689,11218,1971,33,212,,Active,,,https://www.redfin.com/MD/Waldorf/406-University-Dr-20602/home/14381493,BRIGHT MLS,MDCH2005268,N,Y,38.5980252,-76.9187275
MLS Listing,,Single Family Residential,4835 Quade Cir,Waldorf,MD,20602,393000,3,3.0,PINE HILL EST SUB,2184,32670,1973,39,180,,Active,,,https://www.redfin.com/MD/Waldorf/4835-Quade-Cir-20602/home/14408483,BRIGHT MLS,MDCH2004968,N,Y,38.5778273,-76.8998609
MLS Listing,,Townhouse,12431 Turtle Dove Pl,Waldorf,MD,20602,427900,3,3.5,LAKEWOOD EST SUB,2068,1307,1993,39,207,63,Active,,,https://www.redfin.com/MD/Waldorf/12431-Turtle-Dove-Pl-20602/home/14415157,BRIGHT MLS,MDCH2004980,N,Y,38.6104755,-76.8774881
MLS Listing,,Townhouse,1064 Dorset Dr,Waldorf,MD,20602,239900,2,2.5,ST CHARLES SUB - CARRING,1380,,1979,40,174,44,Active,,,https://www.redfin.com/MD/Waldorf/1064-Dorset-Dr-20602/home/14389545,BRIGHT MLS,MDCH2004926,N,Y,38.6001406,-76.9091046
MLS Listing,,Townhouse,3052 Heathcote Rd,Waldorf,MD,20602,222900,3,1.0,ST CHARLES SUB - HUNTING,1034,720,1982,44,216,59,Active,,,https://www.redfin.com/MD/Waldorf/3052-Heathcote-Rd-20602/home/14403981,BRIGHT MLS,MDCH2004858,N,Y,38.608397,-76.8927934
MLS Listing,,Single Family Residential,804 Roxbury Ct,Waldorf,MD,20602,335000,3,1.5,ST CHARLES SUB - CARRING,1536,9845,1967,52,218,,Active,,,https://www.redfin.com/MD/Waldorf/804-Roxbury-Ct-20602/home/14395988,BRIGHT MLS,MDCH2000319,N,Y,38.6093511,-76.9042045
MLS Listing,,Single Family Residential,2514 Radnor,Waldorf,MD,20602,335000,3,2.0,ST CHARLES SUB - WAKEFIE,1506,12196,1979,61,222,23,Active,,,https://www.redfin.com/MD/Waldorf/2514-Radnor-Ct-20602/home/14422722,BRIGHT MLS,MDCH2003786,N,Y,38.5945732,-76.8897275
MLS Listing,,Townhouse,12432 Derek Pl,Waldorf,MD,20602,329900,3,2.5,LAKEWOOD EST SUB,2055,1500,1993,65,161,60,Active,,,https://www.redfin.com/MD/Waldorf/12432-Derek-Pl-20602/home/14384587,BRIGHT MLS,MDCH2004450,N,Y,38.6117361,-76.8795218
MLS Listing,,Single Family Residential,12987 Laplata Rd,Waldorf,MD,20602,775000,5,3.5,ST CHARLES,4360,165964,1904,70,178,,Active,,,https://www.redfin.com/MD/Waldorf/12987-La-Plata-Rd-20602/home/14377403,BRIGHT MLS,MDCH2004260,N,Y,38.5619484,-76.8622992
MLS Listing,,Townhouse,3424 Milstead Ct,Waldorf,MD,20602,250000,3,1.0,ST CHARLES SUB - BANNIST,1056,3300,1977,70,237,27,Active,,,https://www.redfin.com/MD/Waldorf/3424-Milstead-Ct-20602/home/14374366,BRIGHT MLS,MDCH2004136,N,Y,38.5967259,-76.8982545
MLS Listing,,Townhouse,3716 Midlothian Pl,Waldorf,MD,20602,330000,3,2.5,ST CHARLES SUB - HUNTING,2266,1600,2000,84,146,63,Active,,,https://www.redfin.com/MD/Waldorf/3716-Midlothian-Pl-20602/home/14404399,BRIGHT MLS,MDCH2003706,N,Y,38.6136215,-76.9007604
MLS Listing,,Vacant Land,19 Henry Ford Cir,Waldorf,MD,20601,350000,,,ST CHARLES IND PARK SUB,,121532,,153,,,Active,,,https://www.redfin.com/MD/Waldorf/19-Henry-Ford-Cir-20602/home/18905840,BRIGHT MLS,MDCH2000848,N,Y,38.613368,-76.896458
MLS Listing,,Vacant Land,11981 Montgomery Ln,Waldorf,MD,20602,175000,,,EAST WALDORF SUB,,29621,,262,,,Active,,,https://www.redfin.com/MD/Waldorf/11981-Montgomery-Ln-20602/home/112945719,BRIGHT MLS,MDCH222532,N,Y,38.6183952,-76.8961499
PAST SALE,October-30-2019,Townhouse,4800 Underwood Ct,Waldorf,MD,20602,219000,3,1.0,ST CHARLES SUB - BANNIST,1428,,1977,767,153,25,Sold,,,https://www.redfin.com/MD/Waldorf/4800-Underwood-Ct-20602/home/14396904,BRIGHT MLS,MDCH205966,N,Y,38.5896462,-76.9037956
PAST SALE,March-5-2021,Single Family Residential,526 University Dr,Waldorf,MD,20602,254000,3,2.0,ST CHARLES SUB - CARRING,1500,9698,1978,275,169,,Sold,,,https://www.redfin.com/MD/Waldorf/526-University-Dr-20602/home/14397166,BRIGHT MLS,MDCH220568,N,Y,38.5917571,-76.9159876
PAST SALE,April-7-2021,Townhouse,3879 Pine Cone Cir,Waldorf,MD,20602,265000,3,1.5,ST CHARLES SUB - HUNTING,1240,1810,1983,242,214,118,Sold,,,https://www.redfin.com/MD/Waldorf/3879-Pine-Cone-Cir-20602/home/14396878,BRIGHT MLS,MDCH221972,N,Y,38.6058166,-76.8861043
PAST SALE,August-13-2021,Single Family Residential,11963 Winged Foot Ct,Waldorf,MD,20602,527000,5,3.5,ST CHARLES SUB - GLENEAG,4000,10540,2012,114,132,68,Sold,,,https://www.redfin.com/MD/Waldorf/11963-Winged-Foot-Ct-20602/home/50274450,BRIGHT MLS,MDCH224986,N,Y,38.5688061,-76.9067054
PAST SALE,February-15-2019,Single Family Residential,2700 Grindall Ct,Waldorf,MD,20602,289900,4,2.0,ST CHARLES SUB - BANNIST,1032,6000,1978,1024,281,50,Sold,,,https://www.redfin.com/MD/Waldorf/2700-Grindall-Ct-20602/home/14399149,BRIGHT MLS,1009918012,N,Y,38.5975587,-76.9053587
PAST SALE,March-16-2020,Townhouse,5133-B Shawe Pl Unit 13-KR,Waldorf,MD,20602,160000,3,2.5,ST CHARLES SUB - BANNIST,1350,,1977,629,119,318,Sold,,,https://www.redfin.com/MD/Waldorf/5133B-Shawe-Pl-20602/unit-13-KR/home/22029297,BRIGHT MLS,MDCH210254,N,Y,38.5908634,-76.9025278
PAST SALE,June-22-2021,Townhouse,5427 Doubleday Ln,Waldorf,MD,20602,391000,3,2.5,ST CHARLES SUB - FIELDSI,2160,2265,2014,166,181,52,Sold,,,https://www.redfin.com/MD/WALDORF/5427-DOUBLEDAY-LN-20602/home/59254651,BRIGHT MLS,MDCH224590,N,Y,38.559741,-76.910197
PAST SALE,December-28-2020,Single Family Residential,14 Pagnell Cir,Waldorf,MD,20602,275000,3,2.0,ST CHARLES SUB - CARRING,1377,11690,1971,342,200,,Sold,,,https://www.redfin.com/MD/Waldorf/14-Pagnell-Cir-20602/home/14390808,BRIGHT MLS,MDCH215840,N,Y,38.59698,-76.919981
PAST SALE,April-22-2021,Townhouse,5061 Ottawa Park Pl,Waldorf,MD,20602,357000,3,3.0,ST CHARLES SUB - SHEFFIE,2192,1870,2009,227,163,100,Sold,,,https://www.redfin.com/MD/Waldorf/5061-Ottawa-Park-Pl-20602/home/23012221,BRIGHT MLS,MDCH222740,N,Y,38.5799994,-76.9095859
PAST SALE,November-8-2019,Single Family Residential,12849 Owens Dr,Waldorf,MD,20602,305000,3,2.0,CHARLES CO GARDENS SUB,2262,15000,1963,758,135,,Sold,,,https://www.redfin.com/MD/Waldorf/12849-Owens-Dr-20602/home/14391889,BRIGHT MLS,MDCH205874,N,Y,38.5848788,-76.8657676
PAST SALE,November-25-2020,Single Family Residential,1201 Bannister Cir,Waldorf,MD,20602,255000,3,1.5,ST CHARLES SUB - BANNIST,1838,10349,1976,375,139,40,Sold,,,https://www.redfin.com/MD/Waldorf/1201-Bannister-Cir-20602/home/14396530,BRIGHT MLS,MDCH209622,N,Y,38.593578,-76.8966916
PAST SALE,June-11-2020,Single Family Residential,3292 Huntington Cir,Waldorf,MD,20602,295000,4,3.5,ST CHARLES SUB - HUNTING,1832,4623,1992,542,161,42,Sold,,,https://www.redfin.com/MD/Waldorf/3292-Huntington-Cir-20602/home/14383268,BRIGHT MLS,MDCH213092,N,Y,38.6104373,-76.8924305
PAST SALE,December-28-2020,Single Family Residential,11660 Heart River Ct,Waldorf,MD,20602,455000,4,4.0,ST CHARLES SUB - SHEFFIE,3834,6071,2006,342,119,80,Sold,,,https://www.redfin.com/MD/Waldorf/11660-Heart-River-Ct-20602/home/23022935,BRIGHT MLS,MDCH219052,N,Y,38.5853826,-76.907091
PAST SALE,November-18-2019,Single Family Residential,11664 Heart River Ct,Waldorf,MD,20602,370000,4,2.5,ST CHARLES SUB - SHEFFIE,2502,6176,2005,748,148,43,Sold,,,https://www.redfin.com/MD/Waldorf/11664-Heart-River-Ct-20602/home/23022936,BRIGHT MLS,MDCH205160,N,Y,38.5852286,-76.907037
PAST SALE,May-5-2021,Townhouse,4845 Olympia Pl,Waldorf,MD,20602,322500,3,2.5,ST CHARLES SUB - SHEFFIE,1732,2184,2009,214,186,128,Sold,,,https://www.redfin.com/MD/Waldorf/4845-Olympia-Pl-20602/home/23027298,BRIGHT MLS,MDCH223136,N,Y,38.5815736,-76.9119511
PAST SALE,,Townhouse,4879 Olympia Pl,Waldorf,MD,20602,310000,,2.5,,1744,2382,2009,,178,,,,,https://www.redfin.com/MD/Waldorf/4879-Olympia-Pl-20602/home/23027300,,,N,Y,38.5806476,-76.9114942
PAST SALE,November-8-2019,Single Family Residential,4777 Monterey Ct,Waldorf,MD,20602,395000,4,3.5,ST CHARLES SUB - SHEFFIE,3287,6536,2010,758,120,80,Sold,,,https://www.redfin.com/MD/Waldorf/4777-Monterey-Ct-20602/home/23011775,BRIGHT MLS,MDCH205828,N,Y,38.5823474,-76.9098574
PAST SALE,May-7-2021,Single Family Residential,3088 Huntington Cir,Waldorf,MD,20602,369000,4,3.0,ST CHARLES SUB - HUNTING,2080,17049,1983,212,177,39,Sold,,,https://www.redfin.com/MD/Waldorf/3088-Huntington-Cir-20602/home/14405144,BRIGHT MLS,MDCH220026,N,Y,38.6113473,-76.894412
PAST SALE,May-3-2019,Single Family Residential,231 Garner Ave,Waldorf,MD,20602,255000,4,1.5,ST CHARLES SUB - CARRING,1673,11400,1966,947,152,,Sold,,,https://www.redfin.com/MD/Waldorf/231-Garner-Ave-20602/home/14384955,BRIGHT MLS,MDCH200324,N,Y,38.6018017,-76.9175976
PAST SALE,August-11-2020,Single Family Residential,11720 Muirfield Ct,Waldorf,MD,20602,436000,5,3.5,ST CHARLES SUB - SHEFFIE,3048,8016,2010,481,143,80,Sold,,,https://www.redfin.com/MD/Waldorf/11720-Muirfield-Ct-20602/home/23008701,BRIGHT MLS,MDCH214266,N,Y,38.5837167,-76.9118824
PAST SALE,July-8-2021,Townhouse,3877 Pine Cone Cir,Waldorf,MD,20602,265000,3,1.5,ST CHARLES SUB - HUNTING,1240,1730,1983,150,214,105,Sold,,,https://www.redfin.com/MD/Waldorf/3877-Pine-Cone-Cir-20602/home/14396321,BRIGHT MLS,MDCH225388,N,Y,38.6058376,-76.8860243
PAST SALE,June-18-2019,Single Family Residential,5748 River Shark,Waldorf,MD,20602,511840,4,2.5,FIELDSIDE AT ST CHARLES,3571,8050,2019,901,143,4,Sold,,,https://www.redfin.com/MD/Waldorf/5748-River-Shark-Ln-20602/home/167592525,BRIGHT MLS,MDCH162822,N,Y,38.55758,-76.909419
PAST SALE,June-25-2020,Single Family Residential,11663 Medinah St,Waldorf,MD,20602,377000,3,3.5,ST CHARLES SUB - SHEFFIE,2594,6504,2009,528,145,133,Sold,,,https://www.redfin.com/MD/Waldorf/11663-Medinah-St-20602/home/23008699,BRIGHT MLS,MDCH214102,N,Y,38.583766,-76.9107969
PAST SALE,June-22-2020,Townhouse,5077 Ottawa Park Pl,Waldorf,MD,20602,325000,4,3.5,ST CHARLES SUB - SHEFFIE,2192,2622,2009,531,148,77,Sold,,,https://www.redfin.com/MD/Waldorf/5077-Ottawa-Park-Pl-20602/home/23009125,BRIGHT MLS,MDCH213560,N,Y,38.5795104,-76.9093109
PAST SALE,February-27-2019,Townhouse,46 Keepsake Pl,Waldorf,MD,20602,203000,3,1.5,ST CHARLES SUB - WAKEFIE,1368,1546,1980,1012,148,54,Sold,,,https://www.redfin.com/MD/Waldorf/46-Keepsake-Pl-20602/home/14407709,BRIGHT MLS,1005678492,N,Y,38.5982363,-76.8823672
PAST SALE,May-23-2019,Townhouse,4902 Olympia Pl,Waldorf,MD,20602,310000,3,3.0,ST CHARLES SUB - SHEFFIE,2192,1967,2009,927,141,127,Sold,,,https://www.redfin.com/MD/Waldorf/4902-Olympia-Pl-20602/home/23026891,BRIGHT MLS,MDCH200100,N,Y,38.5809976,-76.9105942
PAST SALE,July-27-2021,Single Family Residential,1133 Harvard Rd,Waldorf,MD,20602,330000,5,2.0,ST CHARLES SUB - CARRING,2448,9553,1971,131,135,,Sold,,,https://www.redfin.com/MD/Waldorf/1133-Harvard-Rd-20602/home/14424347,BRIGHT MLS,MDCH2000272,N,Y,38.5984861,-76.9146309
PAST SALE,May-24-2021,Townhouse,3834 Gateview Pl,Waldorf,MD,20602,290000,3,2.5,ST CHARLES SUB - HUNTING,1672,2600,1993,195,173,65,Sold,,,https://www.redfin.com/MD/Waldorf/3834-Gateview-Pl-20602/home/14374685,BRIGHT MLS,MDCH223156,N,Y,38.611761,-76.8845617
PAST SALE,,Single Family Residential,1212 Addison Ct,Waldorf,MD,20602,179000,0,2.0,,1469,7000,1978,,122,,,,,https://www.redfin.com/MD/Waldorf/1212-Addison-Ct-20602/home/14383523,,,N,Y,38.5929871,-76.9048998
PAST SALE,August-27-2021,Townhouse,700 Brandon Cir,Waldorf,MD,20602,265000,3,1.5,ST CHARLES SUB - HUNTING,1056,6785,1980,100,251,48,Sold,,,https://www.redfin.com/MD/Waldorf/700-Brandon-Cir-20602/home/14408952,BRIGHT MLS,MDCH2001568,N,Y,38.6068888,-76.9033649
PAST SALE,March-2-2020,Single Family Residential,4675 Sheffield Cir,Waldorf,MD,20602,385000,4,3.5,ST CHARLES SUB - SHEFFIE,4107,8476,2008,643,94,83,Sold,,,https://www.redfin.com/MD/Waldorf/4675-Sheffield-Cir-20602/home/18989612,BRIGHT MLS,MDCH209278,N,Y,38.5841278,-76.9109831
PAST SALE,,Single Family Residential,Revolution Ct,"8, Bryantown",MD,20602,422635,,,,,5924,,,,,,,,https://www.redfin.com/MD/8-Bryantown/Revolution-Ct-20602/home/147464853,,,N,Y,38.5567558,-76.9142457
PAST SALE,April-30-2020,Single Family Residential,4982 Morraine St,Waldorf,MD,20602,404000,4,2.5,ST CHARLES SUB - GLENEAG,3696,8782,2010,584,109,67,Sold,,,https://www.redfin.com/MD/Waldorf/4982-Morraine-St-20602/home/23005370,BRIGHT MLS,MDCH207714,N,Y,38.5754585,-76.9127416
PAST SALE,October-28-2021,Townhouse,11706 Palm Desert Pl,Waldorf,MD,20602,410000,3,3.0,ST CHARLES SUB - GLENEAG,2192,2483,2011,38,187,75,Sold,,,https://www.redfin.com/MD/Waldorf/11706-Palm-Desert-Pl-20602/home/44594095,BRIGHT MLS,MDCH2003880,N,Y,38.5754343,-76.908
PAST SALE,November-4-2020,Townhouse,5025 Oyster Reef Pl,Waldorf,MD,20602,310000,3,2.5,ST CHARLES SUB - SHEFFIE,1720,2125,2010,396,180,111,Sold,,,https://www.redfin.com/MD/Waldorf/5025-Oyster-Reef-Pl-20602/home/23005350,BRIGHT MLS,MDCH210390,N,Y,38.5786854,-76.9099279
PAST SALE,July-10-2020,Single Family Residential,11631 Marston Moor Ln,Waldorf,MD,20602,445000,4,3.5,ST CHARLES SUB - GLENEAG,4115,10710,2013,513,108,71,Sold,,,https://www.redfin.com/MD/Waldorf/11631-Marston-Moor-Ln-20602/home/23002399,BRIGHT MLS,MDCH214564,N,Y,38.5773915,-76.9116696
PAST SALE,July-31-2019,Single Family Residential,3701 Red Bud Ct,Waldorf,MD,20602,255000,3,2.0,ST CHARLES SUB - HUNTING,1772,8607,1986,858,144,37,Sold,,,https://www.redfin.com/MD/Waldorf/3701-Red-Bud-Ct-20602/home/14394592,BRIGHT MLS,MDCH203136,N,Y,38.6018166,-76.8792236
PAST SALE,,Single Family Residential,815 Copley Ave,Waldorf,MD,20602,280000,,2.0,,1755,9600,1967,,160,,,,,https://www.redfin.com/MD/Waldorf/815-Copley-Ave-20602/home/14375266,,,N,Y,38.6100782,-76.9038236
PAST SALE,November-11-2020,Townhouse,4881 Olympia Pl,Waldorf,MD,20602,289900,3,2.5,ST CHARLES SUB - SHEFFIE,1720,1760,2009,389,169,,Sold,,,https://www.redfin.com/MD/Waldorf/4881-Olympia-Pl-20602/home/22999131,BRIGHT MLS,MDCH221850,N,Y,38.5805946,-76.9114532
PAST SALE,February-24-2021,Single Family Residential,4936 Coronado Ct,Waldorf,MD,20602,495000,4,3.5,ST CHARLES SUB - SHEFFIE,4272,9690,2005,284,116,84,Sold,,,https://www.redfin.com/MD/Waldorf/4936-Coronado-Ct-20602/home/14388510,BRIGHT MLS,MDCH221342,N,Y,38.5870409,-76.9078762
PAST SALE,October-22-2021,Single Family Residential,2806 Lomax Ct,Waldorf,MD,20602,345000,3,2.0,ST CHARLES SUB - BANNIST,1456,1456,1977,44,237,37,Sold,,,https://www.redfin.com/MD/Waldorf/2806-Lomax-Ct-20602/home/15153812,BRIGHT MLS,MDCH2003948,N,Y,38.5981556,-76.9013075
PAST SALE,,Townhouse,1016 Dorset Dr,Waldorf,MD,20602,285000,,2.5,,1380,4546,1980,,207,,,,,https://www.redfin.com/MD/Waldorf/1016-Dorset-Dr-20602/home/14393121,,,N,Y,38.6017298,-76.9092712
PAST SALE,October-30-2019,Single Family Residential,1102 Copley Ave,Waldorf,MD,20602,229000,3,1.0,ST CHARLES SUB - CARRING,1157,9590,1968,767,198,,Sold,,,https://www.redfin.com/MD/Waldorf/1102-Copley-Ave-20602/home/15153675,BRIGHT MLS,MDCH204966,N,Y,38.6040817,-76.9216925
PAST SALE,July-10-2020,Single Family Residential,1026 Saint Pauls Dr,Waldorf,MD,20602,265000,3,1.0,ST CHARLES SUB - BANNIST,1560,11602,1976,513,170,31,Sold,,,https://www.redfin.com/MD/Waldorf/1026-St-Pauls-Dr-20602/home/14387709,BRIGHT MLS,MDCH213776,N,Y,38.5892334,-76.9038586
PAST SALE,August-27-2021,Townhouse,5126-B Shawe Pl Unit 3-KR,Waldorf,MD,20602,199000,3,2.5,ST CHARLES SUB - BANNIST,1350,,1977,100,147,321,Sold,,,https://www.redfin.com/MD/Waldorf/5126-Shawe-Pl-20602/unit-3-KR/home/175929396,BRIGHT MLS,MDCH2002116,N,Y,38.591134,-76.9031928
PAST SALE,April-23-2021,Single Family Residential,4413 Quillen Cir,Waldorf,MD,20602,365000,4,2.5,ST CHARLES BANNISTER,1988,9709,1978,226,184,40,Sold,,,https://www.redfin.com/MD/Waldorf/4413-Quillen-Cir-20602/home/14387806,BRIGHT MLS,MDCH222032,N,Y,38.5909929,-76.8987206
PAST SALE,April-2-2021,Townhouse,3042 Heathcote Rd,Waldorf,MD,20602,240000,3,1.5,ST CHARLES SUB - HUNTING,1034,720,1982,247,232,59,Sold,,,https://www.redfin.com/MD/Waldorf/3042-Heathcote-Rd-20602/home/14398589,BRIGHT MLS,MDCH221600,N,Y,38.6087159,-76.8932133
PAST SALE,August-5-2021,Townhouse,5019 Oyster Reef Pl,Waldorf,MD,20602,340000,3,2.5,ST CHARLES SUB - SHEFFIE,1732,2125,2010,122,196,110,Sold,,,https://www.redfin.com/MD/Waldorf/5019-Oyster-Reef-Pl-20602/home/23005338,BRIGHT MLS,MDCH2000610,N,Y,38.5788304,-76.9100709
PAST SALE,August-20-2019,Single Family Residential,223 Garner Ave,Waldorf,MD,20602,275000,4,2.0,ST CHARLES SUB - CARRING,1689,9600,1966,838,163,,Sold,,,https://www.redfin.com/MD/Waldorf/223-Garner-Ave-20602/home/15153384,BRIGHT MLS,MDCH204620,N,Y,38.6023826,-76.9183725
PAST SALE,,Townhouse,12316 Sweetbriar Pl,Waldorf,MD,20602,280000,,3.0,,1776,1536,1996,,158,,,,,https://www.redfin.com/MD/Waldorf/12316-Sweetbriar-Pl-20602/home/14380565,,,N,Y,38.6112159,-76.8812735
PAST SALE,May-29-2020,Single Family Residential,3636 Lightner Ct,Waldorf,MD,20602,259000,3,2.5,ST CHARLES SUB - HUNTING,1584,10537,1984,555,164,39,Sold,,,https://www.redfin.com/MD/Waldorf/3636-Lightner-Ct-20602/home/14404249,BRIGHT MLS,MDCH213116,N,Y,38.6032375,-76.8826128
PAST SALE,August-8-2019,Single Family Residential,11758 Laquinta Ct,Waldorf,MD,20602,340000,4,2.5,ST CHARLES SUB - SHEFFIE,2472,10065,2001,850,138,,Sold,,,https://www.redfin.com/MD/Waldorf/11758-Laquinta-Ct-20602/home/14415009,BRIGHT MLS,MDCH194486,N,Y,38.5916458,-76.9093923
PAST SALE,April-30-2019,Townhouse,4932 Olympia Pl,Waldorf,MD,20602,305000,3,3.0,ST CHARLES SUB - SHEFFIE,2192,1870,2009,950,139,148,Sold,,,https://www.redfin.com/MD/Waldorf/4932-Olympia-Pl-20602/home/23027320,BRIGHT MLS,MDCH194094,N,Y,38.5815636,-76.9106511
PAST SALE,December-26-2019,Single Family Residential,817 Brandon Rd,Waldorf,MD,20602,245000,3,1.5,ST CHARLES SUB - CARRING,1536,9680,1968,710,160,,Sold,,,https://www.redfin.com/MD/Waldorf/817-Brandon-Rd-20602/home/14375288,BRIGHT MLS,MDCH207780,N,Y,38.6079958,-76.9057148
PAST SALE,April-16-2021,Single Family Residential,2429 York Ct,Waldorf,MD,20602,322000,3,2.0,ST CHARLES SUB - WAKEFIE,1380,7800,1982,233,233,47,Sold,,,https://www.redfin.com/MD/Waldorf/2429-York-Ct-20602/home/14416783,BRIGHT MLS,MDCH222180,N,Y,38.6005891,-76.8918649
PAST SALE,,Townhouse,3751 Midlothian Pl,Waldorf,MD,20602,255000,,2.5,,2120,2000,2001,,120,,,,,https://www.redfin.com/MD/Waldorf/3751-Midlothian-Pl-20602/home/14408887,,,N,Y,38.6131915,-76.9016364
PAST SALE,November-22-2019,Single Family Residential,4402 Quillen Cir,Waldorf,MD,20602,249000,3,2.0,ST CHARLES SUB - BANNIST,1776,6802,1978,744,140,35,Sold,,,https://www.redfin.com/MD/Waldorf/4402-Quillen-Cir-20602/home/14385969,BRIGHT MLS,MDCH207068,N,Y,38.5921391,-76.8984769
PAST SALE,July-19-2021,Single Family Residential,11453 Westmont Ct,Waldorf,MD,20602,460000,4,3.5,ST CHARLES SUB - SHEFFIE,3180,6095,2002,139,145,65,Sold,,,https://www.redfin.com/MD/Waldorf/11453-Westmont-Ct-20602/home/14410669,BRIGHT MLS,MDCH225814,N,Y,38.5905511,-76.9133458
PAST SALE,,Townhouse,2404 Ferrell Ct,Waldorf,MD,20602,227500,,1.0,,1056,6063,1977,,215,,,,,https://www.redfin.com/MD/Waldorf/2404-Ferrell-Ct-20602/home/14394933,,,N,Y,38.5992463,-76.9083132
PAST SALE,July-8-2019,Single Family Residential,5261 Mudville Ln,Waldorf,MD,20602,402000,4,3.5,ST CHARLES SUB - FIELDSI,3476,8102,2014,881,116,46,Sold,,,https://www.redfin.com/MD/Waldorf/5261-Mudville-Ln-20602/home/52925658,BRIGHT MLS,MDCH194570,N,Y,38.562004,-76.907376
PAST SALE,September-10-2021,Single Family Residential,2534 Rathbone Ct,Waldorf,MD,20602,380000,4,2.0,ST CHARLES SUB - WAKEFIE,1920,12396,1980,86,198,38,Sold,,,https://www.redfin.com/MD/Waldorf/2534-Rathbone-Ct-20602/home/14422822,BRIGHT MLS,MDCH2001170,N,Y,38.5947533,-76.8909444
PAST SALE,March-3-2020,Townhouse,5549 Peanuts Ln,Waldorf,MD,20602,308000,3,2.5,ST CHARLES SUB - FIELDSI,2028,1786,2015,642,152,83,Sold,,,https://www.redfin.com/MD/Waldorf/5549-Peanuts-Ln-20602/home/60325695,BRIGHT MLS,MDCH208262,N,Y,38.5589472,-76.9100763
PAST SALE,June-3-2021,Single Family Residential,1108 University Pl,Waldorf,MD,20602,375000,5,3.0,ST CHARLES SUB - CARRING,2395,15685,1971,185,157,,Sold,,,https://www.redfin.com/MD/Waldorf/1108-University-Pl-20602/home/14423066,BRIGHT MLS,MDCH224226,N,Y,38.5979215,-76.917462
PAST SALE,July-30-2020,Single Family Residential,11899 Winged Foot Ct,Waldorf,MD,20602,433000,4,3.5,ST CHARLES SUB - GLENEAG,4314,7086,2013,493,100,71,Sold,,,https://www.redfin.com/MD/Waldorf/11899-Winged-Foot-Ct-20602/home/50274556,BRIGHT MLS,MDCH214922,N,Y,38.5717659,-76.907561
PAST SALE,December-19-2018,Single Family Residential,12277 Revolution Ct,Waldorf,MD,20603,415735,4,2.5,ST CHARLES SUB - FIELDSI,,6621,2018,1082,,45,Sold,,,https://www.redfin.com/MD/Waldorf/12277-Revolution-Ct-20602/home/165852834,BRIGHT MLS,MDCH194444,N,Y,38.556518,-76.913674
PAST SALE,,Single Family Residential,3529 Norwood Ct,Waldorf,MD,20602,177708,4,2.0,,1878,8659,1978,,95,,,,,https://www.redfin.com/MD/Waldorf/3529-Norwood-Ct-20602/home/14383468,,,N,Y,38.5957687,-76.8988252
PAST SALE,May-17-2019,Single Family Residential,1123 Hamlin Rd,Waldorf,MD,20602,260000,4,3.0,ST CHARLES SUB - CARRING,2386,12500,1970,933,109,,Sold,,,https://www.redfin.com/MD/Waldorf/1123-Hamlin-Rd-20602/home/14397225,BRIGHT MLS,MDCH100432,N,Y,38.6004878,-76.921609
PAST SALE,June-19-2019,Townhouse,3411-D White Fir Ct,Waldorf,MD,20602,210000,3,2.0,ST CHARLES SUB - HUNTING,1346,1350,1983,900,156,81,Sold,,,https://www.redfin.com/MD/Waldorf/3411-White-Fir-Ct-20602/unit-D/home/14407347,BRIGHT MLS,MDCH203424,N,Y,38.6079972,-76.8867884
PAST SALE,October-30-2020,Single Family Residential,3139 Flanders Ct,Waldorf,MD,20602,295000,5,2.0,ST CHARLES SUB - HUNTING,2288,12901,1983,401,129,41,Sold,,,https://www.redfin.com/MD/Waldorf/3139-Flanders-Ct-20602/home/14406148,BRIGHT MLS,MDCH217376,N,Y,38.610865,-76.8951325
PAST SALE,April-22-2021,Single Family Residential,54 Garner Ave,Waldorf,MD,20602,351000,4,2.0,ST CHARLES SUB - CARRING,1864,17602,1970,227,188,,Sold,,,https://www.redfin.com/MD/Waldorf/54-Garner-Ave-20602/home/14377211,BRIGHT MLS,MDCH222698,N,Y,38.6001826,-76.9296015
PAST SALE,November-4-2021,Single Family Residential,1309 Wilson Rd,Waldorf,MD,20602,327000,3,2.0,ST CHARLES SUB - CARRING,1491,9854,1970,31,219,,Sold,,,https://www.redfin.com/MD/Waldorf/1309-Wilson-Rd-20602/home/14374887,BRIGHT MLS,MDCH2004080,N,Y,38.5969449,-76.9281435
PAST SALE,,Single Family Residential,12750 Pearson Dr Unit A,Waldorf,MD,20602,252000,,1.5,,1323,15000,1965,,190,,,,,https://www.redfin.com/MD/Waldorf/12750-Pearson-Dr-20602/unit-A/home/14399884,,,N,Y,38.5899198,-76.867209
PAST SALE,April-3-2020,Single Family Residential,1104 Hamlin Rd,Waldorf,MD,20602,274500,4,1.5,ST CHARLES SUB - CARRING,1750,11082,1969,611,157,,Sold,,,https://www.redfin.com/MD/Waldorf/1104-Hamlin-Rd-20602/home/15153579,BRIGHT MLS,MDCH210460,N,Y,38.6004417,-76.9192453
PAST SALE,December-1-2021,Single Family Residential,901 Stone Ave,Waldorf,MD,20602,345000,3,2.0,ST CHARLES SUB - CARRING,1536,9540,1967,4,225,,Sold,,,https://www.redfin.com/MD/Waldorf/901-Stone-Ave-20602/home/15153591,BRIGHT MLS,MDCH2002112,N,Y,38.607316,-76.9106471
PAST SALE,August-27-2021,Single Family Residential,12084 Blue Mount Ct,Waldorf,MD,20602,517000,4,3.0,ST CHARLES SUB - SHEFFIE,4554,8696,2002,100,114,85,Sold,,,https://www.redfin.com/MD/Waldorf/12084-Blue-Mt-Ct-20602/home/14379147,BRIGHT MLS,MDCH225268,N,Y,38.5895446,-76.907561
PAST SALE,October-17-2019,Single Family Residential,3185 Harrow Ct,Waldorf,MD,20602,323900,4,2.0,ST CHARLES SUB - HUNTING,1800,14737,1983,780,180,43,Sold,,,https://www.redfin.com/MD/Waldorf/3185-Harrow-Ct-20602/home/14395277,BRIGHT MLS,MDCH206584,N,Y,38.6094432,-76.894322
PAST SALE,January-31-2019,Single Family Residential,316 Rivermont Dr,Waldorf,MD,20602,246000,3,2.0,ST CHARLES SUB - CARRING,1536,8800,1967,1039,160,,Sold,,,https://www.redfin.com/MD/Waldorf/316-Rivermont-Dr-20602/home/15153407,BRIGHT MLS,MDCH141130,N,Y,38.6060741,-76.9091589
PAST SALE,May-8-2020,Townhouse,3907 Wintergreen Pl,Waldorf,MD,20602,139000,3,2.5,ST CHARLES SUB - HUNTING,1240,1970,1983,576,112,63,Sold,,,https://www.redfin.com/MD/Waldorf/3907-Wintergreen-Pl-20602/home/14390130,BRIGHT MLS,MDCH213556,N,Y,38.6058368,-76.8866154
PAST SALE,May-17-2019,Townhouse,1062 Dorset Dr,Waldorf,MD,20602,200000,3,2.5,ST CHARLES SUB - CARRING,1380,,1979,933,145,41,Sold,,,https://www.redfin.com/MD/Waldorf/1062-Dorset-Dr-20602/home/14401297,BRIGHT MLS,MDCH200726,N,Y,38.6001712,-76.9090017
PAST SALE,,Townhouse,11705 Palm Desert Pl,Waldorf,MD,20602,339890,,3.0,,2465,2788,2011,,138,,,,,https://www.redfin.com/MD/Waldorf/11705-Palm-Desert-Pl-20602/home/44594071,,,N,Y,38.5752383,-76.9084053
PAST SALE,January-18-2019,Single Family Residential,2409 York Ct,Waldorf,MD,20602,186500,2,1.0,ST CHARLES SUB - WAKEFIE,810,6000,1984,1052,230,38,Sold,,,https://www.redfin.com/MD/Waldorf/2409-York-Ct-20602/home/14401471,BRIGHT MLS,1002079048,N,Y,38.6002023,-76.8917833
PAST SALE,November-23-2021,Single Family Residential,903 Fowler Ct,Waldorf,MD,20602,310000,4,2.0,ST CHARLES SUB - CARRING,1914,11305,1967,12,162,,Sold,,,https://www.redfin.com/MD/Waldorf/903-Fowler-Ct-20602/home/14384782,BRIGHT MLS,MDCH2005032,N,Y,38.6059271,-76.9081383
PAST SALE,September-23-2019,Single Family Residential,11895 St. Linus Dr,Waldorf,MD,20602,427305,3,3.0,FIELDSIDE AT ST CHARLES,3234,8712,2019,804,132,45,Sold,,,https://www.redfin.com/MD/Waldorf/11895-St-Linus-Dr-20602/home/148548851,BRIGHT MLS,MDCH162846,N,Y,38.558101,-76.90786
PAST SALE,December-28-2018,Single Family Residential,12284 Revolution Ct,Waldorf,MD,20603,415565,4,2.5,ST CHARLES SUB - FIELDSI,,6621,2018,1073,,,Sold,,,https://www.redfin.com/MD/Waldorf/12284-Revolution-Ct-20602/home/165870756,BRIGHT MLS,MDCH194434,N,Y,38.556985,-76.914256
PAST SALE,June-28-2019,Townhouse,11879 Saint Linus Dr,Waldorf,MD,20602,299900,3,2.5,ST CHARLES SUB - FIELDSI,2174,2265,2013,891,138,46,Sold,,,https://www.redfin.com/MD/Waldorf/11879-St-Linus-Dr-20602/home/50274793,BRIGHT MLS,MDCH201024,N,Y,38.5586361,-76.9080563
PAST SALE,April-14-2020,Single Family Residential,109 Sherman Rd,Waldorf,MD,20602,305000,4,2.5,ST CHARLES SUB - CARRING,1991,9070,1968,600,153,,Sold,,,https://www.redfin.com/MD/Waldorf/109-Sherman-Rd-20602/home/14418426,BRIGHT MLS,MDCH210952,N,Y,38.606702,-76.9221796
PAST SALE,February-28-2020,Single Family Residential,1010 Ivy Ln,Waldorf,MD,20602,289000,3,2.5,ST CHARLES SUB - CARRING,1780,10476,1977,646,162,,Sold,,,https://www.redfin.com/MD/Waldorf/1010-Ivy-Ln-20602/home/14412723,BRIGHT MLS,MDCH208954,N,Y,38.6014551,-76.9144952
PAST SALE,May-30-2019,Townhouse,3793 Merseyside Pl,Waldorf,MD,20602,269900,3,3.0,ST CHARLES SUB - HUNTING,2362,1600,2002,920,114,58,Sold,,,https://www.redfin.com/MD/Waldorf/3793-Merseyside-Pl-20602/home/14405560,BRIGHT MLS,MDCH195128,N,Y,38.6124505,-76.8999241
PAST SALE,May-2-2019,Single Family Residential,12095 Bluff Creek Ct,Waldorf,MD,20602,369000,4,3.5,ST CHARLES SUB - SHEFFIE,2563,7363,2003,948,144,68,Sold,,,https://www.redfin.com/MD/Waldorf/12095-Bluff-Creek-Ct-20602/home/14380944,BRIGHT MLS,MDCH195024,N,Y,38.5887872,-76.9068839
PAST SALE,June-8-2020,Single Family Residential,213 Garner Ave,Waldorf,MD,20602,287000,4,2.0,ST CHARLES SUB - CARRING,1807,10200,1966,545,159,,Sold,,,https://www.redfin.com/MD/Waldorf/213-Garner-Ave-20602/home/14412884,BRIGHT MLS,MDCH212570,N,Y,38.6030796,-76.9194941
PAST SALE,August-28-2019,Single Family Residential,11920-C Montgomery Ln,Waldorf,MD,20602,304000,4,2.0,EAST WALDORF SUB,1650,24829,1984,830,184,,Sold,,,https://www.redfin.com/MD/Waldorf/11920C-Montgomery-Ln-20602/home/162688609,BRIGHT MLS,MDCH200360,N,Y,38.6175598,-76.8985159
PAST SALE,September-23-2021,Townhouse,3981 Wintergreen Pl,Waldorf,MD,20602,282000,3,1.5,ST CHARLES SUB - HUNTING,1240,2050,1983,73,227,89,Sold,,,https://www.redfin.com/MD/Waldorf/3981-Wintergreen-Pl-20602/home/14408083,BRIGHT MLS,MDCH2002096,N,Y,38.6067217,-76.8862986
PAST SALE,January-11-2019,Townhouse,1005 Victoria Pl,Waldorf,MD,20602,215000,3,2.5,ST CHARLES SUB - CARRING,1380,,1981,1059,156,39,Sold,,,https://www.redfin.com/MD/Waldorf/1005-Victoria-Pl-20602/home/14397153,BRIGHT MLS,MDCH100170,N,Y,38.6024989,-76.9100001
PAST SALE,February-12-2021,Single Family Residential,4978 Morraine St,Waldorf,MD,20602,492500,5,2.5,ST CHARLES SUB - GLENEAG,3481,9340,2010,296,141,75,Sold,,,https://www.redfin.com/MD/Waldorf/4978-Morraine-St-20602/home/23005371,BRIGHT MLS,MDCH220546,N,Y,38.5754435,-76.9125316
PAST SALE,May-31-2019,Townhouse,5639 Wonderboy Pl,Waldorf,MD,20602,315000,3,2.5,ST CHARLES SUB - FIELDSI,2268,2125,2015,919,139,,Sold,,,https://www.redfin.com/MD/Waldorf/5639-Wonderboy-Pl-20602/home/85690191,BRIGHT MLS,MDCH200546,N,Y,38.5587945,-76.9073078
PAST SALE,October-29-2021,Single Family Residential,4839 Castlewood Ct,Waldorf,MD,20602,540000,6,4.0,ST CHARLES SUB - SHEFFIE,4060,7772,2003,37,133,140,Sold,,,https://www.redfin.com/MD/Waldorf/4839-Castlewood-Ct-20602/home/14376987,BRIGHT MLS,MDCH2003280,N,Y,38.5892077,-76.9106136
PAST SALE,,Townhouse,12003 Roy Hobbs Pl,Waldorf,MD,20602,320000,,2.5,,2160,1584,2015,,148,,,,,https://www.redfin.com/MD/Waldorf/12003-Roy-Hobbs-Pl-20602/home/85690194,,,N,Y,38.5584935,-76.9075165
PAST SALE,October-11-2021,Single Family Residential,400 Garner Ave,Waldorf,MD,20602,350000,4,1.5,ST CHARLES SUB - CARRING,1270,9200,1971,55,276,,Sold,,,https://www.redfin.com/MD/Waldorf/400-Garner-Ave-20602/home/14398665,BRIGHT MLS,MDCH2000758,N,Y,38.5994823,-76.9194929
PAST SALE,April-23-2020,Single Family Residential,4637 Sheffield Cir,Waldorf,MD,20602,420000,4,4.5,ST CHARLES SUB - SHEFFIE,3472,7922,2006,591,121,79,Sold,,,https://www.redfin.com/MD/Waldorf/4637-Sheffield-Cir-20602/home/14416640,BRIGHT MLS,MDCH211784,N,Y,38.5891576,-76.9137557
PAST SALE,October-6-2021,Single Family Residential,407 Garner Ave,Waldorf,MD,20602,315000,4,2.0,ST CHARLES SUB - CARRING,1750,9050,1971,60,180,,Sold,,,https://www.redfin.com/MD/Waldorf/407-Garner-Ave-20602/home/14384883,BRIGHT MLS,MDCH2002894,N,Y,38.5998113,-76.9206185
PAST SALE,January-8-2020,Townhouse,11834 Mordyshire Pl,Waldorf,MD,20602,300000,4,3.5,ST CHARLES SUB - HUNTING,2304,2000,2002,697,130,56,Sold,,,https://www.redfin.com/MD/WALDORF/11834-MORDYSHIRE-PL-20602/home/14400958,BRIGHT MLS,MDCH207154,N,Y,38.61275,-76.901621
PAST SALE,January-11-2021,Townhouse,3892 Light Arms Pl,Waldorf,MD,20602,260000,3,1.5,ST CHARLES SUB - HUNTING,1160,1400,1983,328,224,66,Sold,,,https://www.redfin.com/MD/Waldorf/3892-Light-Arms-Pl-20602/home/14413869,BRIGHT MLS,MDCH219828,N,Y,38.6071978,-76.9011668
PAST SALE,April-21-2021,Single Family Residential,4302 Eagle Trace Ct,Waldorf,MD,20602,425000,4,2.5,ST CHARLES SUB - SHEFFIE,2464,9086,2001,228,172,68,Sold,,,https://www.redfin.com/MD/Waldorf/4302-Eagle-Trace-Ct-20602/home/14393369,BRIGHT MLS,MDCH222680,N,Y,38.5937399,-76.9105948
PAST SALE,October-21-2019,Single Family Residential,500 Adams Ln,Waldorf,MD,20602,284900,4,2.5,ST CHARLES SUB - CARRING,1991,12460,1969,776,143,,Sold,,,https://www.redfin.com/MD/Waldorf/500-Adams-Ln-20602/home/14400085,BRIGHT MLS,MDCH206530,N,Y,38.5980901,-76.9257061
PAST SALE,May-25-2021,Townhouse,5620 Barnstormers Ln,Waldorf,MD,20602,391000,3,2.5,ST CHARLES SUB - FIELDSI,2160,1786,2017,194,181,53,Sold,,,https://www.redfin.com/MD/Waldorf/5620-Barnstormers-Ln-20602/home/113711570,BRIGHT MLS,MDCH223548,N,Y,38.5585342,-76.9114516
PAST SALE,,Single Family Residential,305 HARVARD CT,WALDORF,MD,20602,305000,,2.0,,1520,12456,1971,,201,,,,,https://www.redfin.com/MD/WALDORF/305-HARVARD-CT-20602/home/15153670,,,N,Y,38.598553,-76.913632
PAST SALE,September-22-2019,Single Family Residential,3461-H Orchid Pl,Waldorf,MD,20602,255000,3,2.0,ST CHARLES SUB - HUNTING,1472,5151,1983,805,173,71,Sold,,,https://www.redfin.com/MD/Waldorf/3461-Orchid-Pl-20602/unit-H/home/14383320,BRIGHT MLS,MDCH201028,N,Y,38.6078159,-76.8824777
PAST SALE,May-28-2021,Single Family Residential,540 University Dr,Waldorf,MD,20602,403700,5,2.5,ST CHARLES SUB - CARRING,2211,13110,1977,191,183,,Sold,,,https://www.redfin.com/MD/Waldorf/540-University-Dr-20602/home/14402127,BRIGHT MLS,MDCH223122,N,Y,38.5902629,-76.9166806
PAST SALE,October-13-2020,Single Family Residential,1213 Marshall Ln,Waldorf,MD,20602,294500,4,2.0,ST CHARLES SUB - CARRING,1689,12517,1969,418,174,,Sold,,,https://www.redfin.com/MD/Waldorf/1213-Marshall-Ln-20602/home/14424563,BRIGHT MLS,MDCH215408,N,Y,38.5993823,-76.9283776
PAST SALE,June-5-2019,Townhouse,4556 Ryan Pl Unit A,Waldorf,MD,20602,175000,3,2.5,ST. CHARLES,1350,,1977,914,130,267,Sold,,,https://www.redfin.com/MD/Waldorf/4556-Ryan-Pl-20602/unit-A/home/166002819,BRIGHT MLS,MDCH201710,N,Y,38.5928026,-76.900394
PAST SALE,September-17-2021,Townhouse,2577 Robinson Pl,Waldorf,MD,20602,253000,3,1.5,ST CHARLES SUB - WAKEFIE,1188,1650,1978,79,213,61,Sold,,,https://www.redfin.com/MD/Waldorf/2577-Robinson-Pl-20602/home/14381517,BRIGHT MLS,MDCH2000614,N,Y,38.5969474,-76.8907774
PAST SALE,August-31-2021,Single Family Residential,3062 Endicott Ct,Waldorf,MD,20602,350000,4,2.0,ST CHARLES SUB - HUNTING,1821,16211,1983,96,192,39,Sold,,,https://www.redfin.com/MD/Waldorf/3062-Endicott-Ct-20602/home/14415996,BRIGHT MLS,MDCH2000804,N,Y,38.6119986,-76.8979622
PAST SALE,October-15-2021,Single Family Residential,5153 Twice Bought Pl,Waldorf,MD,20602,585000,4,3.5,ZACHIA MANOR SUB,3396,47045,2000,51,172,30,Sold,,,https://www.redfin.com/MD/Waldorf/5153-Twice-Bought-Pl-20602/home/14385783,BRIGHT MLS,MDCH2001182,N,Y,38.5705524,-76.8627947
PAST SALE,June-30-2021,Townhouse,704 Brandon Cir,Waldorf,MD,20602,270000,3,1.5,ST CHARLES SUB - HUNTING,1056,6800,1980,158,256,39,Sold,,,https://www.redfin.com/MD/Waldorf/704-Brandon-Cir-20602/home/14396074,BRIGHT MLS,MDCH224908,N,Y,38.6066073,-76.9035724
PAST SALE,,Single Family Residential,,St Charles,MD,20602,415565,,,,,6621,,,,,,,,https://www.redfin.com/MD/St-Charles/Unknown-20602/home/147464854,,,N,Y,38.593093,-76.9066829
PAST SALE,,Single Family Residential,,St Charles,MD,20602,426470,,,,,8799,,,,,,,,https://www.redfin.com/MD/St-Charles/Unknown-20602/home/147464855,,,N,Y,38.593093,-76.9066829
PAST SALE,,Single Family Residential,,St Charles,MD,20602,448060,,,,,8843,,,,,,,,https://www.redfin.com/MD/St-Charles/Unknown-20602/home/147464856,,,N,Y,38.593093,-76.9066829
PAST SALE,,Single Family Residential,,St Charles,MD,20602,444985,,,,,6621,,,,,,,,https://www.redfin.com/MD/St-Charles/Unknown-20602/home/147464864,,,N,Y,38.593093,-76.9066829
PAST SALE,,Single Family Residential,,St Charles,MD,20602,504190,,,,,6621,,,,,,,,https://www.redfin.com/MD/St-Charles/Unknown-20602/home/147464866,,,N,Y,38.593093,-76.9066829
PAST SALE,,Single Family Residential,,St Charles,MD,20602,441310,,,,,6621,,,,,,,,https://www.redfin.com/MD/St-Charles/Unknown-20602/home/147464862,,,N,Y,38.593093,-76.9066829
PAST SALE,,Single Family Residential,12262 Revolution Ct,Waldorf,MD,20602,424000,,,,,5924,,,,,,,,https://www.redfin.com/MD/Waldorf/12262-Revolution-Ct-20602/home/147464573,,,N,Y,38.5576762,-76.9111183
PAST SALE,,Townhouse,4853 Olympia Pl,Waldorf,MD,20602,283000,,2.5,,1720,1701,2009,,165,,,,,https://www.redfin.com/MD/Waldorf/4853-Olympia-Pl-20602/home/23027295,,,N,Y,38.5813496,-76.9118682
PAST SALE,May-22-2019,Single Family Residential,5760 River Shark Ln,Waldorf,MD,20602,485815,4,2.5,FIELDSIDE AT ST CHARLES,4905,8050,2019,928,99,8,Sold,,,https://www.redfin.com/MD/Waldorf/5760-River-Shark-Ln-20602/home/167592528,BRIGHT MLS,MDCH203412,N,Y,38.557707,-76.908847
PAST SALE,March-29-2019,Single Family Residential,12289 Revolution Ct,Waldorf,MD,20602,512420,4,3.5,FIELDSIDE AT ST CHARLES,4586,6000,2018,982,112,45,Sold,,,https://www.redfin.com/MD/Waldorf/12289-Revolution-Ct-20602/home/165835511,BRIGHT MLS,1000187004,N,Y,38.556378,-76.914374
PAST SALE,October-9-2019,Single Family Residential,7 Bampton Ct,Waldorf,MD,20602,299900,4,2.0,ST CHARLES SUB - CARRING,1755,17107,1974,788,171,,Sold,,,https://www.redfin.com/MD/Waldorf/7-Bampton-Ct-20602/home/14380823,BRIGHT MLS,MDCH203446,N,Y,38.5887647,-76.9186627
PAST SALE,August-21-2019,Single Family Residential,2504 Gittings Ct,Waldorf,MD,20602,245000,3,2.0,ST CHARLES SUB - BANNIST,1469,6656,1978,837,167,,Sold,,,https://www.redfin.com/MD/Waldorf/2504-Gittings-Ct-20602/home/14413505,BRIGHT MLS,MDCH204716,N,Y,38.5981623,-76.9061831
PAST SALE,,Single Family Residential,2241 Old Bailey Ct,Waldorf,MD,20602,382000,,2.5,,2064,9495,1979,,185,,,,,https://www.redfin.com/MD/Waldorf/2241-Old-Bailey-Ct-20602/home/14389520,,,N,Y,38.5968429,-76.8870585
PAST SALE,,Townhouse,5548 Peanuts Ln,Waldorf,MD,20602,385000,,2.5,,2725,1786,2014,,141,,,,,https://www.redfin.com/MD/Waldorf/5548-Peanuts-Ln-20602/home/59254680,,,N,Y,38.5593294,-76.9101206
PAST SALE,May-10-2019,Townhouse,4702 Rookewood Pl Unit B,Waldorf,MD,20602,155000,3,2.5,ST CHARLES SUB - BANNIST,1350,,1976,940,115,180,Sold,,,https://www.redfin.com/MD/Waldorf/4702-Rookewood-Pl-20602/unit-B/home/172052590,BRIGHT MLS,MDCH201178,N,Y,38.5925466,-76.900875
PAST SALE,July-29-2019,Single Family Residential,2255 Old Bailey Ct,Waldorf,MD,20602,337000,5,2.5,ST CHARLES SUB - WAKEFIE,2376,13285,1979,860,142,50,Sold,,,https://www.redfin.com/MD/Waldorf/2255-Old-Bailey-Ct-20602/home/14389718,BRIGHT MLS,MDCH201452,N,Y,38.5980437,-76.8883324
PAST SALE,May-2-2019,Single Family Residential,214 Acadia Rd,Waldorf,MD,20602,299000,4,2.0,ST CHARLES SUB - CARRING,1689,10630,1967,948,177,,Sold,,,https://www.redfin.com/MD/Waldorf/214-Acadia-Rd-20602/home/14381168,BRIGHT MLS,MDCH195048,N,Y,38.6088,-76.9145852
PAST SALE,July-6-2021,Single Family Residential,1032 Bannister Cir,Waldorf,MD,20602,380500,4,2.5,ST CHARLES SUB - BANNIST,2200,9063,1978,152,173,50,Sold,,,https://www.redfin.com/MD/Waldorf/1032-Bannister-Cir-20602/home/14409728,BRIGHT MLS,MDCH223554,N,Y,38.5958473,-76.9071791
PAST SALE,,Single Family Residential,3847 Old Washington Rd,Waldorf,MD,20602,150000,,1.0,,1684,44867,1950,,89,,,,,https://www.redfin.com/MD/Waldorf/3847-Old-Washington-Rd-20602/home/14419621,,,N,Y,38.6059069,-76.9279669
PAST SALE,October-12-2021,Single Family Residential,11697 Muirfield Ct,Waldorf,MD,20602,495000,4,2.5,ST CHARLES SUB - SHEFFIE,2758,9530,2009,54,179,84,Sold,,,https://www.redfin.com/MD/Waldorf/11697-Muirfield-Ct-20602/home/23008693,BRIGHT MLS,MDCH2003448,N,Y,38.5846828,-76.9117044
PAST SALE,June-24-2021,Townhouse,3463 Maddox Ct,Waldorf,MD,20602,267000,3,1.0,ST CHARLES SUB - BANNIST,1420,5401,1977,164,188,29,Sold,,,https://www.redfin.com/MD/Waldorf/3463-Maddox-Ct-20602/home/14382021,BRIGHT MLS,MDCH224634,N,Y,38.596865,-76.8973201
PAST SALE,March-31-2021,Townhouse,3860 Gateview Pl,Waldorf,MD,20602,295000,3,2.5,ST CHARLES SUB - HUNTING,1520,2000,1992,249,194,65,Sold,,,https://www.redfin.com/MD/Waldorf/3860-Gateview-Pl-20602/home/14388490,BRIGHT MLS,MDCH220972,N,Y,38.611376,-76.8854394
PAST SALE,July-29-2021,Townhouse,12627 Willow View Pl,Waldorf,MD,20602,325000,3,3.5,LAKEWOOD EST SUB,2144,1568,1995,129,152,63,Sold,,,https://www.redfin.com/MD/Waldorf/12627-Willowview-Pl-20602/home/14383256,BRIGHT MLS,MDCH2000270,N,Y,38.6103362,-76.8797506
PAST SALE,July-30-2020,Single Family Residential,11652 Port Royal Ave,Waldorf,MD,20602,365000,3,2.5,ST CHARLES SUB - GLENEAG,2340,8330,2011,493,156,54,Sold,,,https://www.redfin.com/MD/Waldorf/11652-Port-Royal-Ave-20602/home/28498342,BRIGHT MLS,MDCH214656,N,Y,38.5731552,-76.9098574
PAST SALE,December-31-2019,Townhouse,3846 Gateview Pl,Waldorf,MD,20602,235000,3,2.5,ST CHARLES SUB - HUNTING,1544,2000,1992,705,152,66,Sold,,,https://www.redfin.com/MD/Waldorf/3846-Gateview-Pl-20602/home/14414319,BRIGHT MLS,MDCH208106,N,Y,38.6123287,-76.885129
PAST SALE,January-28-2019,Townhouse,3099 Heathcote Rd,Waldorf,MD,20602,185000,3,1.0,ST CHARLES SUB - HUNTING,1034,1434,1983,1042,179,50,Sold,,,https://www.redfin.com/MD/Waldorf/3099-Heathcote-Rd-20602/home/14382247,BRIGHT MLS,1001750544,N,Y,38.6084266,-76.8916472
PAST SALE,August-23-2019,Single Family Residential,3731 Pecan Ct,Waldorf,MD,20602,289000,3,2.0,ST CHARLES SUB - HUNTING,1772,11100,1985,835,163,40,Sold,,,https://www.redfin.com/MD/Waldorf/3731-Pecan-Ct-20602/home/14403976,BRIGHT MLS,MDCH204556,N,Y,38.6003509,-76.8797098
PAST SALE,June-30-2021,Townhouse,5507 Peanuts Ln,Waldorf,MD,20602,415000,3,2.5,ST CHARLES SUB - FIELDSI,2268,2396,2017,158,183,53,Sold,,,https://www.redfin.com/MD/Waldorf/5507-Peanuts-Ln-20602/home/142972356,BRIGHT MLS,MDCH225110,N,Y,38.5589549,-76.9117976
PAST SALE,August-27-2019,Single Family Residential,1108 Harvard Rd,Waldorf,MD,20602,255000,4,2.5,ST CHARLES SUB - CARRING,1991,11514,1970,831,128,,Sold,,,https://www.redfin.com/MD/Waldorf/1108-Harvard-Rd-20602/home/14407519,BRIGHT MLS,MDCH204606,N,Y,38.5988925,-76.918203
PAST SALE,February-10-2020,Single Family Residential,11681 Doral Ct,Waldorf,MD,20602,380000,4,2.5,ST CHARLES SUB - SHEFFIE,2472,7905,2001,664,154,75,Sold,,,https://www.redfin.com/MD/Waldorf/11681-Doral-Ct-20602/home/14385889,BRIGHT MLS,MDCH204976,N,Y,38.593974,-76.911879
PAST SALE,September-30-2021,Townhouse,1015 Red Lion Ct,Waldorf,MD,20602,305000,3,2.5,ST CHARLES SUB - CARRING,1380,6534,1980,66,221,45,Sold,,,https://www.redfin.com/MD/Waldorf/1015-Red-Lion-Ct-20602/home/14405437,BRIGHT MLS,MDCH2001788,N,Y,38.6015602,-76.9114278
PAST SALE,June-3-2021,Single Family Residential,2428 Pear Tree Ct,Waldorf,MD,20602,420000,4,2.5,ST CHARLES SUB - WAKEFIE,2507,7214,1979,185,168,26,Sold,,,https://www.redfin.com/MD/Waldorf/2428-Pear-Tree-Ct-20602/home/14417289,BRIGHT MLS,MDCH223842,N,Y,38.5958233,-76.8861707
PAST SALE,September-20-2019,Single Family Residential,2909 Jackson Ct,Waldorf,MD,20602,255000,3,2.0,ST CHARLES SUB - BANNIST,1892,9166,1978,807,135,40,Sold,,,https://www.redfin.com/MD/Waldorf/2909-Jackson-Ct-20602/home/14403315,BRIGHT MLS,MDCH204752,N,Y,38.5974012,-76.9036905
PAST SALE,April-7-2021,Single Family Residential,127 Stoddert Ave,Waldorf,MD,20602,310000,3,1.5,ST CHARLES SUB - CARRING,1308,13973,1968,242,237,,Sold,,,https://www.redfin.com/MD/Waldorf/127-Stoddert-Ave-20602/home/14378349,BRIGHT MLS,MDCH221336,N,Y,38.605996,-76.92088
PAST SALE,August-27-2021,Single Family Residential,3589 Silk Tree Ct,Waldorf,MD,20602,390000,3,2.5,ST CHARLES SUB - HUNTING,1753,11220,1986,100,222,43,Sold,,,https://www.redfin.com/MD/Waldorf/3589-Silk-Tree-Ct-20602/home/14423846,BRIGHT MLS,MDCH2000608,N,Y,38.6046976,-76.8788061
PAST SALE,August-9-2021,Townhouse,5654 Barnstormers Ln,Waldorf,MD,20602,427000,4,2.5,ST CHARLES SUB - FIELDSI,2174,2265,2017,118,196,50,Sold,,,https://www.redfin.com/MD/Waldorf/5654-Barnstormers-Ln-20602/home/142972373,BRIGHT MLS,MDCH2001290,N,Y,38.5585328,-76.9099848
PAST SALE,August-10-2021,Single Family Residential,3456 Tamarack Ct,Waldorf,MD,20602,380000,4,2.5,ST CHARLES SUB - HUNTING,2498,12731,1983,117,152,49,Sold,,,https://www.redfin.com/MD/Waldorf/3456-Tamarack-Ct-20602/home/14393524,BRIGHT MLS,MDCH225788,N,Y,38.6057439,-76.8828605
PAST SALE,September-24-2021,Single Family Residential,3121 Federal House Ct,Waldorf,MD,20602,329000,3,2.0,ST CHARLES SUB - HUNTING,1030,9693,1983,72,319,36,Sold,,,https://www.redfin.com/MD/Waldorf/3121-Federal-House-Ct-20602/home/14381290,BRIGHT MLS,MDCH2001950,N,Y,38.610499,-76.8961683
PAST SALE,July-25-2019,Single Family Residential,4933 Coronado Ct,Waldorf,MD,20602,384000,4,3.0,ST CHARLES SUB - SHEFFIE,2806,7458,2005,864,137,3,Sold,,,https://www.redfin.com/MD/Waldorf/4933-Coronado-Ct-20602/home/14394216,BRIGHT MLS,MDCH201960,N,Y,38.5876204,-76.9082364
PAST SALE,June-28-2021,Townhouse,3777 Merseyside Pl,Waldorf,MD,20602,338500,3,3.0,ST CHARLES SUB - HUNTING,2430,1600,2002,160,139,58,Sold,,,https://www.redfin.com/MD/Waldorf/3777-Merseyside-Pl-20602/home/14374088,BRIGHT MLS,MDCH224058,N,Y,38.6123905,-76.9005281
PAST SALE,October-8-2021,Single Family Residential,2356 Mail Coach Ct,Waldorf,MD,20602,359900,4,2.5,ST CHARLES SUB - WAKEFIE,2139,19673,1980,58,168,42,Sold,,,https://www.redfin.com/MD/Waldorf/2356-Mail-Coach-Ct-20602/home/14415997,BRIGHT MLS,MDCH2000842,N,Y,38.597328,-76.8795494
PAST SALE,October-19-2021,Single Family Residential,2109 Gibbons Ct,Waldorf,MD,20602,315000,3,2.0,ST CHARLES SUB - BANNIST,1506,6000,1978,47,209,32,Sold,,,https://www.redfin.com/MD/Waldorf/2109-Gibbons-Ct-20602/home/14395009,BRIGHT MLS,MDCH2003166,N,Y,38.5964904,-76.9063185
PAST SALE,October-22-2021,Single Family Residential,10 Marshall Rd,Waldorf,MD,20602,330000,4,1.5,ST CHARLES SUB - CARRING,1689,9450,1969,44,195,,Sold,,,https://www.redfin.com/MD/Waldorf/10-Marshall-Rd-20602/home/14417617,BRIGHT MLS,MDCH225702,N,Y,38.5994277,-76.9275519
PAST SALE,April-20-2021,Single Family Residential,120 Garner Ave,Waldorf,MD,20602,320000,3,1.5,ST CHARLES SUB - CARRING,1689,11303,1968,229,189,,Sold,,,https://www.redfin.com/MD/Waldorf/120-Garner-Ave-20602/home/15153581,BRIGHT MLS,MDCH222534,N,Y,38.6055526,-76.9238306
PAST SALE,,Single Family Residential,,Waldorf,MD,20602,455000,,,,,5924,,,,,,,,https://www.redfin.com/MD/Waldorf/Unknown-20602/home/146474980,,,N,Y,38.556756,-76.9122813
PAST SALE,,Single Family Residential,22 Greystone Cir,Waldorf,MD,20602,249900,,2.0,,1521,9095,1973,,164,,,,,https://www.redfin.com/MD/Waldorf/22-Greystone-Cir-20602/home/14389669,,,N,Y,38.5917623,-76.9185924
PAST SALE,September-17-2021,Single Family Residential,125 Jefferson Rd,Waldorf,MD,20602,335000,3,2.0,ST CHARLES SUB - CARRING,1377,10392,1969,79,243,,Sold,,,https://www.redfin.com/MD/Waldorf/125-Jefferson-Rd-20602/home/14422453,BRIGHT MLS,MDCH2001836,N,Y,38.6015071,-76.9237377
PAST SALE,,Single Family Residential,4809 Girvan Ct,Waldorf,MD,20602,535000,,3.5,,4467,9925,2008,,120,,,,,https://www.redfin.com/MD/Waldorf/4809-Girvan-Ct-20602/home/14412657,,,N,Y,38.5839605,-76.9049466
PAST SALE,,Single Family Residential,,St Charles,MD,20602,501570,,,,,8843,,,,,,,,https://www.redfin.com/MD/St-Charles/Unknown-20602/home/147464858,,,N,Y,38.593093,-76.9066829
PAST SALE,October-23-2020,Single Family Residential,3105 Knolewater Ct,Waldorf,MD,20602,325000,3,2.0,ST CHARLES SUB - BANNIST,1506,8653,1977,408,216,36,Sold,,,https://www.redfin.com/MD/Waldorf/3105-Knolewater-Ct-20602/home/14421947,BRIGHT MLS,MDCH217206,N,Y,38.5964877,-76.9030187
PAST SALE,October-15-2020,Single Family Residential,3128 Gladstone Ct,Waldorf,MD,20602,325000,3,2.5,ST CHARLES SUB - HUNTING,1664,4739,1993,416,195,79,Sold,,,https://www.redfin.com/MD/Waldorf/3128-Gladstone-Ct-20602/home/14411679,BRIGHT MLS,MDCH216740,N,Y,38.6112784,-76.8923855
PAST SALE,April-24-2020,Townhouse,5424 Doubleday Ln,Waldorf,MD,20602,320000,4,2.5,ST CHARLES SUB - FIELDSI,2052,1786,2014,590,156,51,Sold,,,https://www.redfin.com/MD/WALDORF/5424-DOUBLEDAY-LN-20602/home/52911330,BRIGHT MLS,MDCH211588,N,Y,38.560126,-76.910282
PAST SALE,June-24-2019,Townhouse,3409-A White Fir Ct,Waldorf,MD,20602,199900,3,1.5,ST CHARLES SUB - HUNTING,1106,1350,1983,895,181,91,Sold,,,https://www.redfin.com/MD/Waldorf/3409-White-Fir-Ct-20602/unit-A/home/14392574,BRIGHT MLS,MDCH201616,N,Y,38.6076765,-76.8870118
PAST SALE,October-11-2021,Townhouse,1004 Dorset Dr,Waldorf,MD,20602,250000,3,1.5,ST CHARLES SUB - CARRING,1380,3000,1981,55,181,42,Sold,,,https://www.redfin.com/MD/Waldorf/1004-Dorset-Dr-20602/home/14393585,BRIGHT MLS,MDCH2002472,N,Y,38.6021033,-76.9095798
PAST SALE,April-16-2021,Single Family Residential,43 Tadcaster Cir,Waldorf,MD,20602,340000,3,2.0,ST CHARLES SUB - CARRING,1600,11369,1979,233,213,,Sold,,,https://www.redfin.com/MD/Waldorf/43-Tadcaster-Cir-20602/home/14416812,BRIGHT MLS,MDCH222398,N,Y,38.5877172,-76.9208319
PAST SALE,January-17-2020,Townhouse,11738 Palm Desert Pl,Waldorf,MD,20602,315000,3,3.0,ST CHARLES SUB - GLENEAG,2403,2439,2011,688,131,110,Sold,,,https://www.redfin.com/MD/Waldorf/11738-Palm-Desert-Pl-20602/home/44628722,BRIGHT MLS,MDCH208900,N,Y,38.5746579,-76.9072869
PAST SALE,December-28-2020,Single Family Residential,927 Sloan Ave,Waldorf,MD,20602,322000,4,2.0,ST CHARLES SUB - CARRING,1781,15680,1967,342,181,,Sold,,,https://www.redfin.com/MD/Waldorf/927-Sloan-Ave-20602/home/14377853,BRIGHT MLS,MDCH219712,N,Y,38.6072581,-76.913828
PAST SALE,October-16-2020,Single Family Residential,70 Garner Ave,Waldorf,MD,20602,330000,4,2.5,ST CHARLES SUB - CARRING,1991,17523,1969,415,166,,Sold,,,https://www.redfin.com/MD/Waldorf/70-Garner-Ave-20602/home/15153762,BRIGHT MLS,MDCH216670,N,Y,38.60148,-76.9281203
PAST SALE,May-3-2019,Single Family Residential,11950 Castle Pines Ln,Waldorf,MD,20602,366500,4,2.5,ST CHARLES SUB - SHEFFIE,3054,9158,2003,947,120,84,Sold,,,https://www.redfin.com/MD/Waldorf/11950-Castle-Pines-Ln-20602/home/14420167,BRIGHT MLS,MDCH193910,N,Y,38.5906035,-76.9099113
PAST SALE,November-30-2020,Single Family Residential,2314 Jamestown Ct,Waldorf,MD,20602,375000,5,3.5,ST CHARLES SUB - WAKEFIE,2948,32001,1979,370,127,,Sold,,,https://www.redfin.com/MD/Waldorf/2314-Jamestown-Ct-20602/home/14383462,BRIGHT MLS,MDCH218764,N,Y,38.6006969,-76.8838294
PAST SALE,December-14-2018,Townhouse,4614 Scottsdale Pl,Waldorf,MD,20602,286000,3,3.0,ST CHARLES SUB - SHEFFIE,2012,2216,2007,1087,142,103,Sold,,,https://www.redfin.com/MD/Waldorf/4614-Scottsdale-Pl-20602/home/15152859,BRIGHT MLS,1002289162,N,Y,38.5867953,-76.9156536
PAST SALE,November-29-2021,Single Family Residential,710 University Dr,Waldorf,MD,20602,365000,4,2.0,ST CHARLES SUB - CARRING,1755,12225,1975,6,208,,Sold,,,https://www.redfin.com/MD/Waldorf/710-University-Dr-20602/home/14393891,BRIGHT MLS,MDCH2000075,N,Y,38.5899383,-76.9221653
PAST SALE,February-1-2019,Single Family Residential,11671 Medinah St,Waldorf,MD,20602,341000,3,3.5,ST CHARLES SUB - SHEFFIE,2545,6506,2010,1038,134,58,Sold,,,https://www.redfin.com/MD/Waldorf/11671-Medinah-St-20602/home/22680360,BRIGHT MLS,MDCH100446,N,Y,38.5835061,-76.9108972
PAST SALE,November-1-2021,Townhouse,11984 Roy Hobbs Pl,Waldorf,MD,20602,354000,3,3.0,ST CHARLES SUB - FIELDSI,1792,1700,2016,34,198,45,Sold,,,https://www.redfin.com/MD/Waldorf/11984-Roy-Hobbs-Pl-20602/home/96103953,BRIGHT MLS,MDCH2002354,N,Y,38.5589277,-76.9067322
PAST SALE,,Condo/Co-op,5133 Shawe Pl Unit C,Waldorf,MD,20602,180000,,2.0,,1243,,1977,,145,,,,,https://www.redfin.com/MD/Waldorf/5133-Shawe-Pl-20602/unit-C/home/14395278,,,N,Y,38.5908945,-76.9025256
PAST SALE,October-12-2021,Single Family Residential,11496 Breezy Point Ct,Waldorf,MD,20602,420000,4,3.5,ST CHARLES SUB - SHEFFIE,2316,7622,2002,54,181,82,Sold,,,https://www.redfin.com/MD/Waldorf/11496-Breezy-Point-Ct-20602/home/14409747,BRIGHT MLS,MDCH2002148,N,Y,38.5925353,-76.913441
PAST SALE,,Condo/Co-op,4532 Reeves Pl Unit 46-KR,Waldorf,MD,20602,167000,,2.5,,1350,,1977,,124,,,,,https://www.redfin.com/MD/Waldorf/4532-Reeves-Pl-20602/unit-46-KR/home/14381743,,,N,Y,38.5937688,-76.9006002
PAST SALE,July-10-2020,Townhouse,5522 Peanuts Ln,Waldorf,MD,20602,345000,3,2.5,ST CHARLES SUB - FIELDSI,2160,1786,2016,513,160,50,Sold,,,https://www.redfin.com/MD/Waldorf/5522-Peanuts-Ln-20602/home/113611102,BRIGHT MLS,MDCH214034,N,Y,38.5593303,-76.9112095
PAST SALE,October-21-2019,Townhouse,12 King James Pl,Waldorf,MD,20602,185000,3,1.5,ST CHARLES SUB - WAKEFIE,1368,2200,1978,776,135,28,Sold,,,https://www.redfin.com/MD/Waldorf/12-King-James-Pl-20602/home/14406986,BRIGHT MLS,MDCH206058,N,Y,38.5994999,-76.8841285
PAST SALE,February-20-2020,Townhouse,11823 Sunset Ridge Pl,Waldorf,MD,20602,319999,3,3.0,ST CHARLES SUB - GLENEAG,2228,2800,2012,654,144,72,Sold,,,https://www.redfin.com/MD/Waldorf/11823-Sunset-Ridge-Pl-20602/home/50274447,BRIGHT MLS,MDCH208494,N,Y,38.5723575,-76.9050329
PAST SALE,September-15-2021,Townhouse,5132C Shawe Pl,Waldorf,MD,20602,205000,3,2.0,Waldorf,1078,,1977,81,190,300,Sold,,,https://www.redfin.com/MD/Waldorf/5132-Shawe-Pl-20602/unit-C/home/14393716,BRIGHT MLS,MDCH2002108,N,Y,38.5911794,-76.9021396
PAST SALE,December-23-2020,Single Family Residential,4442 Quillen Cir,Waldorf,MD,20602,315000,4,3.0,ST CHARLES SUB - BANNIST,1506,7037,1978,347,209,38,Sold,,,https://www.redfin.com/MD/Waldorf/4442-Quillen-Cir-20602/home/14378466,BRIGHT MLS,MDCH218630,N,Y,38.5907255,-76.9007986
PAST SALE,April-8-2020,Single Family Residential,4776 Monterey Ct,Waldorf,MD,20602,377000,3,3.5,ST CHARLES SUB - SHEFFIE,2374,6048,2010,606,159,72,Sold,,,https://www.redfin.com/MD/Waldorf/4776-Monterey-Ct-20602/home/22679941,BRIGHT MLS,MDCH211672,N,Y,38.5826987,-76.9096952
PAST SALE,February-5-2020,Townhouse,3121 Heathcote Rd,Waldorf,MD,20602,179900,3,1.0,ST CHARLES SUB - HUNTING,1034,1146,1983,669,174,63,Sold,,,https://www.redfin.com/MD/Waldorf/3121-Heathcote-Rd-20602/home/14410025,BRIGHT MLS,MDCH208698,N,Y,38.6092858,-76.8917813
PAST SALE,,Single Family Residential,643 University Dr,Waldorf,MD,20602,225000,,1.0,,1157,9207,1976,,194,,,,,https://www.redfin.com/MD/Waldorf/643-University-Dr-20602/home/14382856,,,N,Y,38.5876301,-76.9217702
PAST SALE,,Townhouse,2418 Ferrell Ct,Waldorf,MD,20602,237500,,1.0,,1056,4399,1977,,225,,,,,https://www.redfin.com/MD/Waldorf/2418-Ferrell-Ct-20602/home/14401231,,,N,Y,38.5987129,-76.9076782
PAST SALE,May-31-2019,Single Family Residential,11698 Henryetta Ct,Waldorf,MD,20602,398500,4,3.0,ST CHARLES SUB - SHEFFIE,4512,6225,2008,919,88,,Sold,,,https://www.redfin.com/MD/Waldorf/11698-Henryetta-Ct-20602/home/18989417,BRIGHT MLS,MDCH201422,N,Y,38.5851649,-76.9081638
PAST SALE,March-10-2020,Single Family Residential,2438 Pimlico Ct,Waldorf,MD,20602,225000,3,1.5,ST CHARLES SUB - WAKEFIE,1322,7355,1982,635,170,29,Sold,,,https://www.redfin.com/MD/Waldorf/2438-Pimlico-Ct-20602/home/14423996,BRIGHT MLS,MDCH208940,N,Y,38.5958041,-76.8867111
PAST SALE,December-28-2018,Single Family Residential,11433 Westmont Ct,Waldorf,MD,20602,317500,3,2.5,ST CHARLES SUB - SHEFFIE,1544,6966,2002,1073,206,56,Sold,,,https://www.redfin.com/MD/Waldorf/11433-Westmont-Ct-20602/home/14382596,BRIGHT MLS,1009954532,N,Y,38.5900773,-76.9145571
PAST SALE,February-21-2020,Single Family Residential,3103 Federal House Ct,Waldorf,MD,20602,272600,3,2.0,ST CHARLES SUB - HUNTING,1388,19069,1983,653,196,35,Sold,,,https://www.redfin.com/MD/Waldorf/3103-Federal-House-Ct-20602/home/14403990,BRIGHT MLS,MDCH209962,N,Y,38.6102038,-76.8965724
PAST SALE,December-12-2018,Single Family Residential,902 Prentiss Rd,Waldorf,MD,20602,237000,3,1.0,ST CHARLES SUB - CARRING,1377,11330,1967,1089,172,,Sold,,,https://www.redfin.com/MD/Waldorf/902-Prentiss-Rd-20602/home/14381520,BRIGHT MLS,MDCH100230,N,Y,38.6080806,-76.9151821
PAST SALE,April-30-2019,Townhouse,12325 Sweetbriar Pl,Waldorf,MD,20602,240000,4,3.0,LAKEWOOD EST SUB,1890,1520,1997,950,127,33,Sold,,,https://www.redfin.com/MD/Waldorf/12325-Sweetbriar-Pl-20602/home/14374990,BRIGHT MLS,MDCH194488,N,Y,38.611517,-76.8816258
PAST SALE,May-28-2021,Single Family Residential,3449-C Elderberry Pl,Waldorf,MD,20602,339000,3,2.5,ST CHARLES SUB - HUNTING,1654,6876,1983,191,205,76,Sold,,,https://www.redfin.com/MD/Waldorf/3449-Elderberry-Pl-20602/unit-C/home/14374364,BRIGHT MLS,MDCH223916,N,Y,38.6085824,-76.8836374
PAST SALE,April-29-2020,Townhouse,1725 Brightwell Ct,Waldorf,MD,20602,199900,3,1.0,ST CHARLES SUB - BANNIST,1056,1306,1976,585,189,46,Sold,,,https://www.redfin.com/MD/Waldorf/1725-Brightwell-Ct-20602/home/14405292,BRIGHT MLS,MDCH212130,N,Y,38.5962043,-76.9059303
PAST SALE,March-22-2019,Single Family Residential,5689 River Shark Ln,Waldorf,MD,20603,436930,8,3.5,FIELDSIDE AT ST CHARLES,4020,8712,2019,989,109,4,Sold,,,https://www.redfin.com/MD/Waldorf/5689-River-Shark-Ln-20602/home/165852817,BRIGHT MLS,MDCH200536,N,Y,38.557331,-76.912987
PAST SALE,November-15-2019,Single Family Residential,2042 All Hallows Ct,Waldorf,MD,20602,332000,3,2.5,ST CHARLES SUB - WAKEFIE,2861,17684,1979,751,116,38,Sold,,,https://www.redfin.com/MD/Waldorf/2042-All-Hallows-Ct-20602/home/14404805,BRIGHT MLS,MDCH202182,N,Y,38.6038834,-76.8932341
PAST SALE,October-22-2020,Single Family Residential,4952 Morraine St,Saint Charles,MD,20602,470000,4,3.5,ST CHARLES SUB - GLENEAG,3500,7500,2010,409,134,67,Sold,,,https://www.redfin.com/MD/Waldorf/4952-Morraine-St-20602/home/22679889,BRIGHT MLS,MDCH216906,N,Y,38.5761742,-76.9109032
PAST SALE,June-24-2019,Single Family Residential,3514 Sugar Maple Ct,Waldorf,MD,20602,324900,3,2.5,ST CHARLES SUB - HUNTING,1941,11214,1985,895,167,46,Sold,,,https://www.redfin.com/MD/Waldorf/3514-Sugar-Maple-Ct-20602/home/14391617,BRIGHT MLS,MDCH201328,N,Y,38.6040875,-76.8808144
PAST SALE,July-31-2020,Single Family Residential,841 Copley Ave,Waldorf,MD,20602,256062,3,1.5,ST CHARLES SUB - CARRING,1536,8800,1967,492,167,,Sold,,,https://www.redfin.com/MD/Waldorf/841-Copley-Ave-20602/home/14401666,BRIGHT MLS,MDCH214248,N,Y,38.609843,-76.9074548
PAST SALE,February-28-2020,Townhouse,4202 Quigley Ct,Waldorf,MD,20602,150000,3,1.0,ST CHARLES SUB - BANNIST,1000,,1976,646,150,25,Sold,,,https://www.redfin.com/MD/Waldorf/4202-Quigley-Ct-20602/home/14396880,BRIGHT MLS,MDCH210470,N,Y,38.5911298,-76.8972828
PAST SALE,March-26-2021,Single Family Residential,2278 Ingleside Ct,Waldorf,MD,20602,290350,3,1.5,ST CHARLES SUB - WAKEFIE,1536,12068,1979,254,189,42,Sold,,,https://www.redfin.com/MD/Waldorf/2278-Ingleside-Ct-20602/home/14408231,BRIGHT MLS,MDCH220598,N,Y,38.6014842,-76.88606
PAST SALE,June-4-2021,Single Family Residential,4616 La Costa Ln,Waldorf,MD,20602,515000,4,3.5,ST CHARLES SUB - SHEFFIE,3564,7692,2008,184,145,90,Sold,,,https://www.redfin.com/MD/Waldorf/4616-La-Costa-Ln-20602/home/18989398,BRIGHT MLS,MDCH222586,N,Y,38.5855729,-76.9095927
PAST SALE,October-8-2021,Townhouse,3417-D Walnut Ct Unit D,Waldorf,MD,20602,255000,3,1.5,ST CHARLES SUB - HUNTING,1346,1350,1983,58,189,91,Sold,,,https://www.redfin.com/MD/Waldorf/3417-Walnut-Ct-20602/unit-D/home/14391392,BRIGHT MLS,MDCH2002898,N,Y,38.6076346,-76.885351
PAST SALE,July-19-2021,Single Family Residential,3811 Owen Ct,Waldorf,MD,20602,383500,4,2.0,ST CHARLES SUB - BANNIST,1794,16050,1977,139,214,3,Sold,,,https://www.redfin.com/MD/Waldorf/3811-Owen-Ct-20602/home/14384808,BRIGHT MLS,MDCH224592,N,Y,38.5944556,-76.8968438
PAST SALE,December-1-2021,Single Family Residential,1406 Boswell Ct,Waldorf,MD,20602,400000,3,2.0,ST CHARLES SUB - BANNIST,1469,9069,1978,4,272,,Sold,,,https://www.redfin.com/MD/Waldorf/1406-Boswell-Ct-20602/home/14378318,BRIGHT MLS,MDCH2004388,N,Y,38.5936728,-76.906189
PAST SALE,March-4-2021,Townhouse,3837 Lakewood Pl,Waldorf,MD,20602,284000,3,3.0,LAKEWOOD EST SUB,1622,1717,1997,276,175,63,Sold,,,https://www.redfin.com/MD/Waldorf/3837-Lakewood-Pl-20602/home/14386317,BRIGHT MLS,MDCH221344,N,Y,38.6096239,-76.8808535
PAST SALE,March-30-2021,Single Family Residential,11444 Westmont Ct,Waldorf,MD,20602,391500,3,3.5,ST CHARLES SUB - SHEFFIE,2111,7104,2002,250,185,67,Sold,,,https://www.redfin.com/MD/Waldorf/11444-Westmont-Ct-20602/home/14407607,BRIGHT MLS,MDCH221416,N,Y,38.5909673,-76.9140998
PAST SALE,August-7-2019,Townhouse,1027 Dorset Dr,Waldorf,MD,20602,230000,3,2.5,ST CHARLES SUB - CARRING,1380,3049,1980,851,167,41,Sold,,,https://www.redfin.com/MD/Waldorf/1027-Dorset-Dr-20602/home/14402778,BRIGHT MLS,MDCH204290,N,Y,38.6011607,-76.9095653
PAST SALE,February-3-2021,Single Family Residential,76 Garner Ave,Waldorf,MD,20602,308000,3,1.5,ST CHARLES SUB - CARRING,1689,17056,1969,305,182,,Sold,,,https://www.redfin.com/MD/Waldorf/76-Garner-Ave-20602/home/15153391,BRIGHT MLS,MDCH216654,N,Y,38.6019486,-76.9275366
PAST SALE,October-15-2021,Townhouse,3772 Merseyside Pl,Waldorf,MD,20602,355000,4,3.0,ST CHARLES SUB - HUNTING,2316,2000,2002,51,153,57,Sold,,,https://www.redfin.com/MD/Waldorf/3772-Merseyside-Pl-20602/home/14398106,BRIGHT MLS,MDCH2003522,N,Y,38.6128338,-76.900612
PAST SALE,September-4-2019,Single Family Residential,4373 Rock Ct,Waldorf,MD,20602,258400,3,2.0,ST CHARLES SUB - BANNIST,1506,8306,1976,823,172,27,Sold,,,https://www.redfin.com/MD/Waldorf/4373-Rock-Ct-20602/home/14408086,BRIGHT MLS,MDCH202096,N,Y,38.5930968,-76.8993911
PAST SALE,November-18-2020,Single Family Residential,2102 Duckwalk Ct,Waldorf,MD,20602,307000,3,1.5,ST CHARLES SUB - WAKEFIE,1676,14980,1980,382,183,35,Sold,,,https://www.redfin.com/MD/Waldorf/2102-Duckwalk-Ct-20602/home/14411252,BRIGHT MLS,MDCH218224,N,Y,38.6045735,-76.8901558
PAST SALE,September-15-2020,Single Family Residential,2132 Duckwalk Ct,Waldorf,MD,20602,260000,3,2.5,ST CHARLES SUB - WAKEFIE,1666,10948,1979,446,156,41,Sold,,,https://www.redfin.com/MD/Waldorf/2132-Duckwalk-Ct-20602/home/14422521,BRIGHT MLS,MDCH215418,N,Y,38.6056277,-76.8889242
PAST SALE,,Condo/Co-op,5126 Shawe Pl Unit B,Waldorf,MD,20602,199000,,2.5,,1350,,1977,,147,,,,,https://www.redfin.com/MD/Waldorf/5126-Shawe-Pl-20602/unit-B/home/14395420,,,N,Y,38.591134,-76.9031928
PAST SALE,November-4-2021,Townhouse,4504-C Ruston Pl Unit 41-M,Waldorf,MD,20602,210000,3,2.0,ST CHARLES SUB - BANNIST,1078,,1977,31,195,316,Sold,,,https://www.redfin.com/MD/Waldorf/4504C-Ruston-Pl-20602/unit-41-M/home/176419254,BRIGHT MLS,MDCH2003776,N,Y,38.593068,-76.901315
PAST SALE,June-7-2019,Single Family Residential,4016 Oakley Dr,Waldorf,MD,20602,295000,4,3.0,ST CHARLES SUB - BANNIST,2036,15000,1977,912,145,25,Sold,,,https://www.redfin.com/MD/Waldorf/4016-Oakley-Dr-20602/home/14419865,BRIGHT MLS,MDCH163020,N,Y,38.594152,-76.8962077
PAST SALE,September-17-2021,Single Family Residential,133 Stoddert Ave,Waldorf,MD,20602,314953,3,1.0,ST CHARLES SUB - CARRING,1157,7773,1968,79,272,,Sold,,,https://www.redfin.com/MD/Waldorf/133-Stoddert-Ave-20602/home/14374369,BRIGHT MLS,MDCH2002758,N,Y,38.6065236,-76.9203145
PAST SALE,August-27-2021,Single Family Residential,220 Garner Ave,Waldorf,MD,20602,300000,4,2.0,ST CHARLES SUB - CARRING,1581,9800,1966,100,190,,Sold,,,https://www.redfin.com/MD/Waldorf/220-Garner-Ave-20602/home/14394596,BRIGHT MLS,MDCH2000892,N,Y,38.6028357,-76.9181422
PAST SALE,September-17-2021,Townhouse,3919 Light Arms Pl,Waldorf,MD,20602,258000,3,1.5,ST CHARLES SUB - HUNTING,1160,1400,1983,79,222,72,Sold,,,https://www.redfin.com/MD/Waldorf/3919-Light-Arms-Pl-20602/home/14414738,BRIGHT MLS,MDCH2002394,N,Y,38.6067151,-76.901295
PAST SALE,September-2-2021,Townhouse,12489 Turtle Dove Pl,Waldorf,MD,20602,345000,4,3.5,LAKEWOOD EST SUB,1700,,1991,94,203,63,Sold,,,https://www.redfin.com/MD/Waldorf/12489-Turtle-Dove-Pl-20602/home/14418866,BRIGHT MLS,MDCH2001260,N,Y,38.6103138,-76.8789615
PAST SALE,June-15-2021,Single Family Residential,3801 Owen Ct,Waldorf,MD,20602,420000,5,2.5,ST CHARLES SUB - BANNIST,3392,18063,1978,173,124,35,Sold,,,https://www.redfin.com/MD/Waldorf/3801-Owen-Ct-20602/home/14411316,BRIGHT MLS,MDCH223918,N,Y,38.5947649,-76.8949524
PAST SALE,March-26-2019,Single Family Residential,11955 Winged Foot Ct,Waldorf,MD,20602,419900,4,3.5,ST CHARLES SUB - GLENEAG,3776,8668,2012,985,111,71,Sold,,,https://www.redfin.com/MD/Waldorf/11955-Winged-Foot-Ct-20602/home/50274453,BRIGHT MLS,1007545232,N,Y,38.5691644,-76.9070206
PAST SALE,September-15-2021,Single Family Residential,3953 Old Washington Rd,Waldorf,MD,20602,379000,3,2.5,MARYLAND GARDENS SUB,1832,44867,1965,81,207,,Sold,,,https://www.redfin.com/MD/Waldorf/3953-Old-Washington-Rd-20602/home/14408496,BRIGHT MLS,MDCH2000788,N,Y,38.6038696,-76.9303947
PAST SALE,March-29-2019,Townhouse,2753 Red Lion Pl,Waldorf,MD,20602,183000,3,1.5,ST CHARLES SUB - WAKEFIE,1056,1540,1979,982,173,75,Sold,,,https://www.redfin.com/MD/Waldorf/2753-Red-Lion-Pl-20602/home/14396902,BRIGHT MLS,MDCH129750,N,Y,38.5976502,-76.8890776
PAST SALE,December-19-2019,Single Family Residential,2383 Windsor Park Ct,Waldorf,MD,20602,245000,3,2.0,ST CHARLES SUB - WAKEFIE,1626,6000,1980,717,151,,Sold,,,https://www.redfin.com/MD/Waldorf/2383-Windsor-Park-Ct-20602/home/14424545,BRIGHT MLS,MDCH208044,N,Y,38.5999626,-76.8912821
PAST SALE,May-28-2020,Townhouse,3419-A Walnut Ct,Waldorf,MD,20602,235000,3,1.5,ST CHARLES SUB - HUNTING,1106,1350,1983,556,212,94,Sold,,,https://www.redfin.com/MD/Waldorf/3419-Walnut-Ct-20602/unit-A/home/14422821,BRIGHT MLS,MDCH211758,N,Y,38.6080456,-76.885361
PAST SALE,July-27-2020,Single Family Residential,3147 Franklin Ct,Waldorf,MD,20602,325000,4,2.0,ST CHARLES SUB - HUNTING,1996,14853,1983,496,163,46,Sold,,,https://www.redfin.com/MD/Waldorf/3147-Franklin-Ct-20602/home/14409726,BRIGHT MLS,MDCH211092,N,Y,38.6104602,-76.8940518
PAST SALE,February-28-2020,Single Family Residential,3086 Huntington Cir,Waldorf,MD,20602,263400,3,2.5,ST CHARLES SUB - HUNTING,1560,15491,1983,646,169,36,Sold,,,https://www.redfin.com/MD/Waldorf/3086-Huntington-Cir-20602/home/14406647,BRIGHT MLS,MDCH209542,N,Y,38.6113479,-76.8947723
PAST SALE,July-26-2019,Townhouse,787 Mccoy Dr,Waldorf,MD,20602,202000,3,1.0,ST CHARLES SUB - HUNTING,1056,5970,1979,863,191,25,Sold,,,https://www.redfin.com/MD/Waldorf/787-Mccoy-Dr-20602/home/14374530,BRIGHT MLS,MDCH201282,N,Y,38.6059015,-76.9056109
PAST SALE,November-2-2021,Single Family Residential,4409 Quillen Cir,Waldorf,MD,20602,390000,4,3.5,ST CHARLES SUB - BANNIST,1960,10111,1978,33,199,43,Sold,,,https://www.redfin.com/MD/Waldorf/4409-Quillen-Cir-20602/home/14411082,BRIGHT MLS,MDCH2002768,N,Y,38.5914112,-76.8987774
PAST SALE,May-22-2020,Single Family Residential,3443-B Hyacinth Pl,Waldorf,MD,20602,311000,4,3.0,ST CHARLES SUB - HUNTING,2051,13268,1983,562,152,83,Sold,,,https://www.redfin.com/MD/Waldorf/3443-Hyacinth-Pl-20602/unit-B/home/14401470,BRIGHT MLS,MDCH212588,N,Y,38.6099051,-76.8846627
PAST SALE,March-5-2021,Single Family Residential,221 Compton Rd,Waldorf,MD,20602,290000,3,1.0,ST CHARLES SUB - CARRING,1349,9600,1966,275,215,,Sold,,,https://www.redfin.com/MD/Waldorf/221-Compton-Rd-20602/home/14386618,BRIGHT MLS,MDCH221226,N,Y,38.6029811,-76.9176469
PAST SALE,September-24-2021,Single Family Residential,4951 Crooked Creek Ct,Waldorf,MD,20602,500000,4,3.5,ST CHARLES SUB - SHEFFIE,3870,8529,2005,72,129,79,Sold,,,https://www.redfin.com/MD/Waldorf/4951-Crooked-Creek-Ct-20602/home/14381173,BRIGHT MLS,MDCH2002636,N,Y,38.5874511,-76.9072024
PAST SALE,April-16-2021,Townhouse,3803 Lakewood Pl,Waldorf,MD,20602,330000,4,3.5,LAKEWOOD EST SUB,1776,2136,1996,233,186,63,Sold,,,https://www.redfin.com/MD/Waldorf/3803-Lakewood-Pl-20602/home/14421065,BRIGHT MLS,MDCH222346,N,Y,38.6110237,-76.8810628
PAST SALE,,Single Family Residential,900 Barrington Dr,Waldorf,MD,20602,210000,,1.5,,1914,10030,1967,,110,,,,,https://www.redfin.com/MD/Waldorf/900-Barrington-Dr-20602/home/14376860,,,N,Y,38.6060259,-76.9070496
PAST SALE,August-15-2019,Single Family Residential,4432 Quillen Cir,Waldorf,MD,20602,275000,3,2.5,ST CHARLES SUB - BANNIST,1748,13569,1978,843,157,37,Sold,,,https://www.redfin.com/MD/Waldorf/4432-Quillen-Cir-20602/home/14422622,BRIGHT MLS,MDCH204010,N,Y,38.5899738,-76.8999389
