SALE TYPE,SOLD DATE,PROPERTY TYPE,ADDRESS,CITY,STATE OR PROVINCE,ZIP OR POSTAL CODE,PRICE,BEDS,BATHS,LOCATION,SQUARE FEET,LOT SIZE,YEAR BUILT,DAYS ON MARKET,$/SQUARE FEET,HOA/MONTH,STATUS,NEXT OPEN HOUSE START TIME,NEXT OPEN HOUSE END TIME,URL (SEE https://www.redfin.com/buy-a-home/comparative-market-analysis FOR INFO ON PRICING),SOURCE,MLS#,FAVORITE,INTERESTED,LATITUDE,LONGITUDE
MLS Listing,,Townhouse,41883 Precious Sq,Aldie,VA,20105,575000,3,3.0,KIRKPATRICK FARMS,2442,3049,2005,23,235,109,Active,,,https://www.redfin.com/VA/Aldie/41883-Precious-Sq-20105/home/12082588,BRIGHT MLS,VALO2011554,N,Y,38.915318,-77.555127
PAST SALE,May-20-2019,Townhouse,24614 Nettle Mill Sq,Aldie,VA,20105,470000,3,3.0,STONE RIDGE NORTH,2384,2178,2003,929,197,95,Sold,,,https://www.redfin.com/VA/Aldie/24614-Nettle-Mill-Sq-20105/home/12071000,BRIGHT MLS,VALO380058,N,Y,38.936447,-77.546612
PAST SALE,July-26-2021,Single Family Residential,25065 Owl Creek Dr,Aldie,VA,20105,833050,4,4.5,STONE RIDGE SOUTH,4491,9148,2006,131,185,154,Sold,,,https://www.redfin.com/VA/Stone-Ridge/25065-Owl-Creek-Dr-20105/home/12102487,BRIGHT MLS,VALO441678,N,Y,38.9242953,-77.5516198
PAST SALE,November-25-2020,Condo/Co-op,24757 Stone Station Ter,Aldie,VA,20105,310000,2,2.5,AMBER SPRING CONDO,1280,,2003,374,242,355,Sold,,,https://www.redfin.com/VA/Aldie/24757-Stone-Station-Ter-20105/unit-107/home/12078114,BRIGHT MLS,VALO424060,N,Y,38.933234,-77.5438006
PAST SALE,April-28-2020,Townhouse,25151 Sweet Myrtle Sq,Aldie,VA,20105,495000,3,3.5,STONE RIDGE SOUTH,2478,2178,2012,585,200,97,Sold,,,https://www.redfin.com/VA/Aldie/25151-Sweet-Myrtle-Sq-20105/home/40510901,BRIGHT MLS,VALO405760,N,Y,38.9219981,-77.5581132
PAST SALE,March-3-2021,Townhouse,41530 Quarter Mane Ter,Aldie,VA,20105,542000,3,2.5,KIRKPATRICK WEST,2028,1742,2014,276,267,105,Sold,,,https://www.redfin.com/VA/Aldie/41530-Quarter-Mane-Ter-20105/home/52771108,BRIGHT MLS,VALO429440,N,Y,38.9083931,-77.5674855
PAST SALE,May-18-2021,Townhouse,41794 Inspiration Ter,Aldie,VA,20105,387500,3,2.5,CONDOMINIUMS AT KIRKPATR,1644,,2007,200,236,265,Sold,,,https://www.redfin.com/VA/Aldie/41794-Inspiration-Ter-20105/unit-0010A/home/14365223,BRIGHT MLS,VALO436800,N,Y,38.917442,-77.558295
PAST SALE,October-30-2019,Townhouse,41705 Deer Grass Ter,Aldie,VA,20105,619900,5,4.5,GREENFIELD CROSSING,4548,4792,2013,766,136,108,Sold,,,https://www.redfin.com/VA/Aldie/41705-Deer-Grass-Ter-20105/home/56514703,BRIGHT MLS,VALO394766,N,Y,38.921889,-77.5622343
PAST SALE,July-7-2020,Townhouse,42128 Piebald Sq,Aldie,VA,20105,380000,3,2.5,VIRGINIA MANOR,1650,,2017,515,230,273,Sold,,,https://www.redfin.com/VA/Aldie/42128-Piebald-Sq-20105/home/113377038,BRIGHT MLS,VALO413030,N,Y,38.9005359,-77.5467124
PAST SALE,May-28-2021,Townhouse,42286 San Juan Ter,Aldie,VA,20105,425000,3,2.5,MERCER PARK CONDOMINIUM,2696,,2013,190,158,285,Sold,,,https://www.redfin.com/VA/Aldie/42286-San-Juan-Ter-20105/home/56519764,BRIGHT MLS,VALO434274,N,Y,38.934847,-77.542131
PAST SALE,March-5-2021,Townhouse,41973 Pickwick Mill Ter,Aldie,VA,20105,450000,3,2.5,STONE MILL CORNER CONDOM,1992,,2020,274,226,277,Sold,,,https://www.redfin.com/VA/Stone-Ridge/41973-Pickwick-Ml-Ter-20105/home/174296312,BRIGHT MLS,VALO429908,N,Y,38.937109,-77.550279
PAST SALE,May-2-2019,Single Family Residential,40569 Aldie Springs Dr,Aldie,VA,20105,705000,4,3.0,ROCKBRIDGE,3368,14375,2015,947,209,108,Sold,,,https://www.redfin.com/VA/Aldie/40569-Aldie-Springs-Dr-20105/home/102207779,BRIGHT MLS,VALO353580,N,Y,38.9416656,-77.5979872
PAST SALE,,Single Family Residential,24982 Mineral Springs Cir,Stone Ridge,VA,20105,665000,,3.5,,3900,7841,2005,,171,,,,,https://www.redfin.com/VA/Stone-Ridge/24982-Mineral-Springs-Cir-20105/home/12086806,,,N,Y,38.9264968,-77.5528514
PAST SALE,January-20-2020,Condo/Co-op,42145 Piebald Sq,Aldie,VA,20105,349900,2,2.0,VIRGINIA MANOR,1438,,2015,684,243,231,Sold,,,https://www.redfin.com/VA/Aldie/42145-Piebald-Sq-20105/unit-5B/home/112908558,BRIGHT MLS,VALO399724,N,Y,38.9004005,-77.5466291
PAST SALE,July-10-2019,Single Family Residential,25841 Racing Sun Dr,Aldie,VA,20105,649800,5,3.5,SEVEN HILLS,3894,7841,2014,878,167,94,Sold,,,https://www.redfin.com/VA/Aldie/25841-Racing-Sun-Dr-20105/home/56519707,BRIGHT MLS,VALO381174,N,Y,38.9014022,-77.5487089
PAST SALE,October-22-2020,Townhouse,25343 Curiosity Sq,Aldie,VA,20105,380000,3,2.5,CONDOMINIUMS AT KIRKPATR,2552,,2008,408,149,384,Sold,,,https://www.redfin.com/VA/Aldie/25343-Curiosity-Sq-20105/unit-0012H/home/21678462,BRIGHT MLS,VALO420526,N,Y,38.917061,-77.557158
PAST SALE,July-15-2020,Single Family Residential,40988 Maplehurst Dr,Aldie,VA,20105,920000,7,5.5,ARCADIA SUNBERRY,5430,14375,2018,507,169,94,Sold,,,https://www.redfin.com/VA/Aldie/40988-Maplehurst-Dr-20105/home/144866931,BRIGHT MLS,VALO411450,N,Y,38.9586075,-77.5847766
PAST SALE,October-2-2020,Townhouse,24713 Gracehill Ter,Aldie,VA,20105,511000,3,2.5,STONE RIDGE LAND BAY 3,2183,2178,2014,428,234,94,Sold,,,https://www.redfin.com/VA/Aldie/24713-Gracehill-Ter-20105/home/58170426,BRIGHT MLS,VALO419156,N,Y,38.9338796,-77.5611583
PAST SALE,April-15-2019,Townhouse,25193 Destination Sq,Aldie,VA,20105,450000,3,3.0,KIRKPATRICK FARMS,2588,3049,2005,964,174,109,Sold,,,https://www.redfin.com/VA/Aldie/25193-Destination-Sq-20105/home/12081860,BRIGHT MLS,VALO353794,N,Y,38.9206069,-77.557872
PAST SALE,December-9-2019,Townhouse,41884 Fraser Downs Ter,Aldie,VA,20105,485000,3,3.5,SEVEN HILLS,2407,2178,2015,726,201,106,Sold,,,https://www.redfin.com/VA/Aldie/41884-Fraser-Downs-Ter-20105/home/102207112,BRIGHT MLS,VALO396954,N,Y,38.903414,-77.5549352
PAST SALE,September-25-2020,Single Family Residential,24696 Crested Butte Ct,Aldie,VA,20105,950000,6,5.5,TANGLEWOOD WEST,5810,27007,2019,435,164,67,Sold,,,https://www.redfin.com/VA/Dulles/24696-Crested-Butte-Ct-20105/home/168863573,BRIGHT MLS,VALO411066,N,Y,38.9345431,-77.6048014
PAST SALE,September-20-2021,Townhouse,42259 Black Rock Ter,Aldie,VA,20105,399000,3,2.5,AMBER SPRING CONDO,1796,,2004,75,222,372,Sold,,,https://www.redfin.com/VA/Aldie/42259-Black-Rock-Ter-20105/unit-912/home/12082853,BRIGHT MLS,VALO2003122,N,Y,38.9334577,-77.5419993
PAST SALE,December-3-2020,Single Family Residential,40487 Aspen Highlands Ct,Aldie,VA,20105,977000,6,4.0,TANGLEWOOD WEST,6217,13504,2018,366,157,67,Sold,,,https://www.redfin.com/VA/Aldie/40487-Aspen-Highlands-Ct-20105/home/147603846,BRIGHT MLS,VALO421154,N,Y,38.9363076,-77.6049889
PAST SALE,May-13-2019,Townhouse,41922 Gallberry Ter,Aldie,VA,20105,500000,4,3.5,STONE RIDGE SOUTH,2678,3485,2011,936,187,96,Sold,,,https://www.redfin.com/VA/Aldie/41922-Gallberry-Ter-20105/home/28588377,BRIGHT MLS,VALO380836,N,Y,38.9210637,-77.5534742
PAST SALE,March-23-2021,Townhouse,41641 Waltham Cross Ter,Aldie,VA,20105,575000,3,3.5,STRATSHIRE CROSSING,2735,2614,2011,256,210,104,Sold,,,https://www.redfin.com/VA/Aldie/41641-Waltham-Cross-Ter-20105/home/40156221,BRIGHT MLS,VALO431114,N,Y,38.9221902,-77.5640688
PAST SALE,January-29-2021,Single Family Residential,40609 Yaupon Holly Ln,Aldie,VA,20105,970000,5,4.5,GRANT AT WILLOWSFORD,5000,10454,2018,309,194,364,Sold,,,https://www.redfin.com/VA/Stone-Ridge/40609-Yaupon-Holly-Ln-20105/home/146474570,BRIGHT MLS,VALO427950,N,Y,38.967326,-77.598845
PAST SALE,April-1-2020,Townhouse,42229 Black Rock Ter,Aldie,VA,20105,358900,3,2.5,AMBER SPRING CONDO,1953,,2004,612,184,355,Sold,,,https://www.redfin.com/VA/Aldie/42229-Black-Rock-Ter-20105/unit-310/home/12084060,BRIGHT MLS,VALO402376,N,Y,38.9335189,-77.5425555
PAST SALE,November-13-2019,Townhouse,25291 Gray Poplar Ter,Aldie,VA,20105,369999,3,2.5,LOUDOUN CROSSING CONDOMI,1600,,2017,752,231,157,Sold,,,https://www.redfin.com/VA/Aldie/25291-Gray-Poplar-Ter-20105/home/147566704,BRIGHT MLS,VALO396782,N,Y,38.918465,-77.569129
PAST SALE,August-31-2021,Single Family Residential,41878 Oatlands Point Ct,Aldie,VA,20105,785000,4,4.0,SEVEN HILLS,3830,9583,2013,95,205,102,Sold,,,https://www.redfin.com/VA/Aldie/41878-Oatlands-Point-Ct-20105/home/56519640,BRIGHT MLS,VALO2001562,N,Y,38.906812,-77.5550905
PAST SALE,October-6-2020,Townhouse,42235 Terrazzo Ter,Aldie,VA,20105,377000,3,2.5,AMBER SPRING CONDO,1953,,2004,424,193,355,Sold,,,https://www.redfin.com/VA/Aldie/42235-Terrazzo-Ter-20105/unit-514/home/12079074,BRIGHT MLS,VALO418892,N,Y,38.9328198,-77.5426438
PAST SALE,July-20-2020,Single Family Residential,25704 Green Ash Ln,Aldie,VA,20105,880000,5,5.5,GREENS SOUTH AT WILLOWSF,4224,23522,2015,502,208,233,Sold,,,https://www.redfin.com/VA/Aldie/25704-Green-Ash-Ln-20105/home/102285473,BRIGHT MLS,VALO411364,N,Y,38.9071087,-77.5770015
PAST SALE,October-11-2019,Townhouse,25202 Crested Wheat Dr,Aldie,VA,20105,610000,5,4.5,GREENFIELD CROSSING,4548,4356,2012,785,134,108,Sold,,,https://www.redfin.com/VA/Aldie/25202-Crested-Wheat-Dr-20105/home/44588377,BRIGHT MLS,VALO392064,N,Y,38.9193242,-77.5621434
PAST SALE,March-17-2021,Single Family Residential,23990 Mill Wheel Pl,Aldie,VA,20105,900000,4,2.5,LENAH WOODS,3783,13504,2016,262,238,87,Sold,,,https://www.redfin.com/VA/Aldie/23990-Mill-Wheel-Pl-20105/home/112881306,BRIGHT MLS,VALO430776,N,Y,38.9542624,-77.57552
PAST SALE,October-15-2021,Townhouse,25369 Sweetness Ter,Aldie,VA,20105,520000,3,2.5,KIRKPATRICK FARMS,2442,3049,2005,50,213,109,Sold,,,https://www.redfin.com/VA/Aldie/25369-Sweetness-Ter-20105/home/12082583,BRIGHT MLS,VALO2008590,N,Y,38.9161519,-77.555398
PAST SALE,November-1-2021,Condo/Co-op,24628 Byrne Meadow Sq #301,Aldie,VA,20105,295000,2,2.0,MERCER PARK CONDOMINIUM,1190,,2013,33,248,290,Sold,,,https://www.redfin.com/VA/Aldie/24628-Byrne-Meadow-Sq-20105/unit-301/home/56519792,BRIGHT MLS,VALO2005184,N,Y,38.93534,-77.542459
PAST SALE,March-25-2020,Townhouse,24618 Siltstone Sq,Aldie,VA,20105,515000,3,3.0,STONE RIDGE NORTH,2568,2614,2004,619,201,94,Sold,,,https://www.redfin.com/VA/Aldie/24618-Siltstone-Sq-20105/home/12070887,BRIGHT MLS,VALO402824,N,Y,38.936088,-77.548567
PAST SALE,April-21-2020,Townhouse,41913 Beckett Farms Ter,Aldie,VA,20105,472000,3,2.5,SEVEN HILLS,2046,2178,2015,592,231,107,Sold,,,https://www.redfin.com/VA/Aldie/41913-Beckett-Farms-Ter-20105/home/110300365,BRIGHT MLS,VALO406566,N,Y,38.9018526,-77.5540872
PAST SALE,July-11-2019,Townhouse,25047 Coats Sq,Aldie,VA,20105,359900,3,3.0,WESTRIDGE CONDOMINIUM,1570,,2016,877,229,198,Sold,,,https://www.redfin.com/VA/Aldie/25047-Coats-Sq-20105/home/108451855,BRIGHT MLS,VALO269372,N,Y,38.9247259,-77.5597209
PAST SALE,January-25-2021,Single Family Residential,24194 Crooked Oak Ct,Aldie,VA,20105,905000,4,4.5,LENAH RUN HAMLET,5032,23958,2006,313,180,135,Sold,,,https://www.redfin.com/VA/Aldie/24194-Crooked-Oak-Ct-20105/home/12102573,BRIGHT MLS,VALO426918,N,Y,38.9483107,-77.5860753
PAST SALE,June-14-2019,Townhouse,41518 Horse Chestnut Ter,Aldie,VA,20105,400000,3,2.5,LOUDOUN CROSSING CONDOMI,2614,,2016,904,153,272,Sold,,,https://www.redfin.com/VA/Aldie/41518-Horse-Chestnut-Ter-20105/home/144866772,BRIGHT MLS,VALO383286,N,Y,38.9167199,-77.5664985
PAST SALE,July-26-2019,Townhouse,25110 Harpenden Ter,Aldie,VA,20105,528765,3,3.0,STRATSHIRE CROSSING,3048,3485,2010,862,173,106,Sold,,,https://www.redfin.com/VA/Aldie/25110-Harpenden-Ter-20105/home/40004705,BRIGHT MLS,VALO387986,N,Y,38.9231179,-77.5628112
PAST SALE,September-24-2020,Single Family Residential,41951 Cedar Point Pl,Aldie,VA,20105,756750,5,3.5,SEVEN HILLS,3470,8276,2012,436,218,100,Sold,,,https://www.redfin.com/VA/Aldie/41951-Cedar-Point-Pl-20105/home/56514485,BRIGHT MLS,VALO417898,N,Y,38.9071314,-77.5526499
PAST SALE,March-13-2019,Townhouse,25069 Green Mountain Ter,Aldie,VA,20105,489900,4,3.0,STONE RIDGE SOUTH,2489,3485,2013,997,197,96,Sold,,,https://www.redfin.com/VA/Aldie/25069-Green-Mountain-Ter-20105/home/49873388,BRIGHT MLS,VALO294224,N,Y,38.9242501,-77.5575311
PAST SALE,November-12-2020,Townhouse,42211 Terrazzo Ter,Aldie,VA,20105,385000,3,2.5,AMBER SPRING CONDO,1953,,2004,387,197,355,Sold,,,https://www.redfin.com/VA/Aldie/42211-Terrazzo-Ter-20105/unit-502/home/12079064,BRIGHT MLS,VALO422602,N,Y,38.9329593,-77.5430903
PAST SALE,May-21-2021,Single Family Residential,24909 Oswald Way,Aldie,VA,20105,752800,4,2.5,CD SMITH,2536,8276,2015,197,297,105,Sold,,,https://www.redfin.com/VA/Aldie/24909-Oswald-Way-20105/home/56516555,BRIGHT MLS,VALO436350,N,Y,38.9285863,-77.5602839
PAST SALE,June-3-2019,Condo/Co-op,24688 Lynette Springs Ter,Aldie,VA,20105,365000,3,2.5,MERCER PARK CONDOMINIUM,2696,,2013,915,135,281,Sold,,,https://www.redfin.com/VA/Aldie/24688-Lynette-Spgs-Ter-20105/unit-14102/home/56519898,BRIGHT MLS,VALO379810,N,Y,38.9347011,-77.54243
PAST SALE,June-28-2019,Townhouse,25074 Cypress Mill Ter,Aldie,VA,20105,494500,3,3.5,STONE RIDGE SOUTH,2591,2178,2008,890,191,100,Sold,,,https://www.redfin.com/VA/Aldie/25074-Cypress-Mill-Ter-20105/home/21678628,BRIGHT MLS,VALO384168,N,Y,38.9240013,-77.554945
PAST SALE,November-30-2021,Condo/Co-op,42234 San Juan Ter #15107,Aldie,VA,20105,380000,3,2.5,MERCER PARK CONDOMINIUM,1642,,2013,4,231,282,Sold,,,https://www.redfin.com/VA/Aldie/42234-San-Juan-Ter-20105/unit-15107/home/56519814,BRIGHT MLS,VALO2010920,N,Y,38.934512,-77.542351
PAST SALE,November-18-2020,Single Family Residential,25956 Cullen Run Pl,Aldie,VA,20105,919900,5,3.5,GREENS SOUTH AT WILLOWSF,3822,15682,2019,381,241,222,Sold,,,https://www.redfin.com/VA/Aldie/25956-Cullen-Run-Pl-20105/home/173274970,BRIGHT MLS,VALO421978,N,Y,38.900055,-77.586746
PAST SALE,January-3-2019,Condo/Co-op,42322 San Juan Ter,Aldie,VA,20105,315000,3,2.5,MERCER PARK CONDOMINIUM,1642,,2013,1066,192,281,Sold,,,https://www.redfin.com/VA/Aldie/42322-San-Juan-Ter-20105/unit-12104/home/56519756,BRIGHT MLS,VALO132790,N,Y,38.935044,-77.542398
PAST SALE,May-24-2019,Condo/Co-op,42101 Piebald Sq,Aldie,VA,20105,414000,3,2.5,VIRGINIA MANOR,2614,,2014,925,158,306,Sold,,,https://www.redfin.com/VA/Aldie/42101-Piebald-Sq-20105/unit-3M/home/56519721,BRIGHT MLS,VALO380268,N,Y,38.9012404,-77.5479929
PAST SALE,July-30-2020,Townhouse,25143 Prairie Fire Sq,Aldie,VA,20105,540000,3,3.5,STRATSHIRE CROSSING,2732,3485,2012,492,198,107,Sold,,,https://www.redfin.com/VA/Aldie/25143-Prairie-Fire-Sq-20105/home/40493652,BRIGHT MLS,VALO415012,N,Y,38.9221761,-77.5604314
PAST SALE,September-30-2020,Single Family Residential,25629 Summerall Dr,Aldie,VA,20105,731000,4,3.5,KIRKPATRICK FARMS,4193,12632,2007,430,174,92,Sold,,,https://www.redfin.com/VA/Aldie/25629-Summerall-Dr-20105/home/14365834,BRIGHT MLS,VALO419640,N,Y,38.9129655,-77.5635316
PAST SALE,April-29-2019,Townhouse,25217 Barley Grass Sq,Aldie,VA,20105,610000,5,3.5,GREENFIELD CROSSING,4548,4356,2012,950,134,108,Sold,,,https://www.redfin.com/VA/Aldie/25217-Barley-Grass-Sq-20105/home/56514617,BRIGHT MLS,VALO356808,N,Y,38.9200804,-77.5615438
PAST SALE,August-16-2021,Townhouse,24705 Geyser Peaks Sq,Aldie,VA,20105,540000,3,3.0,STONE RIDGE NORTH,2148,2178,2004,110,251,96,Sold,,,https://www.redfin.com/VA/Stone-Ridge/24705-Geyser-Peaks-Sq-20105/home/12070802,BRIGHT MLS,VALO2001658,N,Y,38.93416,-77.546835
PAST SALE,October-1-2020,Townhouse,41811 Inspiration Ter,Aldie,VA,20105,359900,3,2.5,CONDOMINIUMS AT KIRKPATR,1936,,2007,429,186,300,Sold,,,https://www.redfin.com/VA/Aldie/41811-Inspiration-Ter-20105/unit-0009B/home/14365214,BRIGHT MLS,VALO419714,N,Y,38.9155834,-77.55816
PAST SALE,August-31-2020,Single Family Residential,24718 Black Willow Dr,Aldie,VA,20105,790000,4,3.5,GROVE AT WILLOWSFORD,3995,7841,2018,460,198,222,Sold,,,https://www.redfin.com/VA/Aldie/24718-Black-Willow-Dr-20105/home/112908171,BRIGHT MLS,VALO415650,N,Y,38.9348299,-77.5844293
PAST SALE,January-4-2019,Townhouse,25237 Barley Grass Sq,Aldie,VA,20105,592950,5,3.5,GREENFIELD CROSSING,4368,4356,2012,1065,136,103,Sold,,,https://www.redfin.com/VA/Aldie/25237-Barley-Grass-Sq-20105/home/56514616,BRIGHT MLS,VALO100124,N,Y,38.9191494,-77.5618014
PAST SALE,July-9-2019,Townhouse,41697 Deer Grass Ter,Aldie,VA,20105,607000,5,4.5,GREENFIELD CROSSING,4548,4792,2012,879,133,108,Sold,,,https://www.redfin.com/VA/Aldie/41697-Deer-Grass-Ter-20105/home/56514670,BRIGHT MLS,VALO384784,N,Y,38.9220669,-77.5625994
PAST SALE,August-15-2019,Single Family Residential,24462 Moon Glade Ct,Aldie,VA,20105,775000,6,4.5,MOON GLADE FARM,4166,8712,2016,842,186,93,Sold,,,https://www.redfin.com/VA/Aldie/24462-Moon-Glade-Ct-20105/home/144866715,BRIGHT MLS,VALO389138,N,Y,38.9417118,-77.5591144
PAST SALE,November-14-2019,Single Family Residential,42053 Greenstone Dr,Aldie,VA,20105,599000,4,3.5,STONE RIDGE SOUTH,2989,5663,2008,751,200,148,Sold,,,https://www.redfin.com/VA/Aldie/42053-Greenstone-Dr-20105/home/18979654,BRIGHT MLS,VALO395378,N,Y,38.927399,-77.548509
PAST SALE,October-23-2020,Condo/Co-op,41900 Metamorphic Sq #403,Aldie,VA,20105,370000,3,2.0,CENTRE PARK STONE RIDGE,1712,,2016,407,216,372,Sold,,,https://www.redfin.com/VA/Aldie/41900-Metamorphic-Sq-20105/unit-403/home/144866375,BRIGHT MLS,VALO419736,N,Y,38.9365603,-77.5540127
PAST SALE,January-26-2021,Townhouse,24622 Seacliff Ter,Aldie,VA,20105,407000,3,2.5,SUMMERWALK AT STONE RIDG,1876,,2014,312,217,323,Sold,,,https://www.redfin.com/VA/Aldie/24622-Seacliff-Ter-20105/unit-7B3/home/112907991,BRIGHT MLS,VALO427772,N,Y,38.9372264,-77.5422339
PAST SALE,May-30-2019,Single Family Residential,24267 Purple Finch Dr,Aldie,VA,20105,735000,4,4.0,LENAH MILL,4524,10019,2015,919,162,137,Sold,,,https://www.redfin.com/VA/Aldie/24267-Purple-Finch-Dr-20105/home/110300122,BRIGHT MLS,VALO379210,N,Y,38.9461787,-77.5764428
PAST SALE,June-4-2021,Single Family Residential,40946 Munson Woods Pl,Aldie,VA,20105,1080000,6,5.5,MCINTOSH FARMS,5752,9148,2018,183,188,130,Sold,,,https://www.redfin.com/VA/Stone-Ridge/40946-Munson-Woods-Pl-20105/home/171691319,BRIGHT MLS,VALO436214,N,Y,38.9312661,-77.5866879
PAST SALE,May-30-2019,Townhouse,24656 Greysteel Sq,Aldie,VA,20105,475000,3,2.5,STONE RIDGE,2165,2178,2014,919,219,95,Sold,,,https://www.redfin.com/VA/Aldie/24656-Greysteel-Sq-20105/home/49797308,BRIGHT MLS,VALO381412,N,Y,38.9352125,-77.5522916
PAST SALE,April-10-2021,Single Family Residential,41832 Cordgrass Cir,Aldie,VA,20105,850000,5,4.5,STONE RIDGE SOUTH,4358,10890,2005,238,195,96,Sold,,,https://www.redfin.com/VA/Aldie/41832-Cordgrass-Cir-20105/home/12083884,BRIGHT MLS,VALO431306,N,Y,38.926036,-77.556484
PAST SALE,October-22-2021,Townhouse,41802 Expectation Sq,Aldie,VA,20105,620000,3,3.0,KIRKPATRICK FARMS,2553,3485,2005,43,243,79,Sold,,,https://www.redfin.com/VA/Aldie/41802-Expectation-Sq-20105/home/12081837,BRIGHT MLS,VALO2008360,N,Y,38.9199898,-77.5573939
PAST SALE,June-22-2021,Single Family Residential,25627 Balint Park Ct,Aldie,VA,20105,745000,4,3.5,KIRKPATRICK FARMS,3264,9148,2007,165,228,95,Sold,,,https://www.redfin.com/VA/Aldie/25627-Balint-Park-Ct-20105/home/14366216,BRIGHT MLS,VALO437642,N,Y,38.908627,-77.5575759
PAST SALE,October-11-2019,Single Family Residential,41577 Goshen Ridge Pl,Aldie,VA,20105,717500,5,4.5,MARRWOOD AT STONE RIDGE,5455,10454,2012,785,132,98,Sold,,,https://www.redfin.com/VA/Aldie/41577-Goshen-Ridge-Pl-20105/home/56515678,BRIGHT MLS,VALO393494,N,Y,38.941392,-77.5635987
PAST SALE,February-14-2020,Townhouse,25421 Peaceful Ter,Aldie,VA,20105,487000,3,2.5,KIRKPATRICK FARMS,2198,3049,2007,659,222,109,Sold,,,https://www.redfin.com/VA/Aldie/25421-Peaceful-Ter-20105/home/14365727,BRIGHT MLS,VALO401218,N,Y,38.914691,-77.558912
PAST SALE,May-29-2020,Townhouse,25067 Prairie Fire Sq,Aldie,VA,20105,541100,3,3.5,STRATSHIRE CROSSING,3048,3049,2012,554,178,107,Sold,,,https://www.redfin.com/VA/Aldie/25067-Prairie-Fire-Sq-20105/home/56513973,BRIGHT MLS,VALO408190,N,Y,38.9234473,-77.5608896
PAST SALE,October-4-2019,Townhouse,25693 Bishop Grove Ter,Aldie,VA,20105,505500,3,3.0,KIRKPATRICK WEST,2792,2178,2015,792,181,102,Sold,,,https://www.redfin.com/VA/Aldie/25693-Bishop-Grove-Ter-20105/home/56516131,BRIGHT MLS,VALO386186,N,Y,38.9076515,-77.5682329
PAST SALE,April-26-2021,Single Family Residential,25702 Laughter Dr,Aldie,VA,20105,810000,4,3.5,KIRKPATRICK FARMS,3934,9148,2007,222,206,92,Sold,,,https://www.redfin.com/VA/Aldie/25702-Laughter-Dr-20105/home/14365291,BRIGHT MLS,VALO433962,N,Y,38.9084794,-77.559188
PAST SALE,July-9-2021,Townhouse,41810 Diabase Sq,Aldie,VA,20105,635000,3,3.0,STONE RIDGE SOUTH,2531,3485,2013,148,251,96,Sold,,,https://www.redfin.com/VA/Aldie/41810-Diabase-Sq-20105/home/55381604,BRIGHT MLS,VALO440888,N,Y,38.9253507,-77.5573072
PAST SALE,November-15-2021,Single Family Residential,42010 Cedar Point Pl,Aldie,VA,20105,808500,4,3.5,SEVEN HILLS,3200,8276,2013,19,253,102,Sold,,,https://www.redfin.com/VA/Aldie/42010-Cedar-Point-Pl-20105/home/49878210,BRIGHT MLS,VALO2000011,N,Y,38.9079471,-77.5497837
PAST SALE,July-5-2019,Single Family Residential,24962 Greengage Pl,Aldie,VA,20105,705000,4,4.0,GROVE AT WILLOWSFORD,3838,7405,2013,883,184,212,Sold,,,https://www.redfin.com/VA/Aldie/24962-Greengage-Pl-20105/home/45389658,BRIGHT MLS,VALO379438,N,Y,38.9270882,-77.5779046
PAST SALE,February-26-2019,Townhouse,25149 Himalayas Ter,Aldie,VA,20105,471000,3,2.5,STONE RIDGE SOUTH,2570,2178,2011,1012,183,96,Sold,,,https://www.redfin.com/VA/Aldie/25149-Himalayas-Ter-20105/home/40518366,BRIGHT MLS,VALO268454,N,Y,38.9220324,-77.5560292
PAST SALE,April-15-2020,Single Family Residential,39301 Longhill Ln,Aldie,VA,20105,883000,4,4.0,HERTZ DIVISION,5740,474804,1993,598,154,,Sold,,,https://www.redfin.com/VA/Aldie/39301-Longhill-Ln-20105/home/12018390,BRIGHT MLS,VALO402090,N,Y,38.9561272,-77.6459835
PAST SALE,May-3-2019,Townhouse,25798 Double Bridle Ter,Aldie,VA,20105,511000,3,3.0,SEVEN HILLS,2826,2178,2013,946,181,106,Sold,,,https://www.redfin.com/VA/Aldie/25798-Double-Bridle-Ter-20105/home/49795863,BRIGHT MLS,VALO356384,N,Y,38.9038911,-77.5457083
PAST SALE,October-3-2019,Single Family Residential,41795 Suffolk Downs Ct,Aldie,VA,20105,640000,5,4.0,SEVEN HILLS,3964,8276,2016,793,161,100,Sold,,,https://www.redfin.com/VA/Aldie/41795-Suffolk-Downs-Ct-20105/home/56516338,BRIGHT MLS,VALO390786,N,Y,38.906982,-77.5580341
PAST SALE,June-10-2019,Townhouse,25142 Cutgrass Ter,Aldie,VA,20105,460000,3,3.5,STONE RIDGE SOUTH,2288,2178,2006,908,201,94,Sold,,,https://www.redfin.com/VA/Stone-Ridge/25142-Cutgrass-Ter-20105/home/12102466,BRIGHT MLS,VALO383154,N,Y,38.922066,-77.547699
PAST SALE,July-25-2019,Townhouse,24915 Coats Sq,Aldie,VA,20105,359000,2,2.5,WESTRIDGE CONDOMINIUM,1612,,2014,863,223,205,Sold,,,https://www.redfin.com/VA/Aldie/24915-Coats-Sq-20105/unit-1D/home/102208513,BRIGHT MLS,VALO384062,N,Y,38.927532,-77.559251
PAST SALE,March-22-2019,Townhouse,41690 Blue Grama Cir,Aldie,VA,20105,599999,5,4.5,GREENFIELD CROSSING,4548,4356,2012,988,132,108,Sold,,,https://www.redfin.com/VA/Aldie/41690-Blue-Grama-Cir-20105/home/56514697,BRIGHT MLS,VALO355070,N,Y,38.9215032,-77.562233
PAST SALE,July-11-2019,Townhouse,25115 Sweet Myrtle Sq,Aldie,VA,20105,485000,3,3.5,STONE RIDGE SOUTH,2436,2178,2012,877,199,95,Sold,,,https://www.redfin.com/VA/Aldie/25115-Sweet-Myrtle-Sq-20105/home/56515718,BRIGHT MLS,VALO386838,N,Y,38.9230903,-77.5578278
PAST SALE,September-1-2021,Single Family Residential,42167 Warwick Farm Pl,Aldie,VA,20105,864000,4,3.5,SEVEN HILLS,3855,8276,2015,94,224,102,Sold,,,https://www.redfin.com/VA/Aldie/42167-Warwick-Farm-Pl-20105/home/110299956,BRIGHT MLS,VALO2000522,N,Y,38.89526,-77.54638
PAST SALE,March-29-2019,Single Family Residential,42068 Porch Light Dr,Aldie,VA,20105,660000,5,4.5,BRADDOCK CORNER,4347,7405,2008,981,152,85,Sold,,,https://www.redfin.com/VA/Aldie/42068-Porch-Light-Dr-20105/home/21679397,BRIGHT MLS,VALO355174,N,Y,38.9143942,-77.5477236
PAST SALE,September-30-2021,Townhouse,41841 Apatite Sq,Aldie,VA,20105,640000,4,3.5,STONE RIDGE SOUTH,2333,2178,2013,65,274,97,Sold,,,https://www.redfin.com/VA/Aldie/41841-Apatite-Sq-20105/home/56515438,BRIGHT MLS,VALO2007576,N,Y,38.9239172,-77.5564004
MLS Listing,,Townhouse,25371 Patriot Ter,Aldie,VA,20105,434999,3,2.5,CONDOMINIUMS AT KIRKPATRICK FM,2552,,2007,1,170,384,Active,,,https://www.redfin.com/VA/Aldie/25371-Patriot-Ter-20105/home/21678440,BRIGHT MLS,VALO2012568,N,Y,38.9156859,-77.558077
MLS Listing,,Single Family Residential,42028 Porch Light Dr,Aldie,VA,20105,925000,5,3.5,BRADDOCK CORNER,4626,10019,2007,2,200,85,Active,December-5-2021 01:00 PM,December-5-2021 03:00 PM,https://www.redfin.com/VA/Aldie/42028-Porch-Light-Dr-20105/home/14365508,BRIGHT MLS,VALO2012266,N,Y,38.9137007,-77.5502316
MLS Listing,,Townhouse,42225 Terrazzo Ter,Aldie,VA,20105,355000,3,2.5,AMBER SPRING CONDO,1377,,2003,2,258,372,Active,December-5-2021 01:00 PM,December-5-2021 04:00 PM,https://www.redfin.com/VA/Aldie/42225-Terrazzo-Ter-20105/unit-509/home/12079069,BRIGHT MLS,VALO2012304,N,Y,38.9330362,-77.5430851
MLS Listing,,Townhouse,24565 Rosebay Ter,Aldie,VA,20105,499999,3,2.5,STONE MILL CORNER CONDOMINIUM,2236,,2018,2,224,268,Active,December-5-2021 01:00 PM,December-5-2021 04:00 PM,https://www.redfin.com/VA/Stone-Ridge/24565-Rosebay-Ter-20105/home/161411714,BRIGHT MLS,VALO2012378,N,Y,38.9377033,-77.5498949
MLS Listing,,Single Family Residential,41128 Rocky Boulder Ct,Aldie,VA,20105,925000,4,3.5,GROVE AT WILLOWSFORD,3422,8276,2016,2,270,221,Active,December-5-2021 02:00 PM,December-5-2021 04:00 PM,https://www.redfin.com/VA/Aldie/41128-Rocky-Boulder-Ct-20105/home/56516211,BRIGHT MLS,VALO2012114,N,Y,38.9346895,-77.5810487
MLS Listing,,Townhouse,41890 Inspiration Ter Unit 0001A,Aldie,VA,20105,415000,3,2.5,CONDOMINIUMS AT KIRKPATR,1720,,2006,3,241,265,Active,December-5-2021 01:00 PM,December-5-2021 03:00 PM,https://www.redfin.com/VA/Aldie/41890-Inspiration-Ter-20105/unit-0001A/home/12105357,BRIGHT MLS,VALO2012494,N,Y,38.9191524,-77.5561635
MLS Listing,,Single Family Residential,23885 Laceys Tavern Ct,Aldie,VA,20105,2295000,5,5.5,WESTBROOK,8508,216929,2004,4,270,,Active,,,https://www.redfin.com/VA/Aldie/23885-Laceys-Tavern-Ct-20105/home/12076576,BRIGHT MLS,VALO2012246,N,Y,38.95733,-77.6148809
MLS Listing,,Single Family Residential,41922 Quickstep Pl,Aldie,VA,20105,780000,4,3.0,SEVEN HILLS,2768,6970,2017,22,282,112,Active,,,https://www.redfin.com/VA/Aldie/41922-Quickstep-Pl-20105/home/112907944,BRIGHT MLS,VALO2005510,N,Y,38.8973057,-77.553301
MLS Listing,,Single Family Residential,22036 Oatlands Rd,Aldie,VA,20105,2249999,2,2.0,Aldie,3120,2719886,1986,42,721,,Active,,,https://www.redfin.com/VA/Aldie/22036-Oatlands-Rd-20105/home/14368441,BRIGHT MLS,VALO2010630,N,Y,39.0094396,-77.6454203
MLS Listing,,Single Family Residential,41170 John Mosby Hwy,Aldie,VA,20105,3500000,3,2.0,LENAH,2066,157252,1880,45,1694,,Active,,,https://www.redfin.com/VA/Aldie/41170-John-Mosby-Hwy-20105/home/12014684,BRIGHT MLS,VALO2006658,N,Y,38.9533606,-77.5787105
MLS Listing,,Single Family Residential,24462 Carolina Rose Cir,Aldie,VA,20105,1499950,4,5.0,LENAH MILL,5174,9593,2021,80,290,144,Active,,,https://www.redfin.com/VA/Aldie/24462-Carolina-Rose-Cir-20105/home/148752879,BRIGHT MLS,VALO2008702,N,Y,38.942188,-77.574026
MLS Listing,,Single Family Residential,40188 Jefferson Springs Ct,Aldie,VA,20105,2699000,5,6.5,ESTATES AT CREIGHTON FARMS,6723,48787,2013,97,401,726,Active,,,https://www.redfin.com/VA/Aldie/40188-Jefferson-Springs-Ct-20105/home/40518788,BRIGHT MLS,VALO2007306,N,Y,38.9946251,-77.6128444
MLS Listing,,Single Family Residential,23303 Lansing Woods Ln Lot 4,Aldie,VA,20105,2219990,6,6.5,Aldie,7700,27440,2021,117,288,230,Active,,,https://www.redfin.com/VA/Aldie/23303-Lansing-Woods-LN-20105/unit-4/home/176061140,BRIGHT MLS,VALO2005680,N,Y,38.976262,-77.5614775
MLS Listing,,Vacant Land,23500 New Mountain Rd,Aldie,VA,20105,1295000,,,Aldie,,784080,,172,,,Active,,,https://www.redfin.com/VA/Aldie/23500-New-Mountain-Rd-20105/home/175567257,BRIGHT MLS,VALO441520,N,Y,38.9690477,-77.6363304
MLS Listing,,Vacant Land,21700 Clear Creek Ln,Aldie,VA,20105,594000,,,Aldie,,1176120,,184,,269,Active,,,https://www.redfin.com/VA/Aldie/21700-Clear-Creek-Ln-20105/home/17533096,BRIGHT MLS,VALO440404,N,Y,39.017746,-77.654123
MLS Listing,,Vacant Land,Us Route 15,Aldie,VA,20105,160000,,,Aldie,,43124,,205,,,Active,,,https://www.redfin.com/VA/Aldie/Us-Route-15-20105/home/175131734,BRIGHT MLS,VALO438630,N,Y,38.97225929,-77.62222447
MLS Listing,,Vacant Land,Chudleigh Farm Ln,Aldie,VA,20105,3600000,,,CHUDLEIGH FARM,,8382686,,275,,268,Active,,,https://www.redfin.com/VA/Aldie/Chudleigh-Farm-Ln-20105/home/144233744,BRIGHT MLS,VALO431760,N,Y,39.01861092,-77.6436377
MLS Listing,,Vacant Land,21650 Clear Creek Ln,Aldie,VA,20105,3500000,,,CHUDLEIGH  FARM,,8177954,,278,,268,Active,,,https://www.redfin.com/VA/Aldie/21650-Clear-Creek-Ln-20105/home/17533093,BRIGHT MLS,VALO430740,N,Y,39.0201629,-77.6549579
MLS Listing,,Vacant Land,21828 Clear Creek Ln,Aldie,VA,20105,598000,,,CHUDLEIGH FARM,,1245816,,298,,279,Active,,,https://www.redfin.com/VA/Aldie/21828-Clear-Creek-Ln-20105/home/17533094,BRIGHT MLS,VALO430494,N,Y,39.013754,-77.655305
MLS Listing,,Vacant Land,25293 Lightridge Farm Rd,Aldie,VA,20105,3462000,,,HALL SUBDIVISION,,861616,,341,,,Active,,,https://www.redfin.com/VA/Aldie/25293-Lightridge-Farm-Rd-20105/home/12011578,BRIGHT MLS,VALO428068,N,Y,38.9177232,-77.5784265
MLS Listing,,Vacant Land,Virginia Manor Day Care Pad Site,Aldie,VA,20105,915000,,,SEVEN HILLS,,132858,,359,,,Active,,,https://www.redfin.com/VA/Aldie/40871-Hayrake-Pl-20105/home/144867173,BRIGHT MLS,VALO427348,N,Y,38.9532033,-77.5880675
MLS Listing,,Single Family Residential,40174 Monroe Valley Pl,Aldie,VA,20105,2660000,4,4.5,ESTATES AT CREIGHTON FAR,4520,42253,2022,499,588,725,Active,,,https://www.redfin.com/VA/Aldie/40174-Monroe-Valley-Pl-20105/home/54544991,BRIGHT MLS,VALO416294,N,Y,39.0001637,-77.6135613
MLS Listing,,Single Family Residential,41545 Deer Point Ct,Aldie,VA,20105,1328995,4,3.5,LENAH MILL,4350,20481,2019,1046,306,143,Active,,,https://www.redfin.com/VA/Aldie/41545-Deer-Point-Ct-20105/home/49797535,BRIGHT MLS,VALO268908,N,Y,38.9452956,-77.5646062
MLS Listing,,Single Family Residential,41493 Lavender Breeze Cir,Aldie,VA,20105,1859995,5,5.5,LENAH MILL ESTATES,4714,20481,2019,1121,395,143,Active,,,https://www.redfin.com/VA/Aldie/41493-Lavender-Breeze-Cir-20105/home/176216582,BRIGHT MLS,VALO101056,N,Y,38.942406,-77.576007
MLS Listing,,Single Family Residential,41497 Lavender Breeze Cir,Aldie,VA,20105,1351995,4,3.5,LENAH MILL ESTATES,4471,20481,2018,1125,302,143,Active,,,https://www.redfin.com/VA/Aldie/41497-Lavender-Breeze-Cir-20105/home/147275158,BRIGHT MLS,VALO100688,N,Y,38.94259,-77.575393
New Construction Plan,,Single Family Residential,Grandin III,Aldie,VA,20105,1099990,4,2.5,Hartland,2941,,,,374,,Active,,,https://www.redfin.com/VA/Aldie/Hartland/Grandin-III/home/176287539,NewHomeSource.com,Plan-181893932,N,Y,38.969023,-77.572872
New Construction Plan,,Single Family Residential,Oatland III,Aldie,VA,20105,1139990,5,3.5,Hartland,3190,,,,357,,Active,,,https://www.redfin.com/VA/Aldie/Hartland/Oatland-III/home/176287543,NewHomeSource.com,Plan-181885111,N,Y,38.969023,-77.572872
New Construction Plan,,Single Family Residential,Timberneck III,Aldie,VA,20105,1394990,4,4.5,Hartland,4279,,,,326,,Active,,,https://www.redfin.com/VA/Aldie/Hartland/Timberneck-III/home/176287540,NewHomeSource.com,Plan-181893931,N,Y,38.969023,-77.572872
New Construction Plan,,Single Family Residential,Reston,Aldie,VA,20105,1323995,4,3.5,Lenah Mill - The Estates,4350,,,,304,,Active,,,https://www.redfin.com/VA/Aldie/Lenah-Mill-The-Estates/Reston/home/169965173,NewHomeSource.com,Plan-181487080,N,Y,38.94259,-77.575393
New Construction Plan,,Single Family Residential,Rosslyn,Aldie,VA,20105,1348995,4,3.0,Lenah Mill - The Estates,4471,,,,302,,Active,,,https://www.redfin.com/VA/Aldie/Lenah-Mill-The-Estates/Rosslyn/home/169965172,NewHomeSource.com,Plan-181487081,N,Y,38.94259,-77.575393
New Construction Plan,,Single Family Residential,Belmont II,Aldie,VA,20105,1219990,4,3.5,Hartland,3684,,,,331,,Active,,,https://www.redfin.com/VA/Aldie/Hartland/Belmont-II/home/176287545,NewHomeSource.com,Plan-171885098,N,Y,38.969023,-77.572872
New Construction Plan,,Single Family Residential,York at Hartland,Aldie,VA,20105,1039990,4,3.5,Hartland,3656,,,,284,,Active,,,https://www.redfin.com/VA/Aldie/Hartland/York-at-Hartland/home/175336059,NewHomeSource.com,Plan-171900632,N,Y,38.972904,-77.569273
New Construction Plan,,Single Family Residential,Monticello II,Aldie,VA,20105,1739990,4,4.5,Hartland,5489,,,,317,,Active,,,https://www.redfin.com/VA/Aldie/Hartland/Monticello-II/home/175892046,NewHomeSource.com,Plan-171908052,N,Y,38.973147,-77.570229
New Construction Plan,,Single Family Residential,Seneca at Hartland,Aldie,VA,20105,1009990,4,3.5,Hartland,3306,,,,306,,Active,,,https://www.redfin.com/VA/Aldie/Hartland/Seneca-at-Hartland/home/175336060,NewHomeSource.com,Plan-171900631,N,Y,38.972904,-77.569273
New Construction Plan,,Single Family Residential,Marymount,Aldie,VA,20105,1199990,4,3.5,Hartland,3820,,,,314,,Active,,,https://www.redfin.com/VA/Aldie/Hartland/Marymount/home/175892047,NewHomeSource.com,Plan-171908051,N,Y,38.973147,-77.570229
New Construction Plan,,Single Family Residential,Lehigh at Hartland,Aldie,VA,20105,979990,4,2.5,Hartland,3010,,,,326,,Active,,,https://www.redfin.com/VA/Aldie/Hartland/Lehigh-at-Hartland/home/175336061,NewHomeSource.com,Plan-171900630,N,Y,38.972904,-77.569273
New Construction Plan,,Single Family Residential,Radford,Aldie,VA,20105,1264990,4,3.5,Hartland,3953,,,,320,,Active,,,https://www.redfin.com/VA/Aldie/Hartland/Radford/home/175892048,NewHomeSource.com,Plan-171908050,N,Y,38.973147,-77.570229
New Construction Plan,,Single Family Residential,Regents Park II,Aldie,VA,20105,1539990,4,4.5,Hartland,4843,,,,318,,Active,,,https://www.redfin.com/VA/Aldie/Hartland/Regents-Park-II/home/175892050,NewHomeSource.com,Plan-171908049,N,Y,38.973147,-77.570229
New Construction Plan,,Single Family Residential,Clifton Park II,Aldie,VA,20105,1614990,4,4.5,Hartland,4943,,,,327,,Active,,,https://www.redfin.com/VA/Aldie/Hartland/Clifton-Park-II/home/175892051,NewHomeSource.com,Plan-171908048,N,Y,38.973147,-77.570229
New Construction Plan,,Single Family Residential,Stratford Hall,Aldie,VA,20105,1339990,4,4.5,Hartland,4290,,,,312,,Active,,,https://www.redfin.com/VA/Aldie/Hartland/Stratford-Hall/home/175892052,NewHomeSource.com,Plan-171908047,N,Y,38.973147,-77.570229
New Construction Plan,,Single Family Residential,Palisades,Aldie,VA,20105,1385995,5,5.0,Lenah Mill - The Estates,4714,,,,294,,Active,,,https://www.redfin.com/VA/Aldie/Lenah-Mill-The-Estates/Palisades/home/169965171,NewHomeSource.com,Plan-171494242,N,Y,38.94259,-77.575393
PAST SALE,June-1-2021,Single Family Residential,41215 Chatham Green Cir,Aldie,VA,20105,1650000,5,4.5,GROVE AT WILLOWSFORD,6049,19166,2019,186,273,222,Sold,,,https://www.redfin.com/VA/Aldie/41215-Chatham-Green-Cir-20105/home/174933215,BRIGHT MLS,VALO435490,N,Y,38.9340965,-77.5776457
PAST SALE,November-9-2021,Single Family Residential,40820 Foxtail Fields Dr,Aldie,VA,20105,1172179,5,5.0,GROVE AT WILLOWSFORD,3000,1132,,25,391,748,Sold,,,https://www.redfin.com/VA/Aldie/40820-Foxtail-Fields-Dr-20105/home/177254331,BRIGHT MLS,VALO2011918,N,Y,38.940835,-77.588412
PAST SALE,October-11-2021,Townhouse,25121 Sweetspire Sq,Aldie,VA,20105,640000,3,2.5,STONE RIDGE SOUTH,3143,2614,2008,54,204,97,Sold,,,https://www.redfin.com/VA/Stone-Ridge/25121-Sweetspire-Sq-20105/home/21680303,BRIGHT MLS,VALO2007980,N,Y,38.9227157,-77.5511272
PAST SALE,June-10-2021,Single Family Residential,23976 Greenfall Dr,Aldie,VA,20105,855209,4,2.5,ALDIE ESTATES,2574,16117,2018,177,332,95,Sold,,,https://www.redfin.com/VA/Aldie/23976-Greenfall-Dr-20105/home/156272700,BRIGHT MLS,VALO434948,N,Y,38.9547233,-77.586291
PAST SALE,January-13-2021,Single Family Residential,24269 Basket Willow Ln,Aldie,VA,20105,1099999,5,4.5,GROVE AT WILLOWSFORD,5242,22216,2019,325,210,,Sold,,,https://www.redfin.com/VA/Aldie/24269-Basket-Willow-Ln-20105/home/173262895,BRIGHT MLS,VALO435576,N,Y,38.946711,-77.5845732
PAST SALE,,Single Family Residential,23992 Colin Creek Ct,Stone Ridge,VA,20105,904604,,4.5,,4239,14810,2019,,213,,,,,https://www.redfin.com/VA/Stone-Ridge/23992-Colin-Creek-Ct-20105/home/171690419,,,N,Y,38.953409,-77.568679
PAST SALE,,Single Family Residential,40699 Lenah Run Cir,Aldie,VA,20105,1100000,4,4.5,,6200,37897,2001,,177,,,,,https://www.redfin.com/VA/Aldie/40699-Lenah-Run-Cir-20105/home/12047637,,,N,Y,38.9515358,-77.5921638
PAST SALE,February-7-2020,Single Family Residential,23615 Shetland Ct,Aldie,VA,20105,872579,6,5.5,WESTBURY GLEN,,13068,2020,666,,,Sold,,,https://www.redfin.com/VA/Aldie/23615-Shetland-Ct-20105/home/169265860,BRIGHT MLS,VALO403060,N,Y,38.9644527,-77.5910984
PAST SALE,June-6-2019,Townhouse,41802 Inspiration Ter,Aldie,VA,20105,340000,3,2.5,CONDOMINIUMS AT KIRKPATR,2591,,2007,912,131,364,Sold,,,https://www.redfin.com/VA/Aldie/41802-Inspiration-Ter-20105/unit-0008F/home/14365203,BRIGHT MLS,VALO381798,N,Y,38.9174873,-77.5581565
PAST SALE,July-30-2021,Single Family Residential,41257 Allen House Ct,Ashburn,VA,20148,1869288,6,6.5,GRANT AT WILLOWSFORD,8534,43996,2021,127,219,220,Sold,,,https://www.redfin.com/VA/Ashburn/41257-Allen-House-CT-20148/home/177150931,BRIGHT MLS,VALO2011550,N,Y,38.98244293,-77.57526533
PAST SALE,October-21-2019,Vacant Land,Braddock,Aldie,VA,20105,1120000,,,HOFFBERGER FAMILY SUBDIV,,2438489,,775,,,Sold,,,https://www.redfin.com/VA/Stone-Ridge/Braddock-Rd-20105/home/147492573,BRIGHT MLS,VALO397318,N,Y,38.9555,-77.62213
PAST SALE,November-23-2021,Townhouse,41943 Blue Flag,Aldie,VA,20105,415000,3,3.5,STONE SPRINGS CONDOMINIUM,1965,,2007,11,211,296,Sold,,,https://www.redfin.com/VA/Aldie/41943-Blue-Flag-Ter-20105/unit-66/home/14365255,BRIGHT MLS,VALO2010076,N,Y,38.9344722,-77.5505261
PAST SALE,,Single Family Residential,41414 Nicholson Meadows Pl,Stone Ridge,VA,20105,723575,,4.0,,3840,10454,2018,,188,,,,,https://www.redfin.com/VA/Stone-Ridge/41414-Nicholson-Meadows-Pl-20105/home/171690406,,,N,Y,38.9523157,-77.5703153
PAST SALE,,Single Family Residential,24473 Amherst Forest Ter,Aldie,VA,20105,444823,,,,,512266,,,,,,,,https://www.redfin.com/VA/Aldie/24473-Amherst-Forest-Ter-20105/home/56511422,,,N,Y,38.938354,-77.548691
PAST SALE,January-29-2021,Single Family Residential,41464 Speckled Alder Ct,Aldie,VA,20105,749559,4,3.5,LENAH MILL,,14375,,309,,140,Sold,,,https://www.redfin.com/VA/Stone-Ridge/41464-Speckled-Alder-Ct-20105/home/174364400,BRIGHT MLS,VALO430226,N,Y,38.9255818,-77.5696221
PAST SALE,May-15-2020,Townhouse,41951 Pickwick Mill Ter,Aldie,VA,20105,434490,3,2.5,STONE MILL,2600,,2020,568,167,278,Sold,,,https://www.redfin.com/VA/Stone-Ridge/41951-Pickwick-Mill-Ter-20105/home/171195468,BRIGHT MLS,VALO407110,N,Y,38.937448,-77.551577
PAST SALE,December-21-2018,Townhouse,24549 Rosebay Ter,Aldie,VA,20105,388970,3,2.5,STONE MILL,1945,,2018,1079,200,,Sold,,,https://www.redfin.com/VA/Aldie/24549-Rosebay-Ter-20105/home/148536866,BRIGHT MLS,VALO266976,N,Y,38.9358949,-77.5506037
PAST SALE,November-30-2021,Townhouse,41887 Country Inn Ter,Aldie,VA,20105,615000,3,3.0,SEVEN HILLS,2422,2178,2015,4,254,107,Sold,,,https://www.redfin.com/VA/Aldie/41887-Country-Inn-Ter-20105/home/102209045,BRIGHT MLS,VALO2010598,N,Y,38.9037418,-77.5548419
PAST SALE,December-16-2019,Vacant Land,0000 Tail Race Rd,Aldie,VA,20105,360000,,,JEWELL FAMILY SUBDIVISIO,,291852,,719,,,Sold,,,https://www.redfin.com/VA/Aldie/Tail-Race-Rd-20105/home/81912299,BRIGHT MLS,VALO396078,N,Y,39.00798047,-77.62771905
PAST SALE,October-24-2019,Townhouse,41686 Overmyer Ter,Aldie,VA,20105,449900,3,3.0,CD SMITH,1924,1742,2015,772,234,106,Sold,,,https://www.redfin.com/VA/Aldie/41686-Overmyer-Ter-20105/home/102206954,BRIGHT MLS,VALO393008,N,Y,38.9249031,-77.5613785
PAST SALE,July-28-2020,Single Family Residential,25877 Cullen Run Pl,Aldie,VA,20105,787720,4,3.5,GREENS SOUTH AT WILLOWSF,3636,15682,2019,494,217,331,Sold,,,https://www.redfin.com/VA/Aldie/25877-Cullen-Run-Pl-20105/home/172611533,BRIGHT MLS,VALO417504,N,Y,38.904643,-77.586231
PAST SALE,,Single Family Residential,40972 Blossom Glade Dr,Aldie,VA,20105,1255781,5,5.5,,6000,14810,2018,,209,,,,,https://www.redfin.com/VA/Aldie/40972-Blossom-Glade-Dr-20105/home/56518498,,,N,Y,38.9329487,-77.5857944
PAST SALE,June-16-2020,Single Family Residential,25621 Wyndham Pt,Aldie,VA,20105,1036425,5,5.5,GREENS AT WILLOWSFORD,5500,21780,2020,536,188,200,Sold,,,https://www.redfin.com/VA/Aldie/25621-Wyndham-PT-20105/home/172078435,BRIGHT MLS,VALO413724,N,Y,38.93266,-77.57289
PAST SALE,April-29-2021,Single Family Residential,40968 Maplehurst Dr,Aldie,VA,20105,915000,5,4.5,ARCADIA SUNBERRY,3924,12197,2018,219,233,94,Sold,,,https://www.redfin.com/VA/Aldie/40968-Maplehurst-Dr-20105/home/147449692,BRIGHT MLS,VALO433148,N,Y,38.9596931,-77.5858541
PAST SALE,January-20-2021,Single Family Residential,41374 Tulip Poplar Pl,Aldie,VA,20105,1393260,6,5.5,GREENS SOUTH AT WILLOWSF,9732,30928,2020,318,143,,Sold,,,https://www.redfin.com/VA/Aldie/41374-Tulip-Poplar-Pl-20105/home/101357342,BRIGHT MLS,VALO434332,N,Y,38.9089355,-77.5781638
PAST SALE,,Single Family Residential,41333 Red Birch Dr,Aldie,VA,20105,776920,,4.5,,4747,10454,2019,,164,,,,,https://www.redfin.com/VA/Aldie/41333-Red-Birch-Dr-20105/home/171690533,,,N,Y,38.9386334,-77.5739645
PAST SALE,,Single Family Residential,41472 Courtney Nicole Pl,Stone Ridge,VA,20105,909258,6,5.5,,6921,15682,2019,,131,,,,,https://www.redfin.com/VA/Stone-Ridge/41472-Courtney-Nicole-Pl-20105/home/171690424,,,N,Y,38.951874,-77.567917
PAST SALE,July-20-2019,Single Family Residential,40490 Aspen Highlands Ct,Aldie,VA,20105,779000,5,5.0,TANGLEWOOD WEST,6200,12197,2018,868,126,60,Sold,,,https://www.redfin.com/VA/Aldie/40490-Aspen-Highlands-CT-20105/home/160931820,BRIGHT MLS,VALO379152,N,Y,38.93329,-77.57232
PAST SALE,May-19-2021,Single Family Residential,40837 Foxtail Fields Dr,Aldie,VA,20105,1142619,4,4.5,WILLOWSFORD,,11761,,199,,,Sold,,,https://www.redfin.com/VA/Aldie/40837-Foxtail-Fields-Dr-20105/home/175187251,BRIGHT MLS,VALO439566,N,Y,38.9425505,-77.5890726
PAST SALE,October-25-2021,Townhouse,25071 Prairie Fire Sq,Aldie,VA,20105,650000,3,3.5,STRATSHIRE CROSSING,3485,3485,2011,40,187,107,Sold,,,https://www.redfin.com/VA/Aldie/25071-Prairie-Fire-Sq-20105/home/40242355,BRIGHT MLS,VALO2009368,N,Y,38.9234666,-77.5610687
PAST SALE,,Single Family Residential,41328 Red Birch Dr,Stone Ridge,VA,20105,709483,4,4.5,,4314,9583,2019,,164,,,,,https://www.redfin.com/VA/Stone-Ridge/41328-Red-Birch-Dr-20105/home/171690539,,,N,Y,38.9388969,-77.5734272
PAST SALE,November-5-2021,Single Family Residential,40441 Hickory Ridge Pl,Aldie,VA,20105,1025000,4,4.5,LENAH RUN HAMLET,4733,22651,2003,29,217,135,Sold,,,https://www.redfin.com/VA/Aldie/40441-Hickory-Ridge-Pl-20105/home/12076599,BRIGHT MLS,VALO2009228,N,Y,38.9458442,-77.6049665
PAST SALE,February-18-2019,Single Family Residential,40987 Spanglegrass Ct,Aldie,VA,20105,975000,5,5.0,GREENS AT WILLOWSFORD,5887,11326,2015,1020,166,191,Sold,,,https://www.redfin.com/VA/Aldie/40987-Spanglegrass-Ct-20105/home/56518572,BRIGHT MLS,1002218442,N,Y,38.9278527,-77.5870602
PAST SALE,November-6-2020,Single Family Residential,25617 Wyndham Ct,Aldie,VA,20105,1089412,6,5.5,GREENS SOUTH AT WILLOWSF,6123,13068,2020,393,178,222,Sold,,,https://www.redfin.com/VA/Stone-Ridge/25617-Wyndham-Point-Ct-20105/home/173651551,BRIGHT MLS,VALO425410,N,Y,38.9077887,-77.5942661
PAST SALE,,Single Family Residential,23378 Bigbud Hickory Ln,Stone Ridge,VA,20105,300000,,5.0,,4394,11326,2020,,68,,,,,https://www.redfin.com/VA/Stone-Ridge/23378-Bigbud-Hickory-Ln-20105/home/171691106,,,N,Y,38.9708061,-77.5991928
PAST SALE,November-10-2021,Townhouse,41436 Black Cherry Ter,Aldie,VA,20105,414900,3,2.5,LOUDOUN CROSSING CONDOMINIUM,1600,,2017,24,259,318,Sold,,,https://www.redfin.com/VA/Aldie/41436-Black-Cherry-Ter-20105/home/147566698,BRIGHT MLS,VALO2009528,N,Y,38.9184707,-77.569679
PAST SALE,July-16-2020,Single Family Residential,40835 Tulip Poplar Pl,Aldie,VA,20105,1216181,6,5.5,Aldie,5915,18295,2020,506,206,213,Sold,,,https://www.redfin.com/VA/Stone-Ridge/40835-Tulip-Poplar-Pl-20105/home/172649405,BRIGHT MLS,VALO417962,N,Y,38.9033143,-77.5886416
PAST SALE,September-14-2020,Townhouse,24666 Buttonbush Ter,Aldie,VA,20105,350000,2,2.5,STONE SPRINGS CONDOMINIU,1472,,2006,446,238,296,Sold,,,https://www.redfin.com/VA/Aldie/24666-Buttonbush-Ter-20105/home/12105887,BRIGHT MLS,VALO418732,N,Y,38.935685,-77.5510442
PAST SALE,November-10-2021,Single Family Residential,25509 Emerson Oaks Dr,Aldie,VA,20105,762000,4,3.5,KIRKPATRICK WEST,3488,7841,2015,24,218,101,Sold,,,https://www.redfin.com/VA/Aldie/25509-Emerson-Oaks-Dr-20105/home/112880614,BRIGHT MLS,VALO2008792,N,Y,38.9130316,-77.5690729
PAST SALE,November-5-2021,Single Family Residential,25505 Emerson Oaks Dr,Aldie,VA,20105,830000,4,3.5,KIRKPATRICK WEST,4395,7841,2015,29,189,101,Sold,,,https://www.redfin.com/VA/Aldie/25505-Emerson-Oaks-Dr-20105/home/112881525,BRIGHT MLS,VALO2009248,N,Y,38.913167,-77.56926
PAST SALE,,Townhouse,25127 Cutgrass Ter,Stone Ridge,VA,20105,181611,,3.5,,1506,1742,2006,,121,,,,,https://www.redfin.com/VA/Stone-Ridge/25127-Cutgrass-Ter-20105/home/22841212,,,N,Y,38.922643,-77.548105
PAST SALE,November-5-2021,Single Family Residential,41612 Hoffman Dr,Aldie,VA,20105,840000,5,3.5,CD SMITH,3895,7841,2015,29,216,105,Sold,,,https://www.redfin.com/VA/Aldie/41612-Hoffman-Dr-20105/home/79891110,BRIGHT MLS,VALO2008804,N,Y,38.9261645,-77.5639124
PAST SALE,November-10-2021,Townhouse,25146 Cutgrass Ter,Aldie,VA,20105,545000,3,3.5,STONE RIDGE SOUTH,2180,2178,2006,24,250,96,Sold,,,https://www.redfin.com/VA/Stone-Ridge/25146-Cutgrass-Ter-20105/home/12102464,BRIGHT MLS,VALO2008742,N,Y,38.921957,-77.547714
PAST SALE,October-29-2020,Single Family Residential,23791 Kilkerran Dr,Aldie,VA,20105,832000,6,5.5,WESTBURY GLEN,5334,7920,2020,401,156,67,Sold,,,https://www.redfin.com/VA/Aldie/23791-Kilkerran-Dr-20105/home/171379923,BRIGHT MLS,VALO408808,N,Y,38.9595847,-77.594037
PAST SALE,September-17-2021,Single Family Residential,23320 Watson Rd,Leesburg,VA,20175,575000,2,1.0,Leesburg,1368,41382,1910,78,420,,Sold,,,https://www.redfin.com/VA/Leesburg/23320-Watson-Rd-20175/home/12015779,BRIGHT MLS,VALO2005694,N,Y,38.9721605,-77.6041832
PAST SALE,,Single Family Residential,24546 Mountain Magnolia Pl,Stone Ridge,VA,20105,739766,,5.0,,4356,8276,2019,,170,,,,,https://www.redfin.com/VA/Stone-Ridge/24546-Mountain-Magnolia-Pl-20105/home/173261884,,,N,Y,38.9384407,-77.5749719
PAST SALE,November-5-2021,Townhouse,24736 Clock Tower,Aldie,VA,20105,583000,3,3.0,STONE RIDGE NORTH,2460,3049,2004,29,237,109,Sold,,,https://www.redfin.com/VA/Stone-Ridge/24736-Clock-Tower-Sq-20105/home/12070814,BRIGHT MLS,VALO2005458,N,Y,38.9336879,-77.546436
PAST SALE,November-11-2021,Single Family Residential,25800 Success Dr,Aldie,VA,20105,806000,4,4.0,SEVEN HILLS,3772,11326,2016,23,214,96,Sold,,,https://www.redfin.com/VA/Aldie/25800-Success-Dr-20105/home/56519638,BRIGHT MLS,VALO2009478,N,Y,38.9055963,-77.5551598
PAST SALE,July-26-2019,Single Family Residential,24128 Grand Ellison Ct,Aldie,VA,20105,1300000,5,5.0,WESTBROOK,6064,159865,2005,862,214,,Sold,,,https://www.redfin.com/VA/Aldie/24128-Grand-Ellison-Ct-20105/home/12076608,BRIGHT MLS,VALO382712,N,Y,38.9500773,-77.6157761
PAST SALE,January-10-2020,Single Family Residential,25785 Success Dr,Aldie,VA,20105,578500,3,2.0,SEVEN HILLS,1926,10454,2013,694,300,90,Sold,,,https://www.redfin.com/VA/Aldie/25785-Success-Dr-20105/home/56519657,BRIGHT MLS,VALO392284,N,Y,38.905639,-77.556322
PAST SALE,November-18-2019,Single Family Residential,23634 Shetland,Aldie,VA,20105,783000,6,5.5,WESTBURY GLEN,3626,13068,2019,747,216,57,Sold,,,https://www.redfin.com/VA/Aldie/23634-Shetland-20105/home/170058180,BRIGHT MLS,VALO399886,N,Y,38.96338745,-77.59077026
PAST SALE,December-6-2019,Single Family Residential,40947 Mountain Maple Pl,Aldie,VA,20105,898543,5,4.5,GROVE AT WILLOWSFORD,4824,16988,2019,729,186,213,Sold,,,https://www.redfin.com/VA/Aldie/40947-Mountain-Maple-Pl-20105/home/171130221,BRIGHT MLS,VALO406276,N,Y,38.9452971,-77.5881123
PAST SALE,April-17-2019,Single Family Residential,41130 Hickory Hedge Pl,Aldie,VA,20105,974569,6,6.5,GREENS SOUTH AT WILLOWSF,,15246,2017,962,,20,Sold,,,https://www.redfin.com/VA/Aldie/41130-Hickory-Hedge-Pl-20105/home/162444301,BRIGHT MLS,VALO380874,N,Y,38.9133243,-77.5842198
PAST SALE,December-24-2018,Townhouse,25322 Trumpet Vine Ter,Aldie,VA,20105,396500,3,2.5,LOUDOUN CROSSING CONDOMI,2614,,2016,1076,152,267,Sold,,,https://www.redfin.com/VA/Aldie/25322-Trumpet-Vine-Ter-20105/home/147426453,BRIGHT MLS,1008361080,N,Y,38.9169583,-77.5685687
PAST SALE,March-3-2021,Townhouse,24628 Seacliff Ter,Aldie,VA,20105,440000,3,3.0,SUMMERWALK AT STONE RIDG,2208,,2014,276,199,322,Sold,,,https://www.redfin.com/VA/Aldie/24628-Seacliff-Ter-20105/home/57348817,BRIGHT MLS,VALO429550,N,Y,38.9372264,-77.5422339
PAST SALE,November-5-2021,Single Family Residential,24928 Falling Brook Cir,Aldie,VA,20105,1041829,5,5.5,LENAH MILL,5500,16117,,29,189,155,Sold,,,https://www.redfin.com/VA/Stone-Ridge/24928-Falling-Brook-Cir-20105/home/177096339,BRIGHT MLS,VALO2009748,N,Y,38.9291945,-77.5755427
PAST SALE,January-28-2019,Single Family Residential,41436 Lavender Breeze Cir,Aldie,VA,20105,930810,4,4.5,LENAH MILL EXECUTIVES,5000,,2019,1041,186,,Sold,,,https://www.redfin.com/VA/Aldie/41436-Lavender-Breeze-Cir-20105/home/160473176,BRIGHT MLS,VALO379768,N,Y,38.9414713,-77.5801403
PAST SALE,,Single Family Residential,41078 Moondancer Ct,Stone Ridge,VA,20105,880000,,5.5,,3164,14810,2018,,278,,,,,https://www.redfin.com/VA/Stone-Ridge/41078-Moondancer-Ct-20105/home/147077231,,,N,Y,38.913743,-77.58269
PAST SALE,January-31-2019,Single Family Residential,40983 Spanglegrass Ct,Aldie,VA,20105,1000000,5,5.0,GREENS AT WILLOWSFORD,6140,11761,2017,1038,163,191,Sold,,,https://www.redfin.com/VA/Aldie/40983-Spanglegrass-Ct-20105/home/56518575,BRIGHT MLS,1002218440,N,Y,38.9279976,-77.5872804
PAST SALE,August-20-2021,Single Family Residential,40836 Foxtail Fields Dr,Aldie,VA,20105,1111239,4,4.5,GROVE AT WILLOWSFORD,3813,10890,2021,106,291,200,Sold,,,https://www.redfin.com/VA/Aldie/40836-Foxtail-Fields-Dr-20105/home/176280076,BRIGHT MLS,VALO2007570,N,Y,38.9429794,-77.5891476
PAST SALE,September-10-2019,Single Family Residential,40928 Munson Woods Pl,Aldie,VA,20105,787880,5,4.5,MCINTOSH FARMS,5482,10454,2019,816,144,,Sold,,,https://www.redfin.com/VA/Stone-Ridge/40928-Munson-Woods-Pl-20105/home/170951273,BRIGHT MLS,VALO405106,N,Y,38.9317381,-77.5876159
PAST SALE,October-21-2021,Single Family Residential,23909 Welch Ridge Pl,Aldie,VA,20105,1049000,5,4.0,HARTLAND,3010,11650,,44,349,189,Sold,,,https://www.redfin.com/VA/Unknown/23909-Lenah-Ridge-Pl-20105/home/176946648,BRIGHT MLS,VALO2010564,N,Y,38.95947462,-77.56925245
PAST SALE,June-20-2019,Single Family Residential,24602 Lenah Crossing Dr,Aldie,VA,20105,754456,4,3.5,LENAH MILL,4914,9583,2019,898,154,100,Sold,,,https://www.redfin.com/VA/Stone-Ridge/24602-Lenah-Crossing-Dr-20105/home/171223100,BRIGHT MLS,VALO407336,N,Y,38.9368886,-77.5723078
PAST SALE,November-29-2019,Condo/Co-op,42244 Black Rock Ter,Aldie,VA,20105,290000,2,2.5,AMBER SPRING CONDO,1377,,2004,736,211,334,Sold,,,https://www.redfin.com/VA/Aldie/42244-Black-Rock-Ter-20105/unit-1005/home/12079102,BRIGHT MLS,VALO398062,N,Y,38.933773,-77.541898
PAST SALE,December-3-2021,Single Family Residential,25633 Emerson Oaks Dr,Aldie,VA,20105,822000,4,3.5,KIRKPATRICK WEST,3753,8712,2014,1,219,101,Sold,,,https://www.redfin.com/VA/Aldie/25633-Emerson-Oaks-Dr-20105/home/56516120,BRIGHT MLS,VALO2010758,N,Y,38.9089657,-77.5685467
PAST SALE,March-1-2021,Single Family Residential,24273 Basket Willow Ln,Aldie,VA,20105,895569,4,3.5,WILLOWSFORD,3028,22215,,278,296,200,Sold,,,https://www.redfin.com/VA/Stone-Ridge/24273-Basket-Willow-Ln-20105/home/176475974,BRIGHT MLS,VALO2009018,N,Y,38.9465736,-77.5845942
PAST SALE,October-16-2019,Single Family Residential,42022 Glass Mountain Pl,Aldie,VA,20105,680000,5,3.5,STONE RIDGE NORTH,4032,12632,2004,780,169,93,Sold,,,https://www.redfin.com/VA/Stone-Ridge/42022-Glass-Mountain-Pl-20105/home/12070704,BRIGHT MLS,VALO392842,N,Y,38.9332695,-77.5499181
PAST SALE,January-2-2019,Single Family Residential,23546 Soft Elm Ln,Aldie,VA,20105,720000,3,4.5,GRANT AT WILLOWSFORD,4553,9148,2018,1067,158,396,Sold,,,https://www.redfin.com/VA/Dulles/Elm-Ter-20105/home/145656666,BRIGHT MLS,1002605482,N,Y,38.967452,-77.598201
PAST SALE,,Single Family Residential,40946 White Clover Ln,Stone Ridge,VA,20105,766085,,3.5,,4482,10019,2019,,171,,,,,https://www.redfin.com/VA/Stone-Ridge/40946-White-Clover-Ln-20105/home/166643692,,,N,Y,38.909038,-77.587928
PAST SALE,January-10-2020,Single Family Residential,23429 Roundup Pl,Aldie,VA,20105,1300000,6,6.0,LITTLE RIVER FARMS,8504,155509,2007,694,153,,Sold,,,https://www.redfin.com/VA/Aldie/23429-Roundup-Pl-20105/home/14365277,BRIGHT MLS,VALO395072,N,Y,38.9699423,-77.6289565
PAST SALE,December-15-2018,Single Family Residential,40548 Hazel Pl,Aldie,VA,20105,739898,6,5.0,TANGLEWOOD WEST,5405,13068,2018,1085,137,55,Sold,,,https://www.redfin.com/VA/Aldie/40548-Hazel-Pl-20105/home/146783118,BRIGHT MLS,1003436106,N,Y,38.9338214,-77.6003033
PAST SALE,November-25-2020,Single Family Residential,24355 Indian Bean Ct,Aldie,VA,20105,1064530,4,3.5,GROVE AT WILLOWSFORD,4013,16553,2020,374,265,,Sold,,,https://www.redfin.com/VA/Stone-Ridge/24355-Indian-Bean-Ct-20105/home/174927679,BRIGHT MLS,VALO435590,N,Y,38.9438563,-77.5872339
PAST SALE,March-29-2019,Single Family Residential,23098 Red Sunset Pl,Aldie,VA,20105,1474173,5,5.5,GRANT AT WILLOWSFORD,5750,28314,2018,981,256,,Sold,,,https://www.redfin.com/VA/Stone-Ridge/23098-Red-Sunset-Pl-20105/home/166858180,BRIGHT MLS,VALO406784,N,Y,38.978008,-77.58553
PAST SALE,January-21-2021,Townhouse,42267 Canary Grass Sq,Aldie,VA,20105,407500,3,3.0,SUMMERWALK AT STONE RIDG,2208,,2014,317,185,323,Sold,,,https://www.redfin.com/VA/Aldie/42267-Canary-Grass-Sq-20105/home/55555827,BRIGHT MLS,VALO427600,N,Y,38.9359624,-77.5438634
PAST SALE,March-30-2021,Single Family Residential,25174 Methley Plum Pl,Aldie,VA,20105,1530201,4,5.5,GREENS SOUTH AT WILLOWSF,8522,37462,2020,249,180,,Sold,,,https://www.redfin.com/VA/Aldie/25174-Methley-Plum-Pl-20105/home/174852926,BRIGHT MLS,VALO434612,N,Y,38.9210347,-77.5986715
PAST SALE,,Single Family Residential,41468 Courtney Nicole Pl,Stone Ridge,VA,20105,809566,,5.0,,4458,15246,2018,,182,,,,,https://www.redfin.com/VA/Stone-Ridge/41468-Courtney-Nicole-Pl-20105/home/171690423,,,N,Y,38.95222,-77.56818
PAST SALE,January-3-2019,Townhouse,41750 Mcdivitt Ter,Aldie,VA,20105,519900,3,2.5,CD SMITH,2342,2614,2014,1066,222,101,Sold,,,https://www.redfin.com/VA/Aldie/41750-McDivitt-Ter-20105/home/56516525,BRIGHT MLS,VALO107080,N,Y,38.929012,-77.558885
PAST SALE,June-7-2019,Single Family Residential,41663 Blue Grama Cir,Aldie,VA,20105,764000,5,4.5,GREENFIELD CROSSING,5905,9583,2013,911,129,103,Sold,,,https://www.redfin.com/VA/Aldie/41663-Blue-Grama-Cir-20105/home/45445023,BRIGHT MLS,VALO372956,N,Y,38.9210807,-77.5629718
PAST SALE,December-16-2020,Single Family Residential,41430 Tarragon Leaf Dr,Aldie,VA,20105,694995,4,3.5,LENAH MILL,3068,9148,2020,353,227,1,Sold,,,https://www.redfin.com/VA/Stone-Ridge/41430-Tarragon-Leaf-Dr-20105/home/173966759,BRIGHT MLS,VALO427718,N,Y,38.924473,-77.569553
PAST SALE,,Single Family Residential,24936 Virginia Juniper Ct,Stone Ridge,VA,20105,907496,,4.5,,4463,8245,2020,,203,,,,,https://www.redfin.com/VA/Stone-Ridge/24936-Virginia-Juniper-Ct-20105/home/176297039,,,N,Y,38.9275155,-77.5729157
PAST SALE,November-30-2021,Townhouse,25150 Fluvial Ter,Aldie,VA,20105,648000,3,2.5,STONE RIDGE SOUTH,2636,3485,2011,4,246,96,Sold,,,https://www.redfin.com/VA/Aldie/25150-Fluvial-Ter-20105/home/28588304,BRIGHT MLS,VALO2000149,N,Y,38.9219177,-77.5550624
PAST SALE,December-16-2019,Single Family Residential,41363 Terragon Leaf Ter,Aldie,VA,20105,723995,5,3.5,LENAH MILL,3140,10001,2020,719,231,138,Sold,,,https://www.redfin.com/VA/Stone-Ridge/41363-Tarragon-Leaf-Dr-20105/home/173262047,BRIGHT MLS,VALO390252,N,Y,38.9242701,-77.5731886
PAST SALE,October-28-2021,Single Family Residential,23891 EBONY EYES CT Ebony Eyes Ct,Aldie,VA,20105,1090133,4,3.5,HARTLAND,3690,10018,,37,295,230,Sold,,,https://www.redfin.com/VA/Aldie/23891-EBONY-EYES-CT-Ebony-Eyes-CT-20105/home/177141447,BRIGHT MLS,VALO2011458,N,Y,38.95636245,-77.57003941
PAST SALE,,Single Family Residential,24277 Basket Willow Ln,Stone Ridge,VA,20105,1250000,,4.5,,4953,22216,2019,,252,,,,,https://www.redfin.com/VA/Stone-Ridge/24277-Basket-Willow-Ln-20105/home/173262894,,,N,Y,38.9462056,-77.5848722
PAST SALE,March-19-2020,Single Family Residential,25041 Woodland Iris Dr,Aldie,VA,20105,725050,5,4.0,LENAH MILL - THE PARKER,3200,,2020,625,227,121,Sold,,,https://www.redfin.com/VA/Stone-Ridge/25041-Woodland-Iris-Dr-20105/home/172384964,BRIGHT MLS,VALO415428,N,Y,38.9246952,-77.5717764
PAST SALE,August-27-2020,Single Family Residential,24807 Lenah Crossing Dr,Aldie,VA,20105,959286,4,4.5,LENAH MILL,,15246,,464,,140,Sold,,,https://www.redfin.com/VA/Stone-Ridge/24807-Lenah-Crossing-Dr-20105/home/172984971,BRIGHT MLS,VALO419892,N,Y,38.9322219,-77.5736634
PAST SALE,,Single Family Residential,24601 Wateroak Pl,Stone Ridge,VA,20105,926155,,3.5,,4747,11061,2019,,195,,,,,https://www.redfin.com/VA/Stone-Ridge/24601-Wateroak-Pl-20105/home/173262906,,,N,Y,38.9365906,-77.5888055
PAST SALE,,Single Family Residential,24538 Lenah Rd,Aldie,VA,20105,1550000,,2.5,,3312,388555,1980,,468,,,,,https://www.redfin.com/VA/Aldie/24538-Lenah-Rd-20105/home/12014713,,,N,Y,38.9409529,-77.5929025
PAST SALE,December-18-2019,Townhouse,42235 Graves Mountain Ter,Chantilly,VA,20152,566984,3,4.0,WHITMAN PROPERTY NORTH,2709,2178,2019,717,209,188,Sold,,,https://www.redfin.com/VA/South-Riding/42235-Graves-Mountain-TER-20152/home/169082419,BRIGHT MLS,VALO394950,N,Y,38.913012,-77.546064
PAST SALE,,Condo/Co-op,41991 White Mills Ter,Stone Ridge,VA,20105,157283,,2.5,,1992,,2018,,79,,,,,https://www.redfin.com/VA/Stone-Ridge/41991-White-Mills-Ter-20105/home/171689147,,,N,Y,38.93774,-77.55038
PAST SALE,,Townhouse,42030 Angel Arch Ter,Stone Ridge,VA,20105,500000,,3.0,,2928,3049,2007,,171,,,,,https://www.redfin.com/VA/Stone-Ridge/42030-Angel-Arch-Ter-20105/home/14367241,,,N,Y,38.9229606,-77.5495748
PAST SALE,,Condo/Co-op,42087 Shadows Pride Ter,Aldie,VA,20105,400600,,2.5,,2614,,2016,,153,,,,,https://www.redfin.com/VA/Aldie/42087-Shadows-Pride-Ter-20105/home/144866586,,,N,Y,38.8983946,-77.5481151
PAST SALE,June-4-2021,Vacant Land,21762 Clear Creek Ln,Aldie,VA,20105,498000,,,CHUDLEIGH FARM,,967903,,183,,269,Sold,,,https://www.redfin.com/VA/Aldie/21762-Clear-Creek-Ln-20105/home/17533095,BRIGHT MLS,VALO430588,N,Y,39.016095,-77.653655
PAST SALE,December-10-2019,Single Family Residential,41885 Feldspar Pl N,Stone Ridge,VA,20105,749900,6,6.5,STONE RIDGE NORTH,5936,8712,2005,725,126,93,Sold,,,https://www.redfin.com/VA/Aldie/41885-Feldspar-Pl-20105/home/12081816,BRIGHT MLS,VALO391078,N,Y,38.930572,-77.554132
PAST SALE,November-23-2021,Single Family Residential,24382 Carolina Rose Cir,Aldie,VA,20105,952000,5,3.5,LENAH MILL,4073,8276,2018,11,234,143,Sold,,,https://www.redfin.com/VA/Aldie/24382-Carolina-Rose-Cir-20105/home/146866897,BRIGHT MLS,VALO2009610,N,Y,38.94304,-77.573445
PAST SALE,October-15-2021,Townhouse,42108 Tanzanite Ter,Aldie,VA,20105,590000,3,3.5,STONE RIDGE SOUTH,2568,2178,2006,50,230,96,Sold,,,https://www.redfin.com/VA/Stone-Ridge/42108-Tanzanite-Ter-20105/home/22840937,BRIGHT MLS,VALO2003894,N,Y,38.922754,-77.546926
PAST SALE,October-13-2021,Single Family Residential,40990 Misty Vale Cir,Aldie,VA,20105,1100000,4,4.5,LENAH RUN,5551,28314,2001,52,198,135,Sold,,,https://www.redfin.com/VA/Aldie/40990-Misty-Vale-Cir-20105/home/12047662,BRIGHT MLS,VALO2008308,N,Y,38.9521047,-77.5845755
PAST SALE,,Single Family Residential,24642 Lenah Crossing Dr,Stone Ridge,VA,20105,633000,,5.0,,5567,10019,2019,,114,,,,,https://www.redfin.com/VA/Stone-Ridge/24642-Lenah-Crossing-Dr-20105/home/171690485,,,N,Y,38.9346908,-77.5720392
PAST SALE,,Single Family Residential,24582 Lenah Crossing Dr,Stone Ridge,VA,20105,923315,,4.5,,5498,9148,2019,,168,,,,,https://www.redfin.com/VA/Stone-Ridge/24582-Lenah-Crossing-Dr-20105/home/171690549,,,N,Y,38.938087,-77.572335
PAST SALE,January-28-2019,Single Family Residential,23993 Colin Creek Ct,Aldie,VA,20105,849000,4,4.0,NICHOLSON FARM,3400,14153,2019,1041,250,90,Sold,,,https://www.redfin.com/VA/Stone-Ridge/23993-Colin-Creek-Ct-20105/home/148724642,BRIGHT MLS,VALO268532,N,Y,38.953668,-77.569307
PAST SALE,November-23-2021,Single Family Residential,40627 Lenah Run Cir,Aldie,VA,20105,2000000,6,6.0,LENAH RUN,7046,1323788,2005,11,284,125,Sold,,,https://www.redfin.com/VA/Aldie/40627-Lenah-Run-Cir-20105/home/12047594,BRIGHT MLS,VALO2009996,N,Y,38.951101,-77.5962945
PAST SALE,September-14-2021,Single Family Residential,9140 Cigar Tree Way,Aldie,VA,20105,967912,4,3.5,LENAH MILL - THE PARKER,3068,10503,2020,81,315,140,Sold,,,https://www.redfin.com/VA/Aldie/9140-Cigar-Tree-WAY-20105/home/173340408,BRIGHT MLS,VALO422848,N,Y,38.92465593,-77.57398434
PAST SALE,,Single Family Residential,24078 Mill Wheel Pl,Aldie,VA,20105,770000,5,4.5,,4400,11326,2017,,175,,,,,https://www.redfin.com/VA/Aldie/24078-Mill-Wheel-Pl-20105/home/112908240,,,N,Y,38.9527783,-77.5738964
PAST SALE,September-6-2019,Single Family Residential,41065 Hickory Hedge Pl,Aldie,VA,20105,816530,6,5.0,GREENS SOUTH AT WILLOWSF,4733,16117,2019,820,173,230,Sold,,,https://www.redfin.com/VA/Aldie/41065-Hickory-Hedge-Pl-20105/home/171194985,BRIGHT MLS,VALO406946,N,Y,38.9115971,-77.583335
PAST SALE,September-9-2019,Single Family Residential,23369 Pin Cherry Ln,Aldie,VA,20105,850476,6,5.0,GRANT AT WILLOWSFORD,4977,9080,2019,817,171,,Sold,,,https://www.redfin.com/VA/Stone-Ridge/23369-Pin-Cherry-Ln-20105/home/171691111,BRIGHT MLS,VALO394462,N,Y,38.97142731,-77.5976146
PAST SALE,July-14-2020,Single Family Residential,40615 Hazel Pl,Aldie,VA,20105,754900,6,5.0,GREENS AT WILLOWSFORD,4281,10019,2016,508,176,68,Sold,,,https://www.redfin.com/VA/Aldie/40615-Hazel-Pl-20105/home/56518483,BRIGHT MLS,VALO409104,N,Y,38.9326851,-77.5980691
PAST SALE,July-15-2019,Single Family Residential,40517 Hazel Pl,Aldie,VA,20105,880000,6,5.5,TANGLEWOOD WEST,6217,13939,2017,873,142,60,Sold,,,https://www.redfin.com/VA/Aldie/40517-Hazel-Pl-20105/home/147603966,BRIGHT MLS,VALO315026,N,Y,38.935232,-77.604365
PAST SALE,,Condo/Co-op,25309 Gray Poplar Ter Unit 4E,Aldie,VA,20105,174288,,2.5,,1600,,2015,,109,,,,,https://www.redfin.com/VA/Aldie/25309-Gray-Poplar-Ter-20105/unit-4E/home/112909616,,,N,Y,38.918193,-77.569305
PAST SALE,July-9-2021,Single Family Residential,40924 Blossom Glade Dr,Aldie,VA,20105,1129545,5,4.5,ARCADIA TWIN PONDS,5759,,2021,148,196,200,Sold,,,https://www.redfin.com/VA/Aldie/40924-Blossom-Glade-Dr-20105/home/176717601,BRIGHT MLS,VALO2000571,N,Y,38.9335256,-77.5886504
PAST SALE,June-5-2020,Single Family Residential,39195 Aldie Rd,Aldie,VA,20105,475000,4,3.0,ALDIE ROAD,2917,77101,1979,547,163,,Sold,,,https://www.redfin.com/VA/Aldie/39195-Aldie-Rd-20105/home/144865638,BRIGHT MLS,VALO405624,N,Y,38.978687,-77.650009
PAST SALE,,Single Family Residential,23257 White Sycamore Pl,Aldie,VA,20105,1092086,,6.5,,6305,22216,2018,,173,,,,,https://www.redfin.com/VA/Aldie/23257-White-Sycamore-Pl-20105/home/171691127,,,N,Y,38.973388,-77.590606
PAST SALE,November-15-2019,Single Family Residential,24820 Stone Pillar Dr,Aldie,VA,20105,659000,4,3.5,STONE RIDGE NORTH,4773,7841,2004,750,138,96,Sold,,,https://www.redfin.com/VA/Stone-Ridge/24820-Stone-Pillar-Dr-20105/home/12071129,BRIGHT MLS,VALO395054,N,Y,38.9299226,-77.5483058
PAST SALE,March-20-2020,Single Family Residential,24613 Wateroak Pl,Aldie,VA,20105,947997,5,4.5,ARCADIA TWIN PONDS,5556,10019,2020,624,171,222,Sold,,,https://www.redfin.com/VA/Stone-Ridge/24613-Wateroak-Pl-20105/home/173620586,BRIGHT MLS,VALO425034,N,Y,38.9362122,-77.5891688
PAST SALE,July-31-2019,Single Family Residential,40799 Arrow Grove Place Aldie,Aldie,VA,20105,829050,5,3.0,MCINTOSH,4000,,2019,857,207,150,Sold,,,https://www.redfin.com/VA/Dulles/40799-Yarrow-Grove-Pl-20105/home/168768057,BRIGHT MLS,VALO393436,N,Y,38.93266,-77.57289
PAST SALE,June-27-2019,Single Family Residential,41175 Chatham Green Cir,Aldie,VA,20105,915000,5,4.5,GROVE AT WILLOWSFORD,4919,13939,2018,891,186,191,Sold,,,https://www.redfin.com/VA/Aldie/41175-Chatham-Green-Cir-20105/home/148712986,BRIGHT MLS,VALO384558,N,Y,38.934588,-77.5798918
PAST SALE,,Unknown,41170 Chatham Green Cir,Aldie,VA,20105,841579,,,,,,,,,,,,,https://www.redfin.com/VA/Aldie/41170-Chatham-Green-Cir-20105/home/148712985,,,N,Y,38.9353834,-77.5799376
PAST SALE,October-21-2020,Single Family Residential,25652 Wyndham Pt,Aldie,VA,20105,1224725,5,5.5,GREENS SOUTH AT WILLOWSF,5500,26136,2020,409,223,150,Sold,,,https://www.redfin.com/VA/Aldie/25652-Wyndham-Point-Ct-20105/home/173489480,BRIGHT MLS,VALO423764,N,Y,38.9051708,-77.5921951
PAST SALE,December-31-2020,Single Family Residential,41332 Lavender Breeze Cir,Aldie,VA,20105,1258000,4,5.5,LENAH MILL,6320,14375,2018,338,199,138,Sold,,,https://www.redfin.com/VA/Aldie/41332-Lavender-Breeze-Cir-20105/home/147083086,BRIGHT MLS,VALO425394,N,Y,38.9439282,-77.580296
PAST SALE,April-16-2021,Single Family Residential,24564 Wateroak Pl,Aldie,VA,20105,1107147,5,6.5,GROVE AT WILLOWSFORD,5896,10454,2021,232,188,200,Sold,,,https://www.redfin.com/VA/Stone-Ridge/24564-Wateroak-Pl-20105/home/176717784,BRIGHT MLS,VALO2000579,N,Y,38.9380586,-77.5878642
PAST SALE,July-21-2021,Single Family Residential,40925 Blossom Glade Dr,Aldie,VA,20105,1091440,5,5.0,ARCADIA TWIN PONDS,4494,11326,2021,136,243,200,Sold,,,https://www.redfin.com/VA/Aldie/40925-Blossom-Glade-Dr-20105/home/176717684,BRIGHT MLS,VALO2000577,N,Y,38.9330203,-77.5888132
PAST SALE,July-6-2020,Single Family Residential,23096 Backcountry Ct,Ashburn,VA,20148,1600000,5,6.5,WILLOWSFORD GRANT,8000,67082,2015,516,200,180,Sold,,,https://www.redfin.com/VA/Ashburn/23096-Backcountry-Ct-20148/home/56518182,BRIGHT MLS,VALO411198,N,Y,38.978484,-77.570918
PAST SALE,May-4-2021,Single Family Residential,23129 Backcountry Ct,Ashburn,VA,20148,1800000,6,6.5,WILLOWSFORD GRANT,7680,56628,2014,214,234,226,Sold,,,https://www.redfin.com/VA/Ashburn/23129-Backcountry-Ct-20148/home/56518187,BRIGHT MLS,VALO435070,N,Y,38.9762112,-77.5730018
PAST SALE,May-21-2021,Single Family Residential,24215 Crabtree Ct,Aldie,VA,20105,931000,4,3.5,LENAH MILL,3820,12632,2013,197,244,146,Sold,,,https://www.redfin.com/VA/Aldie/24215-Crabtree-Ct-20105/home/56518420,BRIGHT MLS,VALO435912,N,Y,38.9486537,-77.5715466
PAST SALE,September-21-2021,Single Family Residential,40718 Lenah Run Cir,Aldie,VA,20105,1071151,4,4.5,LENAH RUN,6009,28314,2001,74,178,135,Sold,,,https://www.redfin.com/VA/Aldie/40718-Lenah-Run-Cir-20105/home/12047647,BRIGHT MLS,VALO2005462,N,Y,38.9522266,-77.5903731
PAST SALE,April-28-2021,Single Family Residential,40777 Northern Willow Ct,Aldie,VA,20105,1115693,5,4.0,GROVE AT WILLOWSFORD,,,2021,220,,221,Sold,,,https://www.redfin.com/VA/Stone-Ridge/40777-Northern-Willow-Ct-20105/home/175310905,BRIGHT MLS,VALO441258,N,Y,38.9408995,-77.5931128
PAST SALE,January-29-2019,Single Family Residential,40886 Hayrake Pl,Aldie,VA,20105,659000,4,3.5,ALDIE ESTATES,4497,1,2018,1040,147,85,Sold,,,https://www.redfin.com/VA/Aldie/40886-Hayrake-Pl-20105/home/148570747,BRIGHT MLS,VALO267096,N,Y,38.9536825,-77.5874694
PAST SALE,October-3-2019,Single Family Residential,24843 Chestnut Creek Ct,Aldie,VA,20105,767975,4,2.5,MCINTOSH FARMS,,10454,2019,793,,130,Sold,,,https://www.redfin.com/VA/Stone-Ridge/24843-Chestnut-Creek-Ct-20105/home/169271216,BRIGHT MLS,VALO396266,N,Y,38.9306768,-77.588291
PAST SALE,September-3-2021,Townhouse,24654 Byrne Meadow Sq,Aldie,VA,20105,437000,3,2.5,MERCER PARK CONDOMINIUM,2696,,2012,92,162,291,Sold,,,https://www.redfin.com/VA/Aldie/24654-Byrne-Meadow-Sq-20105/unit-4-105/home/49797238,BRIGHT MLS,VALO2003586,N,Y,38.935187,-77.542831
PAST SALE,November-13-2020,Townhouse,24724 Cable Mill Ter,Aldie,VA,20105,435000,3,2.5,STONE MILL,2236,,2018,386,195,277,Sold,,,https://www.redfin.com/VA/Aldie/24724-Cable-Ml-Ter-20105/home/173260736,BRIGHT MLS,VALO422672,N,Y,38.93662,-77.549575
PAST SALE,November-10-2021,Single Family Residential,40813 Foxtail Fields Dr,Aldie,VA,20105,1215995,6,6.5,GROVE AT WILLOWSFORD,6533,11326,2021,24,186,229,Sold,,,https://www.redfin.com/VA/Aldie/40813-Foxtail-Fields-Dr-20105/home/177385079,BRIGHT MLS,VALO2012448,N,Y,38.9425505,-77.5890726
PAST SALE,January-9-2020,Single Family Residential,41379 Tarragon Leaf Dr,Aldie,VA,20105,708895,4,3.5,LENAH MILL,4000,10018,2020,695,177,,Sold,,,https://www.redfin.com/VA/Stone-Ridge/41379-Tarragon-Leaf-Dr-20105/home/170280192,BRIGHT MLS,VALO401352,N,Y,38.9240914,-77.5721674
PAST SALE,December-11-2019,Single Family Residential,40754 Yarrow Grove Pl,Aldie,VA,20105,956160,6,6.5,MCINTOSH,5700,10890,2019,724,168,,Sold,,,https://www.redfin.com/VA/Stone-Ridge/40754-Yarrow-Grove-Pl-20105/home/171691287,BRIGHT MLS,VALO399918,N,Y,38.9308401,-77.5940684
PAST SALE,August-20-2021,Single Family Residential,25544 Bergamot Way,Aldie,VA,20105,1050000,4,4.5,GREENS SOUTH AT WILLOWSFORD,4456,14375,2019,106,236,221,Sold,,,https://www.redfin.com/VA/Aldie/25544-Bergamot-Way-20105/home/175706073,BRIGHT MLS,VALO2003462,N,Y,38.911226,-77.583467
PAST SALE,March-18-2021,Vacant Land,Tail Race Rd,Aldie,VA,20105,520000,,,JEWELL FAMILY SUBDIVISIO,,291852,,261,,,Sold,,,https://www.redfin.com/VA/Aldie/Tail-Race-Rd-20105/home/148018549,BRIGHT MLS,VALO426120,N,Y,39.00798047,-77.62771905
PAST SALE,December-9-2020,Single Family Residential,25648 Wyndham Point Ct,Aldie,VA,20105,1101509,5,6.5,GREENS SOUTH AT WILLOWSF,5780,26136,2020,360,191,213,Sold,,,https://www.redfin.com/VA/Stone-Ridge/25648-Wyndham-Point-Ct-20105/home/173924167,BRIGHT MLS,VALO427374,N,Y,38.9057326,-77.5921087
PAST SALE,October-27-2021,Single Family Residential,24438 Moon Glade Ct,Aldie,VA,20105,913000,4,3.5,MOON GLADE FARM,4317,10890,2017,38,211,97,Sold,,,https://www.redfin.com/VA/Aldie/24438-Moon-Glade-Ct-20105/home/144865529,BRIGHT MLS,VALO2009192,N,Y,38.942143,-77.558727
PAST SALE,April-24-2019,Single Family Residential,41248 Stags Leap Dr,Aldie,VA,20105,686870,4,3.5,LENAH MILL VILLAGES,3875,8250,2018,955,177,136,Sold,,,https://www.redfin.com/VA/Aldie/41248-Stags-Leap-Dr-20105/home/148005183,BRIGHT MLS,VALO101364,N,Y,38.9408567,-77.5767944
PAST SALE,November-22-2019,Single Family Residential,24899 Quimby Oaks Pl,Aldie,VA,20105,818000,5,4.5,GROVE AT WILLOWSFORD,5292,10890,2012,743,155,212,Sold,,,https://www.redfin.com/VA/Aldie/24899-Quimby-Oaks-Pl-20105/home/40518233,BRIGHT MLS,VALO396796,N,Y,38.9290999,-77.5799865
PAST SALE,October-2-2020,Townhouse,42047 Berkley Hill Ter,Aldie,VA,20105,420000,3,2.5,STONE MILL CORNER CONDOM,1992,,2017,428,211,278,Sold,,,https://www.redfin.com/VA/Aldie/42047-Berkley-Hill-Ter-20105/home/144266830,BRIGHT MLS,VALO419634,N,Y,38.9385434,-77.550377
PAST SALE,May-20-2019,Townhouse,42290 Terrazzo Ter,Aldie,VA,20105,285000,2,2.5,AMBER SPRING CONDO,1280,,2004,929,223,373,Sold,,,https://www.redfin.com/VA/Aldie/42290-Terrazzo-Ter-20105/unit-817/home/12081790,BRIGHT MLS,VALO356052,N,Y,38.9329486,-77.5415247
PAST SALE,January-10-2020,Single Family Residential,42171 Warwick Farm Pl,Aldie,VA,20105,725000,4,3.5,SEVEN HILLS,4000,8276,2015,694,181,102,Sold,,,https://www.redfin.com/VA/Aldie/42171-Warwick-Farm-Pl-20105/home/110299850,BRIGHT MLS,VALO401888,N,Y,38.8951662,-77.5462286
PAST SALE,December-18-2018,Townhouse,41745 Eloquence Ter,Aldie,VA,20105,425000,3,3.0,KIRKPATRICK FARMS,2574,2178,2005,1082,165,106,Sold,,,https://www.redfin.com/VA/Aldie/41745-Eloquence-Ter-20105/home/12083727,BRIGHT MLS,1007537814,N,Y,38.9190449,-77.558814
PAST SALE,May-11-2020,Single Family Residential,40929 Foxtail Fields Dr,Aldie,VA,20105,933569,5,4.0,GROVE AT WILLOWSFORD,4847,10890,2020,572,193,,Sold,,,https://www.redfin.com/VA/Aldie/40929-Foxtail-Fields-Dr-20105/home/173045928,BRIGHT MLS,VALO420458,N,Y,38.9418806,-77.5904692
PAST SALE,June-30-2021,Single Family Residential,41837 Walden Knoll Ct,Aldie,VA,20105,927000,4,4.5,SEVEN HILLS,4376,9148,2015,157,212,102,Sold,,,https://www.redfin.com/VA/Aldie/41837-Walden-Knoll-Ct-20105/home/56519699,BRIGHT MLS,VALO439574,N,Y,38.9029817,-77.5562468
PAST SALE,,Townhouse,41882 Fraser Downs Ter,Aldie,VA,20105,186100,,2.5,,1872,2178,2015,,99,,,,,https://www.redfin.com/VA/Aldie/41882-Fraser-Downs-Ter-20105/home/102207110,,,N,Y,38.9033888,-77.5550238
PAST SALE,,Unknown,23568 Amesfield Pl,Aldie,VA,20105,747214,,,,,,,,,,,,,https://www.redfin.com/VA/Aldie/23568-Amesfield-Pl-20105/home/148574513,,,N,Y,38.9659568,-77.59238
PAST SALE,May-30-2019,Single Family Residential,42089 Bear Tooth Dr,Aldie,VA,20105,649000,5,3.5,STONE RIDGE NORTH,4047,9583,2004,919,160,93,Sold,,,https://www.redfin.com/VA/Stone-Ridge/42089-Bear-Tooth-Dr-20105/home/12079986,BRIGHT MLS,VALO379176,N,Y,38.9280054,-77.5469175
PAST SALE,March-29-2019,Single Family Residential,40880 Blue Star Ct,Aldie,VA,20105,1615000,4,4.0,GRANT AT WILLOWSFORD,6856,27443,2018,981,236,211,Sold,,,https://www.redfin.com/VA/Stone-Ridge/40880-Blue-Star-Ct-20105/home/148115277,BRIGHT MLS,VALO101286,N,Y,38.9783325,-77.5887065
PAST SALE,,Single Family Residential,24643 Lenah Crossing Dr,Stone Ridge,VA,20105,804608,5,4.0,,4100,10454,2019,,196,,,,,https://www.redfin.com/VA/Stone-Ridge/24643-Lenah-Crossing-Dr-20105/home/171690470,,,N,Y,38.934678,-77.5723744
PAST SALE,July-23-2020,Townhouse,25343 Patriot Ter,Aldie,VA,20105,315000,2,2.0,CONDOMINIUMS AT KIRKPATR,1352,,2010,499,233,243,Sold,,,https://www.redfin.com/VA/Aldie/25343-Patriot-Ter-20105/home/28896086,BRIGHT MLS,VALO410766,N,Y,38.9151919,-77.55887
PAST SALE,September-13-2021,Single Family Residential,25747 Purebred Ct,Aldie,VA,20105,920000,5,4.0,SEVEN HILLS,5143,9148,2013,82,179,102,Sold,,,https://www.redfin.com/VA/Aldie/25747-Purebred-Ct-20105/home/56515418,BRIGHT MLS,VALO2005044,N,Y,38.9050003,-77.5530081
PAST SALE,,Unknown,24426 Carolina Rose Cir,Aldie,VA,20105,685386,,,,,,,,,,,,,https://www.redfin.com/VA/Aldie/24426-Carolina-Rose-Cir-20105/home/148574506,,,N,Y,38.941814,-77.571358
PAST SALE,November-30-2020,Townhouse,41891 Cinnabar Sq,Aldie,VA,20105,421000,4,3.5,STONE RIDGE NORTH,1566,1742,2004,369,269,94,Sold,,,https://www.redfin.com/VA/Aldie/41891-Cinnabar-Sq-20105/home/12080326,BRIGHT MLS,VALO423756,N,Y,38.932894,-77.554637
PAST SALE,,Townhouse,41902 Gallberry Ter,Aldie,VA,20105,175720,,2.5,,1538,1742,2011,,114,,,,,https://www.redfin.com/VA/Aldie/41902-Gallberry-Ter-20105/home/28588332,,,N,Y,38.9213499,-77.5540693
PAST SALE,May-11-2021,Single Family Residential,40499 Aspen Highlands Ct,Aldie,VA,20105,1035000,6,5.5,TANGLEWOOD WEST,6200,10890,2019,207,167,73,Sold,,,https://www.redfin.com/VA/Aldie/40499-Aspen-Highlands-Ct-20105/home/174702451,BRIGHT MLS,VALO432404,N,Y,38.9355234,-77.6046816
PAST SALE,,Single Family Residential,40799 Yarrow Grove Pl,Stone Ridge,VA,20105,829050,,4.5,,5236,13939,2019,,158,,,,,https://www.redfin.com/VA/Stone-Ridge/40799-Yarrow-Grove-Pl-20105/home/171691276,,,N,Y,38.9289699,-77.59185
PAST SALE,May-6-2019,Townhouse,24764 Stone Station Ter,Aldie,VA,20105,277500,2,2.5,AMBER SPRING CONDO,1377,,2003,943,202,328,Sold,,,https://www.redfin.com/VA/Aldie/24764-Stone-Station-Ter-20105/unit-203/home/12079981,BRIGHT MLS,VALO379850,N,Y,38.9332017,-77.5434353
PAST SALE,August-29-2019,Single Family Residential,41514 Carriage Horse Dr,Aldie,VA,20105,667000,4,2.5,KIRKPATRICK WEST,3713,9148,2015,828,180,93,Sold,,,https://www.redfin.com/VA/Aldie/41514-Carriage-Horse-Dr-20105/home/102207919,BRIGHT MLS,VALO382256,N,Y,38.9064893,-77.5669964
PAST SALE,July-9-2021,Townhouse,41952 Pickwick Mill Ter,Aldie,VA,20105,525000,3,2.5,STONE MILL,2650,,2019,148,198,286,Sold,,,https://www.redfin.com/VA/Stone-Ridge/41952-Pickwick-Ml-Ter-20105/home/173260804,BRIGHT MLS,VALO440076,N,Y,38.937466,-77.550606
PAST SALE,August-27-2021,Single Family Residential,24921 Lenah Crossing Dr,Aldie,VA,20105,1375000,5,5.5,LENAH MILL,5528,15246,2019,99,249,141,Sold,,,https://www.redfin.com/VA/Stone-Ridge/24921-Lenah-Crossing-Dr-20105/home/173262095,BRIGHT MLS,VALO2001924,N,Y,38.9277284,-77.571486
PAST SALE,April-20-2021,Single Family Residential,25287 Boldness Ct,Aldie,VA,20105,812000,5,4.5,KIRKPATRICK FARMS,4847,8276,2005,228,168,107,Sold,,,https://www.redfin.com/VA/Aldie/25287-Boldness-Ct-20105/home/12080487,BRIGHT MLS,VALO432012,N,Y,38.917962,-77.5554711
PAST SALE,June-18-2021,Single Family Residential,24917 Balmoral Glen Ct,Aldie,VA,20105,980000,5,4.5,GROVE AT WILLOWSFORD,4408,6534,2015,169,222,222,Sold,,,https://www.redfin.com/VA/Aldie/24917-Balmoral-Glen-Ct-20105/home/56518582,BRIGHT MLS,VALO438344,N,Y,38.9287237,-77.5860082
PAST SALE,March-23-2020,Single Family Residential,25916 Cameron Walk Pl,Aldie,VA,20105,1050000,5,4.5,GREENS SOUTH AT WILLOWSF,5824,43996,2019,621,180,222,Sold,,,https://www.redfin.com/VA/Aldie/25916-Cameron-Walk-Pl-20105/home/170452399,BRIGHT MLS,VALO402196,N,Y,38.898205,-77.5812731
PAST SALE,,Single Family Residential,41427 Nicholson Meadows Pl,Stone Ridge,VA,20105,860334,,3.5,,4228,10890,2019,,203,,,,,https://www.redfin.com/VA/Stone-Ridge/41427-Nicholson-Meadows-Pl-20105/home/171690403,,,N,Y,38.9515705,-77.5708526
PAST SALE,November-30-2021,Townhouse,26079 Little Rocky Ter,Aldie,VA,20105,736000,3,3.5,SEVEN HILLS,3201,3049,2015,4,230,107,Sold,,,https://www.redfin.com/VA/Aldie/26079-Little-Rocky-Ter-20105/home/56518058,BRIGHT MLS,VALO2011226,N,Y,38.8962169,-77.5431107
PAST SALE,December-3-2021,Single Family Residential,25712 Barncrest Ln,Aldie,VA,20105,1182500,4,3.5,GREENS SOUTH AT WILLOWSFORD,4404,10019,2018,1,269,259,Sold,,,https://www.redfin.com/VA/Stone-Ridge/25712-Barncrest-Ln-20105/home/160855018,BRIGHT MLS,VALO2009812,N,Y,38.906634,-77.584106
PAST SALE,August-31-2021,Townhouse,41886 Restful Ter,Aldie,VA,20105,516100,3,3.0,KIRKPATRICK FARMS,2064,2178,2004,95,250,110,Sold,,,https://www.redfin.com/VA/Aldie/41886-Restful-Ter-20105/home/12081823,BRIGHT MLS,VALO2004414,N,Y,38.91601,-77.554764
PAST SALE,April-30-2020,Single Family Residential,24727 Black Willow Dr,Aldie,VA,20105,770000,4,4.5,GROVE AT WILLOWSFORD,3964,7841,2017,583,194,222,Sold,,,https://www.redfin.com/VA/Aldie/24727-Black-Willow-Dr-20105/home/110300712,BRIGHT MLS,VALO406792,N,Y,38.9342475,-77.5841394
PAST SALE,September-30-2021,Vacant Land,24340 Old Carolina Rd,Aldie,VA,20105,1050000,,,Aldie,,645995,,65,,,Sold,,,https://www.redfin.com/VA/Aldie/24340-Old-Carolina-Rd-20105/home/174388887,BRIGHT MLS,VALO430378,N,Y,38.9489154,-77.6273493
PAST SALE,December-3-2020,Single Family Residential,25605 Wyndham Point Ct,Aldie,VA,20105,1065250,5,5.5,GREENS SOUTH AT WILLOWSF,6331,24829,2020,366,168,213,Sold,,,https://www.redfin.com/VA/Stone-Ridge/25605-Wyndham-Point-Ct-20105/home/174028412,BRIGHT MLS,VALO428138,N,Y,38.9088968,-77.5947028
PAST SALE,February-19-2021,Townhouse,25066 Mcculley Ter,Aldie,VA,20105,514000,3,3.0,CD SMITH,2320,1742,2015,288,222,107,Sold,,,https://www.redfin.com/VA/Aldie/25066-McCulley-Ter-20105/home/110300090,BRIGHT MLS,VALO428236,N,Y,38.9243275,-77.5607805
PAST SALE,October-20-2020,Single Family Residential,Virginia Dogwood Pl,Aldie,VA,20105,1201227,6,5.5,LENAH MILL ESTATES,,,2020,410,,47,Sold,,,https://www.redfin.com/VA/Dulles/Virginia-Dogwood-Pl-20105/home/173719709,BRIGHT MLS,VALO426200,N,Y,38.9221,-77.55783
PAST SALE,October-6-2020,Single Family Residential,40736 Wild Plum Dr,Aldie,VA,20105,1437500,6,7.0,GRANT AT WILLOWSFORD,7376,19602,2016,424,195,222,Sold,,,https://www.redfin.com/VA/ALDIE/40736-WILD-PLUM-DR-20105/home/110301688,BRIGHT MLS,VALO415424,N,Y,38.966149,-77.594569
PAST SALE,February-21-2020,Single Family Residential,24597 Water Oak Pl,Aldie,VA,20105,956084,4,4.5,WILLOWSFORD,3500,10000,2020,652,273,100,Sold,,,https://www.redfin.com/VA/Aldie/24597-Water-Oak-PL-20105/home/170690068,BRIGHT MLS,VALO404728,N,Y,38.92653,-77.55467
PAST SALE,December-28-2018,Condo/Co-op,24682 Rosebay Ter,Aldie,VA,20105,320000,2,2.0,STONE SPRINGS CONDOMINIU,1556,,2006,1072,206,298,Sold,,,https://www.redfin.com/VA/Aldie/24682-Rosebay-Ter-20105/unit-79/home/12105896,BRIGHT MLS,VALO225188,N,Y,38.935003,-77.550388
PAST SALE,November-12-2019,Townhouse,25340 Curiosity Sq,Aldie,VA,20105,340000,3,2.5,CONDOMINIUMS AT KIRKPATR,1632,,2007,753,208,253,Sold,,,https://www.redfin.com/VA/Aldie/25340-Curiosity-Sq-20105/home/21678461,BRIGHT MLS,VALO395542,N,Y,38.9172687,-77.5570728
PAST SALE,December-16-2020,Single Family Residential,24396 White Elm Pl,Aldie,VA,20105,909858,4,3.5,WILLOWSFORD,,,2020,353,,217,Sold,,,https://www.redfin.com/VA/Dulles/24396-Elm-Ter-20105/home/173963475,BRIGHT MLS,VALO427686,N,Y,38.93795252,-77.59148236
PAST SALE,August-28-2019,Condo/Co-op,24676 Byrne Meadow Sq Unit 5-103,Aldie,VA,20105,205000,1,1.0,MERCER PARK CONDOMINIUM,987,987,2011,829,208,281,Sold,,,https://www.redfin.com/VA/Aldie/24676-Byrne-Meadow-Sq-20105/unit-5-103/home/49797232,BRIGHT MLS,VALO388838,N,Y,38.9348812,-77.5430534
PAST SALE,February-8-2021,Single Family Residential,41355 Tarragon Leaf Dr,Aldie,VA,20105,896745,5,4.5,LENAH MILL - THE PARKER,3970,9375,2021,299,226,140,Sold,,,https://www.redfin.com/VA/Stone-Ridge/41355-Tarragon-Leaf-Dr-20105/home/172576001,BRIGHT MLS,VALO417170,N,Y,38.92452543276897,-77.57332611429443
PAST SALE,June-17-2020,Single Family Residential,40887 Foxtail Fields Dr,Aldie,VA,20105,1027434,6,6.0,GROVE AT WILLOWSFORD,6300,15246,2020,535,163,182,Sold,,,https://www.redfin.com/VA/Aldie/40887-Foxtail-Fields-Dr-20105/home/174117591,BRIGHT MLS,VALO428460,N,Y,38.9394269,-77.5904745
PAST SALE,,Single Family Residential,24601 Virginia Dogwood Pl,Aldie,VA,20105,1006087,,6.5,,6428,14375,2019,,157,,,,,https://www.redfin.com/VA/Aldie/24601-Virginia-Dogwood-Pl-20105/home/171690466,,,N,Y,38.9366864,-77.5743451
PAST SALE,,Unknown,23572 Amesfield Pl,Aldie,VA,20105,763035,,,,,,,,,,,,,https://www.redfin.com/VA/Aldie/23572-Amesfield-Pl-20105/home/148599986,,,N,Y,38.9659568,-77.59238
PAST SALE,September-25-2020,Vacant Land,0 Oatlands Rd,Aldie,VA,20105,1975000,,,Aldie,,15482966,,435,,,Sold,,,https://www.redfin.com/VA/Blue-Ridge/Oatlands-Rd-20105/home/17037449,BRIGHT MLS,VALO410920,N,Y,39.01990461,-77.67045547
PAST SALE,December-18-2018,Single Family Residential,41063 Quinn Meadow Ct,Aldie,VA,20105,1264425,5,5.5,GRANT AT WILLOWSFORD,6969,40075,2018,1082,181,,Sold,,,https://www.redfin.com/VA/Dulles/Glen-Meadow-Pl-20105/home/148599981,BRIGHT MLS,VALO266828,N,Y,38.96974952,-77.58119275
PAST SALE,March-31-2021,Single Family Residential,41260 Lenah Point Dr,Aldie,VA,20105,990000,6,5.5,LENAH MILL,5344,10454,2019,248,185,143,Sold,,,https://www.redfin.com/VA/Aldie/41260-Lenah-Point-Dr-20105/home/160693185,BRIGHT MLS,VALO430384,N,Y,38.941693,-77.574585
PAST SALE,,Unknown,23564 Amesfield Pl,Aldie,VA,20105,853949,,,,,,,,,,,,,https://www.redfin.com/VA/Aldie/23564-Amesfield-Pl-20105/home/148542599,,,N,Y,38.9659568,-77.59238
PAST SALE,,Single Family Residential,25983 Lilac Oaks Pl,Aldie,VA,20105,630263,6,6.0,,3568,9148,2017,,177,,,,,https://www.redfin.com/VA/Aldie/25983-Lilac-Oaks-Pl-20105/home/112908799,,,N,Y,38.8997113,-77.5574256
PAST SALE,September-9-2021,Single Family Residential,41383 Cigar Tree Way,Aldie,VA,20105,856031,4,3.5,LENAH MILL,1220,10454,,86,702,128,Sold,,,https://www.redfin.com/VA/Aldie/41383-Cigar-Tree-Way-20105/home/176348909,BRIGHT MLS,VALO2008010,N,Y,38.9310154,-77.5720205
PAST SALE,June-29-2020,Single Family Residential,39308 John Mosby Hwy,Aldie,VA,20105,495725,3,1.5,Aldie,1498,19166,1935,523,331,,Sold,,,https://www.redfin.com/VA/Aldie/39308-John-Mosby-Hwy-20105/home/12018339,BRIGHT MLS,VALO407668,N,Y,38.9765576,-77.6444174
PAST SALE,July-1-2021,Single Family Residential,41525 Deer Point Ct,Aldie,VA,20105,1090000,4,4.5,LENAH MILL,5172,16117,2015,156,211,143,Sold,,,https://www.redfin.com/VA/Aldie/41525-Deer-Point-Ct-20105/home/49797534,BRIGHT MLS,VALO438276,N,Y,38.943866,-77.5649421
PAST SALE,June-23-2020,Single Family Residential,41490 Lavender Breeze Cir,Aldie,VA,20105,1078271,4,5.5,LENAH MILL,5936,19602,2019,529,182,,Sold,,,https://www.redfin.com/VA/Aldie/41490-Lavender-Breeze-Cir-20105/home/144881182,BRIGHT MLS,VALO431630,N,Y,38.943076,-77.57621
PAST SALE,April-30-2021,Single Family Residential,41188 Darkmoor Ct,Aldie,VA,20105,1200000,5,4.5,GROVE AT WILLOWSFORD,5178,14375,2014,218,232,223,Sold,,,https://www.redfin.com/VA/Aldie/41188-Darkmoor-Ct-20105/home/102208440,BRIGHT MLS,VALO433854,N,Y,38.9383238,-77.5788971
PAST SALE,April-10-2020,Single Family Residential,24907 Deepdale Ct,Aldie,VA,20105,796825,4,3.5,MCINTOSH FARMS,4800,10890,2020,603,166,85,Sold,,,https://www.redfin.com/VA/Aldie/24907-Deepdale-Ct-20105/home/171423484,BRIGHT MLS,VALO409232,N,Y,38.9291116,-77.5868999
PAST SALE,December-27-2018,Single Family Residential,41078 Freshfeilds Ct,Aldie,VA,20105,732218,5,5.0,GROVE AT WILLOWSFORD,2500,13068,2018,1073,293,50,Sold,,,https://www.redfin.com/VA/Aldie/41078-Freshfeilds-Ct-20105/home/160468068,BRIGHT MLS,VALO268566,N,Y,38.93329,-77.57232
PAST SALE,May-28-2021,Single Family Residential,40817 Sideoats Field Ct,Aldie,VA,20105,1071641,6,5.5,GROVE AT WILLOWSFORD,3813,13504,2021,190,281,,Sold,,,https://www.redfin.com/VA/Stone-Ridge/40817-Sideoats-Field-Ct-20105/home/175319793,BRIGHT MLS,VALO441344,N,Y,38.9455389,-77.591614
PAST SALE,,Unknown,41224 Lenah Point Dr,Aldie,VA,20105,765650,,,,,,,,,,,,,https://www.redfin.com/VA/Aldie/41224-Lenah-Point-Dr-20105/home/160632945,,,N,Y,38.9417599,-77.5772581
PAST SALE,June-18-2021,Single Family Residential,40932 Blossom Glade Dr,Aldie,VA,20105,1048300,5,5.0,ARCADIA TWIN PONDS,,12197,2021,169,,90,Sold,,,https://www.redfin.com/VA/Aldie/40932-Blossom-Glade-Dr-20105/home/175530786,BRIGHT MLS,VALO2000944,N,Y,38.9332314,-77.5880761
PAST SALE,,Unknown,41256 Stags Leap Dr,Aldie,VA,20105,647646,,,,,,,,,,,,,https://www.redfin.com/VA/Aldie/41256-Stags-Leap-Dr-20105/home/148574503,,,N,Y,38.9406631,-77.5749079
PAST SALE,,Unknown,41356 Lavender Breeze Cir,Aldie,VA,20105,1034834,,,,,,,,,,,,,https://www.redfin.com/VA/Aldie/41356-Lavender-Breeze-Cir-20105/home/148574502,,,N,Y,38.943616,-77.582093
PAST SALE,,Single Family Residential,24310 Old Carolina Rd,Aldie,VA,20105,1150000,,3.5,,3163,443005,1999,,364,,,,,https://www.redfin.com/VA/Aldie/24310-Old-Carolina-Rd-20105/home/12017212,,,N,Y,38.945188,-77.627632
PAST SALE,December-18-2020,Single Family Residential,25672 Spring Planting Ln,Aldie,VA,20105,870000,5,4.0,GREENS SOUTH AT WILLOWSF,3352,12197,2018,351,260,238,Sold,,,https://www.redfin.com/VA/Stone-Ridge/25672-Spring-Planting-Ln-20105/home/173741983,BRIGHT MLS,VALO426288,N,Y,38.907317,-77.585887
PAST SALE,August-4-2020,Single Family Residential,24643 Black Willow Dr,Aldie,VA,20105,790000,4,3.5,GROVE AT WILLOWSFORD,4262,7841,2018,487,185,191,Sold,,,https://www.redfin.com/VA/Aldie/24643-Black-Willow-Dr-20105/home/102208065,BRIGHT MLS,VALO413206,N,Y,38.9368944,-77.5858904
PAST SALE,July-17-2020,Single Family Residential,41110 Freshfields Ct,Aldie,VA,20105,930000,5,4.5,GROVE AT WILLOWSFORD,4864,8276,2018,505,191,222,Sold,,,https://www.redfin.com/VA/Stone-Ridge/41110-Freshfields-Ct-20105/home/172250765,BRIGHT MLS,VALO412548,N,Y,38.9404633,-77.5834923
PAST SALE,December-28-2020,Single Family Residential,25841 Cameron Walk Pl,Aldie,VA,20105,1185000,5,6.5,GREENS SOUTH AT WILLOWSF,6126,33106,2018,341,193,223,Sold,,,https://www.redfin.com/VA/Aldie/25841-Cameron-Walk-Pl-20105/home/173702917,BRIGHT MLS,VALO425542,N,Y,38.903428,-77.583731
PAST SALE,April-30-2020,Single Family Residential,40973 Nut Hatch Ct,Aldie,VA,20105,773000,4,3.5,GROVE AT WILLOWSFORD,3914,11326,2017,583,197,222,Sold,,,https://www.redfin.com/VA/Aldie/40973-Nut-Hatch-Ct-20105/home/110300718,BRIGHT MLS,VALO406788,N,Y,38.9345714,-77.5866514
PAST SALE,September-24-2020,Single Family Residential,23589 Amesfield Pl,Aldie,VA,20105,995000,6,5.0,GRANT AT WILLOWSFORD,5800,13068,2018,436,172,76,Sold,,,https://www.redfin.com/VA/Aldie/23589-Amesfield-Pl-20105/home/148030888,BRIGHT MLS,VALO418206,N,Y,38.9661342,-77.592263
PAST SALE,December-13-2019,Single Family Residential,41461 Goldenwave Ln,Aldie,VA,20105,645995,4,4.0,LENAH MILL,2610,10865,2019,722,248,138,Sold,,,https://www.redfin.com/VA/Aldie/41461-Goldenwave-Ln-20105/home/167427952,BRIGHT MLS,VALO390026,N,Y,38.9238222,-77.5716534
PAST SALE,April-19-2021,Single Family Residential,40879 Blue Star Ct,Aldie,VA,20105,1800000,5,5.0,GRANT AT WILLOWSFORD,7092,33541,2019,229,254,181,Sold,,,https://www.redfin.com/VA/Aldie/40879-BLUE-STAR-Ct-20105/home/148114894,BRIGHT MLS,VALO436164,N,Y,38.93266,-77.57289
PAST SALE,April-13-2020,Single Family Residential,23341 Swamp Oak Ln,Aldie,VA,20105,829545,5,4.5,GRANT AT WILLOWSFORD,5613,9148,2020,600,148,230,Sold,,,https://www.redfin.com/VA/Aldie/23341-Swamp-Oak-Ln-20105/home/172725141,BRIGHT MLS,VALO418948,N,Y,38.9721958,-77.5989837
PAST SALE,May-10-2019,Single Family Residential,40991 Spanglegrass Ct,Aldie,VA,20105,750000,4,3.5,GREENS AT WILLOWSFORD,4524,11326,2016,939,166,211,Sold,,,https://www.redfin.com/VA/Aldie/40991-Spanglegrass-Ct-20105/home/56518573,BRIGHT MLS,1002407288,N,Y,38.9277481,-77.5867478
PAST SALE,,Unknown,41174 Chatham Green Cir,Aldie,VA,20105,896319,,,,,,,,,,,,,https://www.redfin.com/VA/Aldie/41174-Chatham-Green-Cir-20105/home/148712990,,,N,Y,38.9350641,-77.5794932
PAST SALE,August-9-2019,Townhouse,24488 Amherst Frst #33,Aldie,VA,20105,423317,3,2.5,STONE MILL,2200,,2019,848,192,272,Sold,,,https://www.redfin.com/VA/Aldie/24488-Amherst-Forest-Ter-20105/unit-33/home/172065990,BRIGHT MLS,VALO392160,N,Y,38.93797,-77.548298
PAST SALE,October-1-2019,Single Family Residential,14336 Red Birch Dr,Aldie,VA,20105,692339,4,2.5,Aldie,3069,9375,2019,795,226,137,Sold,,,https://www.redfin.com/VA/Dulles/Red-Birch-Dr-20105/home/169518572,BRIGHT MLS,VALO397500,N,Y,38.93266,-77.57289
PAST SALE,October-29-2021,Townhouse,42031 Berkley Hill Ter,Aldie,VA,20105,500000,3,2.5,STONE MILL CORNER CONDOMINIUM,2264,,2018,36,221,285,Sold,,,https://www.redfin.com/VA/Stone-Ridge/42031-Berkley-Hill-Ter-20105/home/146645594,BRIGHT MLS,VALO2008832,N,Y,38.937824,-77.549371
PAST SALE,January-3-2019,Single Family Residential,Chatham Green Cir,Aldie,VA,20105,859337,4,3.5,WILLOWSFORD,3500,13068,2018,1066,246,83,Sold,,,https://www.redfin.com/VA/Dulles/Chatham-Green-Cir-20105/home/148743997,BRIGHT MLS,VALO267594,N,Y,38.90959,-77.56858
PAST SALE,,Unknown,,Aldie,VA,20105,736617,,,,,,,,,,,,,https://www.redfin.com/VA/Aldie/Unknown-20105/home/148744006,,,N,Y,38.9756745,-77.6418724
PAST SALE,,Unknown,23629 Amesfield Pl,Aldie,VA,20105,868557,,,,,,,,,,,,,https://www.redfin.com/VA/Aldie/23629-Amesfield-Pl-20105/home/148744000,,,N,Y,38.9661342,-77.592263
PAST SALE,,Single Family Residential,41252 Lenah Point Dr,Aldie,VA,20105,811370,5,5.0,,5300,397,2018,,153,,,,,https://www.redfin.com/VA/Aldie/41252-Lenah-Point-Dr-20105/home/148744002,,,N,Y,38.9418672,-77.5752066
PAST SALE,October-22-2021,Townhouse,24669 Clock Tower Sq,Aldie,VA,20105,545000,3,3.5,STONE RIDGE NORTH,2364,3485,2004,43,231,109,Sold,,,https://www.redfin.com/VA/Stone-Ridge/24669-Clock-Tower-Sq-20105/home/12071044,BRIGHT MLS,VALO2008866,N,Y,38.9349147,-77.5454396
PAST SALE,November-30-2020,Townhouse,41927 Possumhaw Ter,Aldie,VA,20105,390000,2,2.0,STONE RIDGE SOUTH,1538,1742,2009,369,254,94,Sold,,,https://www.redfin.com/VA/Aldie/41927-Possumhaw-Ter-20105/home/40004327,BRIGHT MLS,VALO424626,N,Y,38.9224134,-77.5534447
PAST SALE,October-15-2021,Single Family Residential,40809 Foxtail Fields Dr,Aldie,VA,20105,1129995,4,3.5,GROVE AT WILLOWSFORD,1216,11326,,50,929,,Sold,,,https://www.redfin.com/VA/Aldie/40809-Foxtail-Fields-Dr-20105/home/177171341,BRIGHT MLS,VALO2011760,N,Y,38.9425505,-77.5890726
