SALE TYPE,SOLD DATE,PROPERTY TYPE,ADDRESS,CITY,STATE OR PROVINCE,ZIP OR POSTAL CODE,PRICE,BEDS,BATHS,LOCATION,SQUARE FEET,LOT SIZE,YEAR BUILT,DAYS ON MARKET,$/SQUARE FEET,HOA/MONTH,STATUS,NEXT OPEN HOUSE START TIME,NEXT OPEN HOUSE END TIME,URL (SEE https://www.redfin.com/buy-a-home/comparative-market-analysis FOR INFO ON PRICING),SOURCE,MLS#,FAVORITE,INTERESTED,LATITUDE,LONGITUDE
PAST SALE,November-23-2021,Single Family Residential,4409 Highview Ave,Baltimore,MD,21229,360500,4,3.0,RIDGEWOOD,2168,12636,1927,12,166,,Sold,,,https://www.redfin.com/MD/Baltimore/4409-Highview-Ave-21229/home/9369324,BRIGHT MLS,MDBC529258,N,Y,39.2632144,-76.6928604
PAST SALE,February-4-2020,Townhouse,416 Gwynn Ave,Baltimore,MD,21229,115000,4,2.0,BALTIMORE CITY,1188,,1928,670,97,,Sold,,,https://www.redfin.com/MD/Baltimore/416-Gwynn-Ave-21229/home/10989024,BRIGHT MLS,MDBA488118,N,Y,39.292282,-76.673962
PAST SALE,March-11-2021,Townhouse,820 N Woodington Rd,Baltimore,MD,21229,208500,5,2.5,Ward 28,1784,2178,1928,269,117,,Sold,,,https://www.redfin.com/MD/Baltimore/820-N-Woodington-Rd-21229/home/11218190,BRIGHT MLS,MDBA537566,N,Y,39.2970686,-76.6864552
PAST SALE,,Condo/Co-op,5205 Wyndholme Cir #102,Baltimore,MD,21229,161600,,,,,,,,,,,,,https://www.redfin.com/MD/Baltimore/5205-Wyndholme-Cir-21229/unit-102/home/64338119,,,N,Y,39.2793254,-76.7043807
PAST SALE,June-29-2021,Single Family Residential,4413 Hooper Ave,Baltimore,MD,21229,300000,3,1.5,RIDGEWOOD,1224,6250,1930,159,245,,Sold,,,https://www.redfin.com/MD/Baltimore/4413-Hooper-Ave-21229/home/9368720,BRIGHT MLS,MDBC529226,N,Y,39.2636879,-76.6915336
PAST SALE,October-29-2019,Townhouse,718 N Grantley St,Baltimore,MD,21229,134999,3,3.0,BALTIMORE CITY,1360,,1924,768,99,,Sold,,,https://www.redfin.com/MD/Baltimore/718-N-Grantley-St-21229/home/10940607,BRIGHT MLS,MDBA474964,N,Y,39.29589,-76.6772415
PAST SALE,October-5-2021,Single Family Residential,700 Brookwood Rd,Baltimore,MD,21229,355500,4,3.0,Ward 28,2349,8333,1924,61,151,,Sold,,,https://www.redfin.com/MD/Baltimore/700-Brookwood-Rd-21229/home/11218897,BRIGHT MLS,MDBA2003912,N,Y,39.2943081,-76.7007988
PAST SALE,May-2-2019,Single Family Residential,510 Drury Ln,Baltimore,MD,21229,385000,3,2.0,TEN HILLS,2144,21824,1932,948,180,,Sold,,,https://www.redfin.com/MD/Baltimore/510-Drury-Ln-21229/home/11220185,BRIGHT MLS,MDBA437706,N,Y,39.2900411,-76.7049031
PAST SALE,July-15-2019,Single Family Residential,615 North Bend Rd,Baltimore,MD,21229,276000,3,2.0,MERIDALE LITTLE FARMS,1503,5450,1923,874,184,,Sold,,,https://www.redfin.com/MD/Baltimore/615-N-Bend-Rd-21229/home/9111237,BRIGHT MLS,MDBC459648,N,Y,39.286928,-76.713378
PAST SALE,September-7-2021,Single Family Residential,1215 Maiden Choice Ln,Baltimore,MD,21229,270000,3,2.0,LEEDS,1344,9360,1942,89,201,,Sold,,,https://www.redfin.com/MD/Baltimore/1215-Maiden-Choice-Ln-21229/home/9374014,BRIGHT MLS,MDBC2005208,N,Y,39.2599802,-76.6922176
PAST SALE,,Townhouse,4401 Cherry Way,Baltimore,MD,21229,274000,,3.5,,2056,3006,2016,,133,,,,,https://www.redfin.com/MD/Baltimore/4401-Cherry-Way-21229/home/113374465,,,N,Y,39.2899765,-76.689651
PAST SALE,,Condo/Co-op,5189 Wyndholme Cir,Baltimore,MD,21229,250000,,,,,,2013,,,,,,,https://www.redfin.com/MD/Baltimore/5189-Wyndholme-Cir-21229/home/64338105,,,N,Y,39.2789332,-76.7034642
PAST SALE,July-13-2021,Townhouse,614 Markham Rd,Baltimore,MD,21229,162000,3,2.0,Ward 25,1260,2178,1965,145,129,,Sold,,,https://www.redfin.com/MD/Baltimore/614-Markham-Rd-21229/home/11032180,BRIGHT MLS,MDBA551210,N,Y,39.273825,-76.6971413
PAST SALE,,Condo/Co-op,5205 Wyndholme Cir #403,Baltimore,MD,21229,160000,,,,,,,,,,,,,https://www.redfin.com/MD/Baltimore/5205-Wyndholme-Cir-21229/unit-403/home/64338107,,,N,Y,39.2793254,-76.7043807
PAST SALE,May-14-2020,Single Family Residential,4134 Wilkens Ave,Baltimore,MD,21229,215000,5,2.0,CATONSVILLE,2387,9800,1923,570,90,,Sold,,,https://www.redfin.com/MD/Baltimore/4134-Wilkens-Ave-21229/home/9077971,BRIGHT MLS,MDBC488964,N,Y,39.2679533,-76.6900477
PAST SALE,October-22-2021,Single Family Residential,506 N Rock Glen Rd,Baltimore,MD,21229,325000,3,2.5,Ward 28,2082,5127,1928,44,156,,Sold,,,https://www.redfin.com/MD/Baltimore/506-N-Rock-Glen-Rd-21229/home/11220740,BRIGHT MLS,MDBA2007732,N,Y,39.2870561,-76.7094132
MLS Listing,,Townhouse,,Baltimore,MD,21229,190000,3,2.0,Ward 28,1152,1152,1952,2,165,,Active,,,https://www.redfin.com/MD/Baltimore/Undisclosed-address-21229/home/11218327,BRIGHT MLS,MDBA2019502,N,Y,39.2985838,-76.6875931
MLS Listing,,Single Family Residential,211 Mallow Hill Rd,Baltimore,MD,21229,411999,6,3.0,Ward 28,2564,6250,1930,2,161,,Active,December-5-2021 11:00 AM,December-5-2021 01:00 PM,https://www.redfin.com/MD/Baltimore/211-Mallow-Hill-Rd-21229/home/11220857,BRIGHT MLS,MDBA2018494,N,Y,39.2813897,-76.7100446
MLS Listing,,Townhouse,616 Allendale St,Baltimore,MD,21229,70000,4,2.0,Ward 16,2040,,1927,2,34,,Active,,,https://www.redfin.com/MD/Baltimore/616-Allendale-St-21229/home/10937926,BRIGHT MLS,MDBA2008852,N,Y,39.2948197,-76.6786625
MLS Listing,,Townhouse,12 Ellamont St,Baltimore,MD,21229,40000,2,1.5,Ward 20,1372,,1927,2,29,,Active,,,https://www.redfin.com/MD/Baltimore/12-N-Ellamont-St-21229/home/10993230,BRIGHT MLS,MDBA2020722,N,Y,39.2862138,-76.6706099
MLS Listing,,Townhouse,3807 Harlem Ave,Baltimore,MD,21229,70000,3,1.0,Ward 16,2130,1742,1929,2,33,,Active,,,https://www.redfin.com/MD/Baltimore/3807-Harlem-Ave-21229/home/10938189,BRIGHT MLS,MDBA2005654,N,Y,39.294936,-76.680508
MLS Listing,,Townhouse,40 Morley St,Baltimore,MD,21229,20000,3,1.0,Ward 20,1260,,1921,2,16,,Active,,,https://www.redfin.com/MD/Baltimore/40-N-Morley-St-21229/home/10992590,BRIGHT MLS,MDBA2020448,N,Y,39.2877341,-76.6734069
MLS Listing,,Townhouse,715 Woodington Rd,Baltimore,MD,21229,264900,4,3.5,Ward 16,1504,,1929,3,176,,Active,,,https://www.redfin.com/MD/Baltimore/715-N-Woodington-Rd-21229/home/10929470,BRIGHT MLS,MDBA2018472,N,Y,39.2959992,-76.6858237
MLS Listing,,Townhouse,4934 Westhills Rd,Baltimore,MD,21229,199999,2,2.0,Ward 28,3050,2178,1948,3,66,,Active,December-5-2021 01:00 PM,December-5-2021 03:00 PM,https://www.redfin.com/MD/Baltimore/4934-W-Hills-Rd-21229/home/11219523,BRIGHT MLS,MDBA2020274,N,Y,39.2958133,-76.709043
MLS Listing,,Townhouse,328 Westowne,Baltimore,MD,21229,200000,4,2.0,WESTOWNE,1140,1900,1942,3,175,,Active,,,https://www.redfin.com/MD/Baltimore/328-Westowne-Rd-21229/home/9081732,BRIGHT MLS,MDBC2000783,N,Y,39.2829903,-76.7118202
MLS Listing,,Townhouse,101 Westowne Rd,Baltimore,MD,21229,250000,3,2.0,Ward 28,1938,13068,1955,4,129,,Active,,,https://www.redfin.com/MD/Baltimore/101-Westowne-Rd-21229/home/11220778,BRIGHT MLS,MDBA2020314,N,Y,39.285526,-76.7108219
MLS Listing,,Townhouse,3712 Edmondson Ave,Baltimore,MD,21229,210900,4,2.0,Ward 16,1512,100,1925,4,139,,Active,,,https://www.redfin.com/MD/Baltimore/3712-Edmondson-Ave-21229/home/10937955,BRIGHT MLS,MDBA2020248,N,Y,39.2941729,-76.6790121
MLS Listing,,Townhouse,625 S Wickham Rd,Baltimore,MD,21229,109900,2,1.0,Ward 25,1120,,1961,6,98,,Active,,,https://www.redfin.com/MD/Baltimore/625-S-Wickham-Rd-21229/home/11032943,BRIGHT MLS,MDBA2019794,N,Y,39.2752443,-76.6987128
MLS Listing,,Townhouse,423 S Augusta Ave,Baltimore,MD,21229,65000,3,1.0,Ward 20,1494,2100,1917,6,44,,Active,December-11-2021 03:00 PM,December-11-2021 04:00 PM,https://www.redfin.com/MD/Baltimore/423-S-Augusta-Ave-21229/home/10970543,BRIGHT MLS,MDBA2019896,N,Y,39.2794106,-76.6842787
MLS Listing,,Townhouse,226 Denison St,Baltimore,MD,21229,165000,3,1.5,Ward 20,1425,,1951,7,116,,Active,,,https://www.redfin.com/MD/Baltimore/226-Denison-St-21229/home/10988998,BRIGHT MLS,MDBA2018690,N,Y,39.2905882,-76.6749069
MLS Listing,,Townhouse,115 N Kossuth St,Baltimore,MD,21229,128700,3,1.5,Ward 20,1216,1825,1947,7,106,,Active,,,https://www.redfin.com/MD/Baltimore/115-N-Kossuth-St-21229/home/10992744,BRIGHT MLS,MDBA2018656,N,Y,39.2884987,-76.6729558
MLS Listing,,Townhouse,1111 Wedgewood Rd,Baltimore,MD,21229,190000,3,1.5,Ward 28,1274,1681,1950,9,149,,Active,,,https://www.redfin.com/MD/Baltimore/1111-Wedgewood-Rd-21229/home/11219653,BRIGHT MLS,MDBA2019310,N,Y,39.2980801,-76.7104019
MLS Listing,,Townhouse,757 Linnard St,Baltimore,MD,21229,179000,4,2.0,Ward 16,1650,,1923,9,108,,Active,December-5-2021 10:00 AM,December-5-2021 11:30 AM,https://www.redfin.com/MD/Baltimore/757-Linnard-St-21229/home/10940188,BRIGHT MLS,MDBA2019708,N,Y,39.296638,-76.6747603
MLS Listing,,Townhouse,327 Lyndhurst St,Baltimore,MD,21229,199900,4,2.5,Ward 20,2134,3049,1924,10,94,,Active,,,https://www.redfin.com/MD/Baltimore/327-Lyndhurst-St-21229/home/10969569,BRIGHT MLS,MDBA2019676,N,Y,39.29153,-76.6802752
MLS Listing,,Townhouse,3213 Phelps Ln,Baltimore,MD,21229,175000,3,1.5,Ward 20,1392,2178,1929,10,126,,Active,,,https://www.redfin.com/MD/Baltimore/3213-Phelps-Ln-21229/home/10992794,BRIGHT MLS,MDBA2015544,N,Y,39.2873532,-76.6708129
MLS Listing,,Townhouse,764 Yale Ave,Baltimore,MD,21229,124900,2,1.0,Ward 25,1120,,1953,11,112,,Active,,,https://www.redfin.com/MD/Baltimore/764-Yale-Ave-21229/home/11026741,BRIGHT MLS,MDBA2019516,N,Y,39.273675,-76.690308
MLS Listing,,Townhouse,4013 Edmondson Ave,Baltimore,MD,21229,185000,3,2.5,Ward 20,1512,6098,1919,16,122,,Active,,,https://www.redfin.com/MD/Baltimore/4013-Edmondson-Ave-21229/home/10969146,BRIGHT MLS,MDBA2016738,N,Y,39.2935082,-76.6830948
MLS Listing,,Townhouse,5008 Edmondson Ave,Baltimore,MD,21229,389900,5,3.0,Ward 28,2339,8730,1935,16,167,,Active,,,https://www.redfin.com/MD/Baltimore/5008-Edmondson-Ave-21229/home/11220102,BRIGHT MLS,MDBA2018474,N,Y,39.2917879,-76.704722
MLS Listing,,Townhouse,3315 Elbert St,Baltimore,MD,21229,179900,3,2.0,Ward 20,1260,904,1940,16,143,,Active,,,https://www.redfin.com/MD/Baltimore/3315-Elbert-St-21229/home/10992398,BRIGHT MLS,MDBA2018736,N,Y,39.2867388,-76.6732079
MLS Listing,,Townhouse,1122 Seminole Ave,Baltimore,MD,21229,139900,3,2.0,Ward 28,1344,,1951,17,104,,Active,,,https://www.redfin.com/MD/Baltimore/1122-Seminole-Ave-21229/home/11218592,BRIGHT MLS,MDBA2018954,N,Y,39.299283,-76.690034
MLS Listing,,Townhouse,4001 W Franklin St,Baltimore,MD,21229,78645,3,1.0,Ward 20,1875,,1924,20,42,,Active,,,https://www.redfin.com/MD/Baltimore/4001-W-Franklin-St-21229/home/10969314,BRIGHT MLS,MDBA2018678,N,Y,39.2923089,-76.6830514
MLS Listing,,Single Family Residential,501 Colleen Rd,Baltimore,MD,21229,199900,2,2.0,Ward 25,1552,7205,1955,20,129,,Active,,,https://www.redfin.com/MD/Baltimore/501-Colleen-Rd-21229/home/11031160,BRIGHT MLS,MDBA2017910,N,Y,39.2779433,-76.6954314
MLS Listing,,Townhouse,52 N Ellamont St,Baltimore,MD,21229,156900,2,2.0,Ward 20,972,,1927,20,161,,Active,,,https://www.redfin.com/MD/Baltimore/52-N-Ellamont-St-21229/home/10993277,BRIGHT MLS,MDBA2018648,N,Y,39.2870585,-76.6706776
MLS Listing,,Townhouse,1206 Wildwood Pkwy,Baltimore,MD,21229,170000,3,1.5,Ward 16,1920,1800,1950,21,89,,Active,,,https://www.redfin.com/MD/Baltimore/1206-Wildwood-Pkwy-21229/home/10931129,BRIGHT MLS,MDBA2018134,N,Y,39.3002977,-76.6840644
MLS Listing,,Townhouse,129 Allendale St,Baltimore,MD,21229,184999,4,2.0,Ward 20,1216,1742,1938,21,152,,Active,,,https://www.redfin.com/MD/Baltimore/129-Allendale-St-21229/home/10989911,BRIGHT MLS,MDBA2018598,N,Y,39.2901021,-76.6779294
MLS Listing,,Townhouse,417 N Edgewood St,Baltimore,MD,21229,114999,3,2.0,Ward 20,1520,1520,1925,22,76,,Active,,,https://www.redfin.com/MD/Baltimore/417-Edgewood-St-21229/home/10989207,BRIGHT MLS,MDBA2018454,N,Y,39.2924233,-76.6752678
MLS Listing,,Townhouse,1123 Wicklow Rd,Baltimore,MD,21229,159500,3,1.0,Ward 28,1152,1742,1951,22,138,,Active,,,https://www.redfin.com/MD/Baltimore/1123-Wicklow-Rd-21229/home/11218625,BRIGHT MLS,MDBA2018524,N,Y,39.2983096,-76.6910731
MLS Listing,,Single Family Residential,3508 Coolidge Ave,Baltimore,MD,21229,249000,3,2.0,Ward 25,1523,4996,1927,24,163,,Active,,,https://www.redfin.com/MD/Baltimore/3508-Coolidge-Ave-21229/home/11028276,BRIGHT MLS,MDBA2017210,N,Y,39.2692121,-76.6761701
MLS Listing,,Townhouse,13 S Tremont Rd,Baltimore,MD,21229,179900,3,2.0,Ward 28,1350,1800,1945,24,133,,Active,,,https://www.redfin.com/MD/Baltimore/13-S-Tremont-Rd-21229/home/11221285,BRIGHT MLS,MDBA2018248,N,Y,39.2831271,-76.6946759
MLS Listing,,Townhouse,721 N Woodington Rd,Baltimore,MD,21229,214900,5,2.5,Ward 16,1504,,1929,24,143,,Active,,,https://www.redfin.com/MD/Baltimore/721-N-Woodington-Rd-21229/home/10929480,BRIGHT MLS,MDBA2017658,N,Y,39.2961547,-76.6858145
MLS Listing,,Townhouse,518 N Loudon Ave,Baltimore,MD,21229,168000,3,2.0,Ward 20,2016,1162,1921,27,83,,Active,,,https://www.redfin.com/MD/Baltimore/518-N-Loudon-Ave-21229/home/10969186,BRIGHT MLS,MDBA2017642,N,Y,39.293055,-76.682799
MLS Listing,,Townhouse,507 Denison St,Baltimore,MD,21229,94500,4,1.0,Ward 20,1320,3500,1927,27,72,,Active,,,https://www.redfin.com/MD/Baltimore/507-Denison-St-21229/home/10988193,BRIGHT MLS,MDBA2017962,N,Y,39.2930692,-76.6738806
MLS Listing,,Single Family Residential,435 S Augusta Ave,Baltimore,MD,21229,125000,5,2.0,Ward 20,1808,7500,1920,27,69,,Active,,,https://www.redfin.com/MD/Baltimore/435-S-Augusta-Ave-21229/home/10970553,BRIGHT MLS,MDBA2017926,N,Y,39.279168,-76.6843351
MLS Listing,,Townhouse,304 Lyndhurst St,Baltimore,MD,21229,101900,4,2.0,Ward 20,1434,,1924,29,71,,Active,,,https://www.redfin.com/MD/Baltimore/304-Lyndhurst-St-21229/home/10969622,BRIGHT MLS,MDBA2017804,N,Y,39.2910004,-76.6806802
MLS Listing,,Single Family Residential,4203 Old Frederick Rd,Baltimore,MD,21229,199100,3,2.0,Ward 20,1504,3920,1918,30,132,,Active,,,https://www.redfin.com/MD/Baltimore/4203-Old-Frederick-Rd-21229/home/10972099,BRIGHT MLS,MDBA2017132,N,Y,39.2864004,-76.6855016
MLS Listing,,Vacant Land,4024 Stafford St,Baltimore,MD,21229,25000,,,Ward 20,,2792,,31,,,Active,,,https://www.redfin.com/MD/Baltimore/4024-Stafford-St-21229/home/10971168,BRIGHT MLS,MDBA2016522,N,Y,39.2804753,-76.6828916
MLS Listing,,Townhouse,4037 Wilkens,Baltimore,MD,21229,240000,3,2.0,Ward 25,2240,2400,1936,34,107,,Active,,,https://www.redfin.com/MD/Baltimore/4037-Wilkens-Ave-21229/home/9369384,BRIGHT MLS,MDBA2009226,N,Y,39.267986,-76.68845
MLS Listing,,Townhouse,422 S Chapelgate Ln,Baltimore,MD,21229,159900,3,2.0,Ward 25,1425,,1949,36,112,,Active,,,https://www.redfin.com/MD/Baltimore/422-S-Chapel-Gate-Ln-21229/home/11031724,BRIGHT MLS,MDBA2016982,N,Y,39.2792065,-76.6993668
MLS Listing,,Townhouse,3710 Harlem Ave,Baltimore,MD,21229,129900,3,1.5,Ward 16,1026,1026,1932,36,127,,Active,,,https://www.redfin.com/MD/Baltimore/3710-Harlem-Ave-21229/home/10938262,BRIGHT MLS,MDBA2016702,N,Y,39.2953269,-76.6792811
MLS Listing,,Townhouse,305 Collins Ave,Baltimore,MD,21229,139000,3,1.0,Ward 20,1845,3440,1920,37,75,,Active,,,https://www.redfin.com/MD/Baltimore/305-Collins-Ave-21229/home/10971088,BRIGHT MLS,MDBA2016934,N,Y,39.2811341,-76.6833314
MLS Listing,,Single Family Residential,1228 Elm Ridge Ave,Baltimore,MD,21229,275000,4,2.0,ELM RIDGE,1489,20473,1941,38,185,,Active,,,https://www.redfin.com/MD/Baltimore/1228-Elm-Ridge-Ave-21229/home/9363398,BRIGHT MLS,MDBC2003260,N,Y,39.2602869,-76.690965
MLS Listing,,Townhouse,6 N Tremont Rd,Baltimore,MD,21229,122000,3,1.0,Ward 28,1256,,1925,38,97,,Active,,,https://www.redfin.com/MD/Baltimore/6-N-Tremont-Rd-21229/home/11221333,BRIGHT MLS,MDBA2016612,N,Y,39.283656,-76.695188
MLS Listing,,Townhouse,7 N Abington Ave,Baltimore,MD,21229,95000,3,1.0,Ward 20,1056,,1927,39,90,,Active,,,https://www.redfin.com/MD/Baltimore/7-N-Abington-Ave-21229/home/10993156,BRIGHT MLS,MDBA2016644,N,Y,39.2861422,-76.670937
MLS Listing,,Single Family Residential,3113 Stafford St,Baltimore,MD,21229,30000,3,1.0,Ward 20,1084,15109,1920,39,28,,Active,,,https://www.redfin.com/MD/Baltimore/3113-Stafford-St-21229/home/10973071,BRIGHT MLS,MDBA2016634,N,Y,39.2791501,-76.6687264
MLS Listing,,Single Family Residential,921 Cooks Ln,Baltimore,MD,21229,399900,6,3.0,Ward 28,2835,12024,1930,41,141,,Active,,,https://www.redfin.com/MD/Baltimore/921-Cooks-Ln-21229/home/11219054,BRIGHT MLS,MDBA2015514,N,Y,39.2971781,-76.7076223
MLS Listing,,Townhouse,5000 Westhills Rd,Baltimore,MD,21229,139000,3,2.0,Ward 28,1452,1742,1948,45,96,,Active,,,https://www.redfin.com/MD/Baltimore/5000-W-Hills-Rd-21229/home/11219527,BRIGHT MLS,MDBA2015578,N,Y,39.2956263,-76.7095147
MLS Listing,,Townhouse,3384 Dulany St,Baltimore,MD,21229,168000,3,2.0,Ward 20,1096,1306,1950,47,153,,Active,,,https://www.redfin.com/MD/Baltimore/3384-Dulany-St-21229/home/10972605,BRIGHT MLS,MDBA2013416,N,Y,39.2746927,-76.6745348
MLS Listing,,Townhouse,234 Collins Ave,Baltimore,MD,21229,144000,3,1.5,Ward 20,1440,,1906,48,100,,Active,,,https://www.redfin.com/MD/Baltimore/234-Collins-Ave-21229/home/10971785,BRIGHT MLS,MDBA2015298,N,Y,39.2823378,-76.6835698
MLS Listing,,Townhouse,3374 Saint Benedict St,Baltimore,MD,21229,125900,2,1.0,Ward 20,864,,1950,50,146,,Active,,,https://www.redfin.com/MD/Baltimore/3374-St-Benedict-St-21229/home/10972481,BRIGHT MLS,MDBA2015324,N,Y,39.2741358,-76.6738581
MLS Listing,,Townhouse,4541 Pen Lucy Rd,Baltimore,MD,21229,129900,3,1.5,Ward 28,1224,3000,1948,51,106,,Active,,,https://www.redfin.com/MD/Baltimore/4541-Pen-Lucy-Rd-21229/home/11221517,BRIGHT MLS,MDBA2015216,N,Y,39.2866098,-76.6929168
MLS Listing,,Townhouse,3919 Cranston Ave,Baltimore,MD,21229,205000,3,2.5,Ward 16,1200,1400,1936,52,171,,Active,,,https://www.redfin.com/MD/Baltimore/3919-Cranston-Ave-21229/home/10929326,BRIGHT MLS,MDBA2000911,N,Y,39.2962,-76.6823164
MLS Listing,,Townhouse,145 Siegwart Ln,Baltimore,MD,21229,179999,3,1.0,Ward 20,1060,1742,1926,52,170,,Active,,,https://www.redfin.com/MD/Baltimore/145-Siegwart-Ln-21229/home/10991692,BRIGHT MLS,MDBA2001373,N,Y,39.283575,-76.675779
MLS Listing,,Single Family Residential,1200 Walnut Ave,Baltimore,MD,21229,375000,5,4.0,Ward 28,2629,12497,1920,54,143,,Active,,,https://www.redfin.com/MD/Baltimore/1200-Walnut-Ave-21229/home/11219245,BRIGHT MLS,MDBA2000357,N,Y,39.2972933,-76.6928604
MLS Listing,,Townhouse,3604 Old Frederick Rd,Baltimore,MD,21229,159900,3,2.0,Ward 20,1560,1240,1920,54,103,,Active,,,https://www.redfin.com/MD/Baltimore/3604-Old-Frederick-Rd-21229/home/10991653,BRIGHT MLS,MDBA2010148,N,Y,39.2834019,-76.6765737
MLS Listing,,Single Family Residential,704 Dorchester Rd,Baltimore,MD,21229,289990,3,2.0,Ward 25,1551,6438,1943,54,187,,Active,,,https://www.redfin.com/MD/Baltimore/704-Dorchester-Rd-21229/home/11033360,BRIGHT MLS,MDBA2014930,N,Y,39.2710644,-76.6937738
MLS Listing,,Townhouse,915 Maiden Choice Ln,Baltimore,MD,21229,189900,2,1.0,ELM RIDGE,896,1632,1947,55,212,,Active,,,https://www.redfin.com/MD/Baltimore/915-Maiden-Choice-Ln-21229/home/9382972,BRIGHT MLS,MDBC2000635,N,Y,39.2637101,-76.6985162
MLS Listing,,Townhouse,3901 Colborne Rd,Baltimore,MD,21229,159900,3,2.0,Ward 16,1575,1522,1940,56,102,,Active,,,https://www.redfin.com/MD/Baltimore/3901-Colborne-Rd-21229/home/10929876,BRIGHT MLS,MDBA2000733,N,Y,39.2976896,-76.681933
MLS Listing,,Single Family Residential,5200 Greenwich Ave,Baltimore,MD,21229,379900,5,2.0,Ward 28,2094,12746,1923,58,181,,Active,,,https://www.redfin.com/MD/Baltimore/5200-Greenwich-Ave-21229/home/11220229,BRIGHT MLS,MDBA2000173,N,Y,39.2891428,-76.710225
MLS Listing,,Townhouse,513 N Edgewood St,Baltimore,MD,21229,79999,3,2.0,Ward 20,1570,1570,1925,61,51,,Active,,,https://www.redfin.com/MD/Baltimore/513-Edgewood-St-21229/home/10989336,BRIGHT MLS,MDBA2000053,N,Y,39.2931804,-76.6752678
MLS Listing,,Townhouse,431 S Augusta Ave,Baltimore,MD,21229,165000,3,1.5,Ward 20,2090,1500,1917,62,79,,Active,,,https://www.redfin.com/MD/Baltimore/431-S-Augusta-Ave-21229/home/10970551,BRIGHT MLS,MDBA2014748,N,Y,39.2792312,-76.6842787
MLS Listing,,Townhouse,818 Kevin Rd,Baltimore,MD,21229,165999,3,2.0,Ward 28,1580,1130,1950,63,105,,Active,,,https://www.redfin.com/MD/Baltimore/818-Kevin-Rd-21229/home/11218237,BRIGHT MLS,MDBA2014762,N,Y,39.2966816,-76.6878423
MLS Listing,,Townhouse,704 Mount Holly St,Baltimore,MD,21229,224900,4,3.0,Ward 16,2060,,1927,63,109,,Active,,,https://www.redfin.com/MD/Baltimore/704-Mt-Holly-St-21229/home/10938387,BRIGHT MLS,MDBA2015000,N,Y,39.2953796,-76.6801399
MLS Listing,,Townhouse,730 N Edgewood St,Baltimore,MD,21229,141999,3,2.0,Ward 16,1360,1360,1925,66,104,,Active,,,https://www.redfin.com/MD/Baltimore/730-Edgewood-St-21229/home/10940070,BRIGHT MLS,MDBA2014434,N,Y,39.2961027,-76.6747829
MLS Listing,,Single Family Residential,4317 Highview Ave,Baltimore,MD,21229,290000,3,1.0,RIDGEWOOD,1743,11297,1962,67,166,,Active,,,https://www.redfin.com/MD/Baltimore/4317-Highview-Ave-21229/home/9365749,BRIGHT MLS,MDBC2011088,N,Y,39.2640059,-76.6921233
MLS Listing,,Townhouse,3526 Edmondson Ave,Baltimore,MD,21229,188000,4,2.5,Ward 16,1360,980,1921,73,138,,Active,,,https://www.redfin.com/MD/Baltimore/3526-Edmondson-Ave-21229/home/10939561,BRIGHT MLS,MDBA2013530,N,Y,39.2942351,-76.6768016
MLS Listing,,Townhouse,719 Denison St,Baltimore,MD,21229,85000,2,1.5,Ward 16,840,,1925,73,101,,Active,,,https://www.redfin.com/MD/Baltimore/719-Denison-St-21229/home/10939995,BRIGHT MLS,MDBA2011164,N,Y,39.2957895,-76.6734289
MLS Listing,,Townhouse,619 Lucia Ave,Baltimore,MD,21229,135000,3,1.0,Ward 25,1120,2000,1955,86,121,,Active,,,https://www.redfin.com/MD/Baltimore/619-Lucia-Ave-21229/home/11027598,BRIGHT MLS,MDBA2011094,N,Y,39.2734359,-76.6918793
MLS Listing,,Townhouse,3408 W Saratoga St,Baltimore,MD,21229,124999,2,1.0,Ward 20,840,,1951,90,149,,Active,,,https://www.redfin.com/MD/Baltimore/3408-W-Saratoga-St-21229/home/10988930,BRIGHT MLS,MDBA2009006,N,Y,39.2904771,-76.6742017
MLS Listing,,Townhouse,116 Upmanor Rd,Baltimore,MD,21229,185000,3,1.0,Ward 28,1224,1680,1948,94,151,,Active,,,https://www.redfin.com/MD/Baltimore/116-Upmanor-Rd-21229/home/11221459,BRIGHT MLS,MDBA2011206,N,Y,39.2879658,-76.6905034
MLS Listing,,Townhouse,3431 Edmondson Ave,Baltimore,MD,21229,115000,3,2.5,Ward 20,1391,,1920,95,83,,Active,,,https://www.redfin.com/MD/Baltimore/3431-Edmondson-Ave-21229/home/10989302,BRIGHT MLS,MDBA2009394,N,Y,39.2938377,-76.6750084
MLS Listing,,Townhouse,38 N Ellamont St,Baltimore,MD,21229,75000,2,1.5,Ward 20,972,972,1927,99,77,,Active,,,https://www.redfin.com/MD/Baltimore/38-N-Ellamont-St-21229/home/10993258,BRIGHT MLS,MDBA2010514,N,Y,39.2867492,-76.6705874
MLS Listing,,Townhouse,132 N Hilton St,Baltimore,MD,21229,199900,3,3.5,Ward 20,1986,1890,1921,101,101,,Active,December-5-2021 11:00 AM,December-5-2021 01:00 PM,https://www.redfin.com/MD/Baltimore/132-N-Hilton-St-21229/home/10992543,BRIGHT MLS,MDBA2008692,N,Y,39.2881392,-76.6727397
MLS Listing,,Townhouse,913 Mount Holly St,Baltimore,MD,21229,149999,3,2.0,Ward 16,1500,1600,1942,104,100,,Active,,,https://www.redfin.com/MD/Baltimore/913-Mt-Holly-St-21229/home/11880231,BRIGHT MLS,MDBA2009864,N,Y,39.2983713,-76.6798241
MLS Listing,,Townhouse,710 N Grantley St,Baltimore,MD,21229,45000,3,1.0,Ward 16,1248,,1923,107,36,,Active,,,https://www.redfin.com/MD/Baltimore/710-N-Grantley-St-21229/home/11880385,BRIGHT MLS,MDBA2009538,N,Y,39.2956226,-76.6775122
MLS Listing,,Townhouse,3908 Edmondson Ave,Baltimore,MD,21229,127500,3,1.5,Ward 16,1500,2178,1920,108,85,,Active,,,https://www.redfin.com/MD/Baltimore/3908-Edmondson-Ave-21229/home/21972037,BRIGHT MLS,MDBA2009450,N,Y,39.2940678,-76.6816358
MLS Listing,,Townhouse,509 N Edgewood St,Baltimore,MD,21229,115999,3,1.0,Ward 20,1600,,1925,110,72,,Active,,,https://www.redfin.com/MD/Baltimore/509-Edgewood-St-21229/home/10989331,BRIGHT MLS,MDBA2009054,N,Y,39.2930721,-76.6752791
MLS Listing,,Townhouse,405 N Loudon Ave,Baltimore,MD,21229,130000,3,2.0,Ward 20,1392,900,1923,111,93,,Active,,,https://www.redfin.com/MD/Baltimore/405-N-Loudon-Ave-21229/home/10969429,BRIGHT MLS,MDBA2008598,N,Y,39.2918738,-76.6822939
MLS Listing,,Single Family Residential,4312 Leeds Ave,Baltimore,MD,21229,800000,4,2.5,ARBUTUS,2352,138521,1910,113,340,,Active,,,https://www.redfin.com/MD/Baltimore/4312-Leeds-Ave-21229/home/9366174,BRIGHT MLS,MDBC2007944,N,Y,39.261906,-76.689064
MLS Listing,,Townhouse,151 S Morley St,Baltimore,MD,21229,107500,3,1.0,Ward 20,1218,,1920,115,88,,Active,,,https://www.redfin.com/MD/Baltimore/151-S-Morley-St-21229/home/10991939,BRIGHT MLS,MDBA2007680,N,Y,39.2841578,-76.6765874
MLS Listing,,Townhouse,914 N Woodington Rd,Baltimore,MD,21229,182000,3,3.0,Ward 28,1544,1306,1942,122,118,,Active,,,https://www.redfin.com/MD/Baltimore/914-N-Woodington-Rd-21229/home/11218260,BRIGHT MLS,MDBA2007218,N,Y,39.2982354,-76.6864665
MLS Listing,,Townhouse,3422 W Caton Ave,Baltimore,MD,21229,239000,3,2.5,Ward 20,1759,871,1920,128,136,,Active,,,https://www.redfin.com/MD/Baltimore/3422-W-Caton-Ave-21229/home/10992491,BRIGHT MLS,MDBA551002,N,Y,39.2866262,-76.673751
MLS Listing,,Townhouse,1018 Kevin Rd,Baltimore,MD,21229,165000,3,2.0,Ward 28,1728,1836,1952,148,95,,Active,,,https://www.redfin.com/MD/Baltimore/1018-Kevin-Rd-21229/home/11218440,BRIGHT MLS,MDBA2002926,N,Y,39.2978699,-76.6896393
MLS Listing,,Townhouse,77 S Morley St,Baltimore,MD,21229,79000,3,1.0,Ward 20,1260,,1927,149,63,,Active,,,https://www.redfin.com/MD/Baltimore/77-S-Morley-St-21229/home/10992007,BRIGHT MLS,MDBA2002252,N,Y,39.2851549,-76.6753919
MLS Listing,,Townhouse,4002 Massachusetts Ave,Baltimore,MD,21229,126543,3,1.0,Ward 20,1532,,1920,161,83,,Active,,,https://www.redfin.com/MD/Baltimore/4002-Massachusetts-Ave-21229/home/10971260,BRIGHT MLS,MDBA2001240,N,Y,39.2836879,-76.6825993
MLS Listing,,Single Family Residential,4203 Gelston Dr,Baltimore,MD,21229,145900,4,1.5,Ward 28,1235,5279,1945,175,118,,Active,,,https://www.redfin.com/MD/Baltimore/4203-Gelston-Dr-21229/home/11218137,BRIGHT MLS,MDBA555172,N,Y,39.2946705,-76.6870581
MLS Listing,,Townhouse,3720 Edmondson Ave,Baltimore,MD,21229,148999,3,2.0,Ward 16,1512,1200,1925,184,99,,Active,,,https://www.redfin.com/MD/Baltimore/3720-Edmondson-Ave-21229/home/10937963,BRIGHT MLS,MDBA551310,N,Y,39.2941757,-76.679294
MLS Listing,,Single Family Residential,405 S Wickham Rd,Baltimore,MD,21229,264900,4,3.0,Ward 25,1792,6247,1949,185,148,,Active,,,https://www.redfin.com/MD/Baltimore/405-S-Wickham-Rd-21229/home/11031040,BRIGHT MLS,MDBA551894,N,Y,39.2794476,-76.6953412
MLS Listing,,Townhouse,2 N Abington Ave,Baltimore,MD,21229,90000,2,1.5,Ward 20,930,,1926,185,97,,Active,,,https://www.redfin.com/MD/Baltimore/2-N-Abington-Ave-21229/home/10993335,BRIGHT MLS,MDBA553246,N,Y,39.2859899,-76.6713265
MLS Listing,,Townhouse,122 S Hilton St,Baltimore,MD,21229,145000,3,1.5,Ward 20,1000,,1927,239,145,,Active,,,https://www.redfin.com/MD/Baltimore/122-S-Hilton-St-21229/home/10991563,BRIGHT MLS,MDBA546634,N,Y,39.284373,-76.67251
MLS Listing,,Townhouse,123 S Hilton St,Baltimore,MD,21229,120000,4,2.0,Ward 20,1240,,1926,258,97,,Active,,,https://www.redfin.com/MD/Baltimore/123-S-Hilton-St-21229/home/10994276,BRIGHT MLS,MDBA543414,N,Y,39.2844627,-76.6719576
MLS Listing,,Townhouse,3532 Edmondson Ave,Baltimore,MD,21229,113000,4,2.0,Ward 16,,2200,1921,313,,,Active,,,https://www.redfin.com/MD/Baltimore/3532-Edmondson-Ave-21229/home/10939570,BRIGHT MLS,MDBA538080,N,Y,39.2942214,-76.6770272
MLS Listing,,Vacant Land,422 Hazlett Ave,Baltimore,MD,21229,40000,,,Baltimore,,3920,,634,,,Active,,,https://www.redfin.com/MD/Baltimore/422-Hazlett-Ave-21229/home/171054231,BRIGHT MLS,MDBA504784,N,Y,39.278443,-76.698371
MLS Listing,,Vacant Land,420 Hazlett Ave,Baltimore,MD,21229,40000,,,Baltimore,,4356,,634,,,Active,,,https://www.redfin.com/MD/Baltimore/420-Hazlett-Ave-21229/home/171054229,BRIGHT MLS,MDBA504642,N,Y,39.278565,-76.698359
MLS Listing,,Vacant Land,418 Hazlett Ave,Baltimore,MD,21229,40000,,,Baltimore,,4356,,634,,,Active,,,https://www.redfin.com/MD/Baltimore/418-Hazlett-Ave-21229/home/171054228,BRIGHT MLS,MDBA504816,N,Y,39.278692,-76.698344
MLS Listing,,Vacant Land,5008 Overton St,Baltimore,MD,21229,40000,,,Baltimore,,5662,,634,,,Active,,,https://www.redfin.com/MD/Baltimore/5008-Overton-St-21229/home/171054227,BRIGHT MLS,MDBA505298,N,Y,39.278454,-76.699105
MLS Listing,,Vacant Land,5006 Overton St,Baltimore,MD,21229,40000,,,Baltimore,,4356,,634,,,Active,,,https://www.redfin.com/MD/Baltimore/5006-Overton-St-21229/home/171054226,BRIGHT MLS,MDBA505296,N,Y,39.278408,-76.698929
MLS Listing,,Vacant Land,5004 Overton St,Baltimore,MD,21229,40000,,,Baltimore,,4356,,634,,,Active,,,https://www.redfin.com/MD/Baltimore/5004-Overton-St-21229/home/171054225,BRIGHT MLS,MDBA505294,N,Y,39.278362,-76.698776
MLS Listing,,Vacant Land,5002 Overton St,Baltimore,MD,21229,40000,,,Baltimore,,4791,,634,,,Active,,,https://www.redfin.com/MD/Baltimore/5002-Overton-St-21229/home/171054223,BRIGHT MLS,MDBA505292,N,Y,39.278311,-76.698607
MLS Listing,,Vacant Land,5000 Overton St,Baltimore,MD,21229,40000,,,Baltimore,,7405,,634,,,Active,,,https://www.redfin.com/MD/Baltimore/5000-Overton-St-21229/home/171054099,BRIGHT MLS,MDBA505290,N,Y,39.278245,-76.698378
PAST SALE,January-18-2019,Single Family Residential,1016 Pine Heights Ave,Baltimore,MD,21229,195000,3,2.0,VIOLETVILLE,1612,25526,1920,1052,121,,Sold,,,https://www.redfin.com/MD/Baltimore/1016-Pine-Heights-Ave-21229/home/11028617,BRIGHT MLS,1002357450,N,Y,39.2705515,-76.6763566
PAST SALE,October-21-2021,Townhouse,3508 W Franklin St,Baltimore,MD,21229,62500,0,,Ward 20,1408,1500,1925,45,44,,Sold,,,https://www.redfin.com/MD/Baltimore/3508-W-Franklin-St-21229/home/10989496,BRIGHT MLS,MDBA2008358,N,Y,39.2928627,-76.6762385
PAST SALE,September-10-2021,Single Family Residential,634 Orpington Rd,Baltimore,MD,21229,188475,3,2.0,MERIDALE LITTLE FARMS,1572,5995,1950,86,120,,Sold,,,https://www.redfin.com/MD/Baltimore/634-Orpington-Rd-21229/home/9149521,BRIGHT MLS,MDBC2005152,N,Y,39.2880409,-76.71497
PAST SALE,,Single Family Residential,3627 Coolidge Ave,Baltimore,MD,21229,210000,,1.0,,1510,5500,1910,,139,,,,,https://www.redfin.com/MD/Baltimore/3627-Coolidge-Ave-21229/home/11029028,,,N,Y,39.2669213,-76.6791023
PAST SALE,September-14-2021,Townhouse,423 Random Rd,Baltimore,MD,21229,75000,3,1.5,Ward 25,1425,1805,1947,82,53,,Sold,,,https://www.redfin.com/MD/Baltimore/423-Random-Rd-21229/home/11031616,BRIGHT MLS,MDBA540366,N,Y,39.2798486,-76.6997159
PAST SALE,February-8-2019,Townhouse,34 Morley St,Baltimore,MD,21229,20000,3,1.0,Baltimore,1260,1307,1926,1031,16,,Sold,,,https://www.redfin.com/MD/Baltimore/34-S-Morley-St-21229/home/10992166,BRIGHT MLS,1000303048,N,Y,39.2859829,-76.6751438
PAST SALE,March-12-2021,Vacant Land,3625 Hineline Rd,Baltimore,MD,21229,24000,,,Ward 25,,5500,,268,,,Sold,,,https://www.redfin.com/MD/Baltimore/3625-Hineline-Rd-21229/home/11029177,BRIGHT MLS,MDBA538244,N,Y,39.266908,-76.677751
PAST SALE,March-6-2020,Townhouse,606 N Augusta Ave,Baltimore,MD,21229,174000,5,2.0,BALTIMORE CITY,1544,1544,1929,639,113,,Sold,,,https://www.redfin.com/MD/Baltimore/606-N-Augusta-Ave-21229/home/10929173,BRIGHT MLS,MDBA100097,N,Y,39.2943364,-76.6852485
PAST SALE,June-2-2020,Townhouse,117 N Kossuth St,Baltimore,MD,21229,160000,3,1.0,Ward 20,1180,,1941,551,136,,Sold,,,https://www.redfin.com/MD/Baltimore/117-N-Kossuth-St-21229/home/10992747,BRIGHT MLS,MDBA512054,N,Y,39.2885107,-76.6728881
PAST SALE,July-26-2021,Townhouse,780 Linnard St,Baltimore,MD,21229,159900,3,2.0,Ward 16,1524,,1926,132,105,,Sold,,,https://www.redfin.com/MD/Baltimore/780-Linnard-St-21229/home/10940299,BRIGHT MLS,MDBA546916,N,Y,39.2970616,-76.6748054
PAST SALE,March-19-2020,Townhouse,28 S Abington Ave,Baltimore,MD,21229,36789,3,1.5,Ward 20,1600,1306,1939,626,23,,Sold,,,https://www.redfin.com/MD/Baltimore/28-S-Abington-Ave-21229/home/10993534,BRIGHT MLS,MDBA500086,N,Y,39.2850237,-76.6712525
PAST SALE,August-22-2019,Townhouse,28 N Ellamont St,Baltimore,MD,21229,60000,2,2.0,CARROLL-SOUTH HILTON,1061,1306,1927,836,57,,Sold,,,https://www.redfin.com/MD/Baltimore/28-N-Ellamont-St-21229/home/10993247,BRIGHT MLS,MDBA303194,N,Y,39.2865551,-76.6706325
PAST SALE,,Condo/Co-op,5207 Wyndholme Cir #103,Baltimore,MD,21229,135000,,,,,,,,,,,,,https://www.redfin.com/MD/Baltimore/5207-Wyndholme-Cir-21229/unit-103/home/64338095,,,N,Y,39.279456,-76.704795
PAST SALE,November-30-2021,Townhouse,787 Yale Ave,Baltimore,MD,21229,125000,3,1.5,Ward 25,1120,2000,1953,5,112,,Sold,,,https://www.redfin.com/MD/Baltimore/787-Yale-Ave-21229/home/11026651,BRIGHT MLS,MDBA2010614,N,Y,39.2730545,-76.6903992
PAST SALE,,Townhouse,610 Lucia Ave,Baltimore,MD,21229,172500,,1.0,,1080,2070,1955,,160,,,,,https://www.redfin.com/MD/Baltimore/610-Lucia-Ave-21229/home/11027433,,,N,Y,39.273347,-76.692456
PAST SALE,April-16-2019,Townhouse,3571 Benzinger Rd,Baltimore,MD,21229,56000,2,1.0,VIOLETVILLE,1050,1510,1950,964,53,,Sold,,,https://www.redfin.com/MD/Baltimore/3571-Benzinger-Rd-21229/home/11028364,BRIGHT MLS,MDBA438728,N,Y,39.270281,-76.67878
PAST SALE,February-26-2019,Townhouse,4553 Pen Lucy Rd,Baltimore,MD,21229,120000,3,1.0,BALTIMORE CITY,1536,3770,1948,1013,78,,Sold,,,https://www.redfin.com/MD/Baltimore/4553-Pen-Lucy-Rd-21229/home/11221523,BRIGHT MLS,MDBA101062,N,Y,39.286367,-76.6931007
PAST SALE,October-10-2019,Townhouse,211 Boswell Rd,Baltimore,MD,21229,182000,4,2.0,WESTGATE,1570,2242,1959,787,116,,Sold,,,https://www.redfin.com/MD/Baltimore/211-Boswell-Rd-21229/home/11220431,BRIGHT MLS,MDBA100531,N,Y,39.2820092,-76.7040736
PAST SALE,March-9-2020,Townhouse,3926 Colchester Rd,Baltimore,MD,21229,120000,2,1.0,OAKLEE VILLAGE,1105,1306,1949,636,109,,Sold,,,https://www.redfin.com/MD/Baltimore/3926-Colchester-Rd-21229/home/11028063,BRIGHT MLS,MDBA486014,N,Y,39.2672021,-76.6850455
PAST SALE,February-26-2021,Townhouse,141 N Monastery Ave,Baltimore,MD,21229,113500,3,1.5,Ward 20,1420,1125,1932,282,80,,Sold,,,https://www.redfin.com/MD/Baltimore/141-N-Monastery-Ave-21229/home/10991119,BRIGHT MLS,MDBA529622,N,Y,39.288686,-76.6752566
PAST SALE,November-30-2021,Townhouse,5546 Channing Rd,Baltimore,MD,21229,205000,3,1.0,WEST EDMONDALE,2400,1800,1952,5,85,,Sold,,,https://www.redfin.com/MD/Baltimore/5546-Channing-Rd-21229/home/9138483,BRIGHT MLS,MDBC2000031,N,Y,39.2925191,-76.7190587
PAST SALE,May-23-2019,Townhouse,1236 Grantley St S,Baltimore,MD,21229,165000,3,1.0,VIOLETVILLE,1280,2730,1956,927,129,,Sold,,,https://www.redfin.com/MD/Baltimore/1236-S-Grantley-St-21229/home/11030704,BRIGHT MLS,1001987718,N,Y,39.2671488,-76.6728801
PAST SALE,June-25-2019,Townhouse,17 N Culver St,Baltimore,MD,21229,159900,3,3.0,Baltimore,1292,1306,1951,894,124,,Sold,,,https://www.redfin.com/MD/Baltimore/17-N-Culver-St-21229/home/10990936,BRIGHT MLS,MDBA439108,N,Y,39.2863377,-76.676655
PAST SALE,June-11-2019,Single Family Residential,190 S Kossuth St,Baltimore,MD,21229,125000,4,1.0,BALTIMORE CITY,2040,5040,1917,908,61,,Sold,,,https://www.redfin.com/MD/Baltimore/190-S-Kossuth-St-21229/home/10990683,BRIGHT MLS,MDBA463426,N,Y,39.284174,-76.678438
PAST SALE,May-7-2021,Townhouse,718 Stamford Rd,Baltimore,MD,21229,134900,3,1.5,Ward 28,2113,2376,1954,212,64,,Sold,,,https://www.redfin.com/MD/Baltimore/718-Stamford-Rd-21229/home/11219962,BRIGHT MLS,MDBA547204,N,Y,39.2928397,-76.7069758
PAST SALE,,Townhouse,508 Coventry Rd,Baltimore,MD,21229,120000,,1.0,,1280,1753,1950,,94,,,,,https://www.redfin.com/MD/Baltimore/508-Coventry-Rd-21229/home/11031571,,,N,Y,39.2788829,-76.700434
PAST SALE,August-13-2021,Single Family Residential,156 S Morley St,Baltimore,MD,21229,295900,4,2.0,Ward 20,1650,4796,1920,114,179,,Sold,,,https://www.redfin.com/MD/Baltimore/156-S-Morley-St-21229/home/10992243,BRIGHT MLS,MDBA552820,N,Y,39.2842301,-76.6770385
PAST SALE,January-14-2019,Townhouse,5421 Bristol Green Way,Baltimore,MD,21229,329587,4,3.5,BRISTOL GREEN,2050,1415,2018,1056,161,55,Sold,,,https://www.redfin.com/MD/Baltimore/5421-Bristol-Grn-Way-21229/home/52925981,BRIGHT MLS,1002269736,N,Y,39.2882327,-76.7191031
PAST SALE,August-20-2019,Single Family Residential,424 Westgate Rd,Baltimore,MD,21229,270000,3,1.5,WESTGATE,1830,5279,1930,838,148,,Sold,,,https://www.redfin.com/MD/Baltimore/424-Westgate-Rd-21229/home/11220646,BRIGHT MLS,MDBA473130,N,Y,39.2871315,-76.7076543
PAST SALE,,Townhouse,748 Edgewood St,Baltimore,MD,21229,97650,,1.0,,1224,1476,1925,,80,,,,,https://www.redfin.com/MD/Baltimore/748-Edgewood-St-21229/home/10940089,,,N,Y,39.2964687,-76.6743318
PAST SALE,,Townhouse,4861 Melbourne Rd,Baltimore,MD,21229,45000,,1.0,,1120,1920,1965,,40,,,,,https://www.redfin.com/MD/Baltimore/4861-Melbourne-Rd-21229/home/11033208,,,N,Y,39.273083,-76.699365
PAST SALE,May-28-2020,Townhouse,9 N Rosedale St,Baltimore,MD,21229,36000,3,1.5,Ward 20,1298,,1929,556,28,,Sold,,,https://www.redfin.com/MD/Baltimore/9-N-Rosedale-St-21229/home/10992906,BRIGHT MLS,MDBA494658,N,Y,39.2862407,-76.6687828
PAST SALE,February-22-2019,Townhouse,104 N Edgewood St,Baltimore,MD,21229,141400,3,2.0,BALTIMORE CITY,1800,1755,1950,1017,79,,Sold,,,https://www.redfin.com/MD/Baltimore/104-Edgewood-St-21229/home/10988358,BRIGHT MLS,MDBA302788,N,Y,39.2892572,-76.6776024
PAST SALE,,Townhouse,9 S Monastery Ave,Baltimore,MD,21229,59650,,1.0,,1200,1686,1929,,50,,,,,https://www.redfin.com/MD/Baltimore/9-S-Monastery-Ave-21229/home/10990602,,,N,Y,39.2862887,-76.6781212
PAST SALE,,Townhouse,3402 W Mulberry St,Baltimore,MD,21229,149000,,1.0,,1188,1628,1928,,125,,,,,https://www.redfin.com/MD/Baltimore/3402-W-Mulberry-St-21229/home/10989032,,,N,Y,39.2919455,-76.6741769
PAST SALE,February-22-2019,Townhouse,3136 Stafford St,Baltimore,MD,21229,17500,2,2.0,CARROLL PARK,988,,1920,1017,18,,Sold,,,https://www.redfin.com/MD/Baltimore/3136-Stafford-St-21229/home/10972714,BRIGHT MLS,MDBA276892,N,Y,39.2795577,-76.6692339
PAST SALE,November-21-2019,Townhouse,36 Mardrew Rd,Baltimore,MD,21229,218000,3,2.0,CATONSVILLE AREA,1728,3503,1956,745,126,,Sold,,,https://www.redfin.com/MD/Baltimore/36-Mardrew-Rd-21229/home/11220966,BRIGHT MLS,MDBA487746,N,Y,39.2831234,-76.7097853
PAST SALE,June-14-2021,Townhouse,4523 Maple Wood Dr,Baltimore,MD,21229,240000,3,2.0,Ward 28,1842,915,2017,174,130,65,Sold,,,https://www.redfin.com/MD/Baltimore/4523-Maple-Wood-Dr-21229/home/145321601,BRIGHT MLS,MDBA543180,N,Y,39.2914554,-76.6918499
PAST SALE,April-30-2019,Townhouse,3394 Saint Benedict St,Baltimore,MD,21229,87500,3,1.0,SAINT AGNES,1080,871,1950,950,81,,Sold,,,https://www.redfin.com/MD/Baltimore/3394-St-Benedict-St-21229/home/10972506,BRIGHT MLS,MDBA436174,N,Y,39.2739422,-76.674422
PAST SALE,September-30-2021,Single Family Residential,901 Walnut Ave,Baltimore,MD,21229,225000,6,3.0,Ward 28,1891,7497,1918,66,119,,Sold,,,https://www.redfin.com/MD/Baltimore/901-Walnut-Ave-21229/home/11219367,BRIGHT MLS,MDBA492852,N,Y,39.2957266,-76.6896578
PAST SALE,,Townhouse,4408 Eldone Rd,Baltimore,MD,21229,94000,,1.0,,1280,1760,1955,,73,,,,,https://www.redfin.com/MD/Baltimore/4408-Eldone-Rd-21229/home/11027717,,,N,Y,39.2768404,-76.6903006
PAST SALE,,Townhouse,35 S Kossuth St,Baltimore,MD,21229,56000,,1.0,,1254,1867,1941,,45,,,,,https://www.redfin.com/MD/Baltimore/35-S-Kossuth-St-21229/home/10992135,,,N,Y,39.2862561,-76.675437
PAST SALE,,Townhouse,149 S Morley St,Baltimore,MD,21229,161000,,1.0,,1314,1500,1920,,123,,,,,https://www.redfin.com/MD/Baltimore/149-S-Morley-St-21229/home/10991946,,,N,Y,39.2841951,-76.6765648
PAST SALE,July-30-2021,Townhouse,305 N Edgewood St,Baltimore,MD,21229,57000,2,1.0,Ward 20,840,,1951,128,68,,Sold,,,https://www.redfin.com/MD/Baltimore/305-Edgewood-St-21229/home/10988781,BRIGHT MLS,MDBA2000106,N,Y,39.291192,-76.675137
PAST SALE,,Townhouse,4403 Cherry Way,Baltimore,MD,21229,280000,,2.5,,2056,2526,2016,,136,,,,,https://www.redfin.com/MD/Baltimore/4403-Cherry-Way-21229/home/113374467,,,N,Y,39.2900354,-76.6897252
PAST SALE,,Multi-Family (5+ Unit),123 N Monastery Ave,Baltimore,MD,21229,60000,,1.5,,1420,1125,1932,,42,,,,,https://www.redfin.com/MD/Baltimore/123-N-Monastery-Ave-21229/home/10991140,,,N,Y,39.2884267,-76.6755873
PAST SALE,February-14-2019,Townhouse,524 Mount Holly St,Baltimore,MD,21229,45000,4,1.0,EDMONDSON VILLAGE,1516,2310,1923,1025,30,,Sold,,,https://www.redfin.com/MD/Baltimore/524-Mt-Holly-St-21229/home/11885498,BRIGHT MLS,MDBA101108,N,Y,39.293387,-76.6798805
PAST SALE,,Townhouse,124 N Hilton St,Baltimore,MD,21229,85000,,1.0,,1386,1890,1921,,61,,,,,https://www.redfin.com/MD/Baltimore/124-N-Hilton-St-21229/home/10992526,,,N,Y,39.2879059,-76.6727415
PAST SALE,November-10-2021,Townhouse,4803 Lindsay Rd,Baltimore,MD,21229,236000,3,1.5,Ward 28,1240,3774,1956,25,190,,Sold,,,https://www.redfin.com/MD/Baltimore/4803-Lindsay-Rd-21229/home/11218977,BRIGHT MLS,MDBA2014060,N,Y,39.2962215,-76.7050612
PAST SALE,,Townhouse,3920 Flowerton Rd,Baltimore,MD,21229,156900,,2.0,,1568,1995,1948,,100,,,,,https://www.redfin.com/MD/Baltimore/3920-Flowerton-Rd-21229/home/10930485,,,N,Y,39.2987721,-76.6826773
PAST SALE,May-15-2020,Townhouse,847 Stamford Rd,Baltimore,MD,21229,178000,3,1.5,Ward 28,1280,2120,1952,569,139,,Sold,,,https://www.redfin.com/MD/Baltimore/847-Stamford-Rd-21229/home/11219887,BRIGHT MLS,MDBA495280,N,Y,39.294623,-76.7084971
PAST SALE,,Townhouse,3807 Woodridge Rd,Baltimore,MD,21229,75300,,1.0,,1180,1400,1939,,64,,,,,https://www.redfin.com/MD/Baltimore/3807-Woodridge-Rd-21229/home/10938604,,,N,Y,39.2969947,-76.6805797
PAST SALE,,Other,727 Manchester Rd,Baltimore,MD,21229,286000,,,,,348,,,,,,,,https://www.redfin.com/MD/Baltimore/727-Manchester-Rd-21229/home/11033321,,,N,Y,39.2696121,-76.69268
PAST SALE,,Single Family Residential,4103 Walrad St,Baltimore,MD,21229,490000,,7.0,,4192,10575,1920,,117,,,,,https://www.redfin.com/MD/Baltimore/4103-Walrad-St-21229/home/10970638,,,N,Y,39.2798048,-76.6836837
PAST SALE,April-30-2019,Townhouse,101 S Monastery Ave,Baltimore,MD,21229,18750,3,1.0,IRVINGTON,1512,1650,1925,950,12,,Sold,,,https://www.redfin.com/MD/Baltimore/101-S-Monastery-Ave-21229/home/10990449,BRIGHT MLS,MDBA399894,N,Y,39.2854196,-76.6790459
PAST SALE,,Townhouse,5219 Hillwell Rd,Baltimore,MD,21229,150000,,1.0,,1216,2185,1960,,123,,,,,https://www.redfin.com/MD/Baltimore/5219-Hillwell-Rd-21229/home/11220444,,,N,Y,39.2819,-76.703178
PAST SALE,,Condo/Co-op,5185 Wyndholme Cir,Baltimore,MD,21229,230000,,,,,,,,,,,,,https://www.redfin.com/MD/Baltimore/5185-Wyndholme-Cir-21229/home/64338114,,,N,Y,39.2789115,-76.7033984
PAST SALE,August-20-2021,Condo/Co-op,5303 Wyndholme Cir #301,Baltimore,MD,21229,180000,2,2.0,Ward 25,1330,,2009,107,135,291,Sold,,,https://www.redfin.com/MD/Baltimore/5303-Wyndholme-Cir-21229/unit-301/home/40038338,BRIGHT MLS,MDBA2002378,N,Y,39.2787062,-76.7047379
PAST SALE,January-7-2020,Townhouse,4736 Vancouver Rd,Baltimore,MD,21229,146500,3,1.0,BEECHFIELD,1008,871,1965,698,145,,Sold,,,https://www.redfin.com/MD/Baltimore/4736-Vancouver-Rd-21229/home/11032350,BRIGHT MLS,MDBA486114,N,Y,39.2741406,-76.6963988
PAST SALE,,Single Family Residential,3616 Coolidge Ave,Baltimore,MD,21229,210000,,1.0,,960,4650,1947,,219,,,,,https://www.redfin.com/MD/Baltimore/3616-Coolidge-Ave-21229/home/11028918,,,N,Y,39.2676041,-76.678888
PAST SALE,May-8-2019,Townhouse,4713 NW Vancouver Rd,Baltimore,MD,21229,125000,3,1.0,BEECHFIELD,1008,1008,1964,942,124,,Sold,,,https://www.redfin.com/MD/Baltimore/4713-Vancouver-Rd-21229/home/11032538,BRIGHT MLS,MDBA437222,N,Y,39.273601,-76.696158
PAST SALE,September-16-2019,Single Family Residential,416 Nottingham Rd,Baltimore,MD,21229,145500,4,2.5,TEN HILLS,2236,15155,1955,811,65,,Sold,,,https://www.redfin.com/MD/Baltimore/416-Nottingham-Rd-21229/home/11220472,BRIGHT MLS,MDBA477094,N,Y,39.2881285,-76.6983461
PAST SALE,March-31-2021,Single Family Residential,5314 Brabant Rd,Baltimore,MD,21229,240000,3,1.0,Ward 28,1252,5767,1927,249,192,,Sold,,,https://www.redfin.com/MD/Baltimore/5314-Brabant-Rd-21229/home/11220614,BRIGHT MLS,MDBA2000168,N,Y,39.2851059,-76.7080602
PAST SALE,,Townhouse,29 S Morley St,Baltimore,MD,21229,69900,,1.0,,1008,1600,1925,,69,,,,,https://www.redfin.com/MD/Baltimore/29-S-Morley-St-21229/home/10992073,,,N,Y,39.2859893,-76.6745122
PAST SALE,January-23-2020,Condo/Co-op,5303 Wyndholme Cir #202,Baltimore,MD,21229,156500,2,2.0,Ward 25,1330,,2009,682,118,235,Sold,,,https://www.redfin.com/MD/Baltimore/5303-Wyndholme-Cir-21229/unit-202/home/40038339,BRIGHT MLS,MDBA493802,N,Y,39.2787062,-76.7047379
PAST SALE,May-1-2019,Condo/Co-op,5305 Wyndholme Cir #202,Baltimore,MD,21229,115000,2,2.0,WYNDHOLME WOODS,1330,1330,2009,949,86,230,Sold,,,https://www.redfin.com/MD/Baltimore/5305-Wyndholme-Cir-21229/unit-202/home/28508913,BRIGHT MLS,MDBA263578,N,Y,39.2784766,-76.7041667
PAST SALE,June-18-2021,Single Family Residential,4403 Adelle Ter,Baltimore,MD,21229,290000,5,3.0,Ward 28,2710,11487,1890,170,107,,Sold,,,https://www.redfin.com/MD/Baltimore/4403-Adelle-Ter-21229/home/11221701,BRIGHT MLS,MDBA545564,N,Y,39.2819416,-76.6893244
PAST SALE,,Townhouse,501 Denison St,Baltimore,MD,21229,52000,,2.0,,1384,1538,1927,,38,,,,,https://www.redfin.com/MD/Baltimore/501-Denison-St-21229/home/10988187,,,N,Y,39.2928985,-76.6738694
PAST SALE,March-15-2021,Condo/Co-op,5307 Wyndholme Cir #403,Baltimore,MD,21229,168000,2,2.0,Ward 25,1330,,2009,265,126,292,Sold,,,https://www.redfin.com/MD/Baltimore/5307-Wyndholme-Cir-21229/unit-403/home/28546637,BRIGHT MLS,MDBA539552,N,Y,39.2783801,-76.7036329
PAST SALE,March-1-2019,Condo/Co-op,5205 Wyndholme Cir #402,Baltimore,MD,21229,165000,2,2.0,BALTIMORE CITY,1330,1330,2015,1010,124,230,Sold,,,https://www.redfin.com/MD/Baltimore/5205-Wyndholme-Cir-21229/unit-402/home/64338108,BRIGHT MLS,MDBA102290,N,Y,39.2793254,-76.7043807
PAST SALE,September-20-2021,Condo/Co-op,5307 Wyndholme Cir #401,Baltimore,MD,21229,195000,2,2.0,Ward 25,1330,,2009,76,147,292,Sold,,,https://www.redfin.com/MD/Baltimore/5307-Wyndholme-Cir-21229/unit-401/home/28546631,BRIGHT MLS,MDBA2003648,N,Y,39.2783801,-76.7036329
PAST SALE,March-13-2019,Townhouse,1209 Kevin Rd,Baltimore,MD,21229,130000,3,2.0,ROGNEL HEIGHTS,1152,,1951,998,113,,Sold,,,https://www.redfin.com/MD/Baltimore/1209-Kevin-Rd-21229/home/11218570,BRIGHT MLS,MDBA278064,N,Y,39.2991609,-76.6909176
PAST SALE,,Condo/Co-op,5193 Wyndholme Cir,Baltimore,MD,21229,252071,,,,,,2013,,,,,,,https://www.redfin.com/MD/Baltimore/5193-Wyndholme-Cir-21229/home/59254344,,,N,Y,39.2790215,-76.703725
PAST SALE,May-3-2019,Condo/Co-op,5307 Wyndholme Cir #304,Baltimore,MD,21229,157000,2,2.0,WYNDHOLME WOODS,1330,1330,2009,947,118,275,Sold,,,https://www.redfin.com/MD/Baltimore/5307-Wyndholme-Cir-21229/unit-304/home/28546630,BRIGHT MLS,MDBA438430,N,Y,39.2783801,-76.7036329
PAST SALE,,Condo/Co-op,5307 Wyndholme Cir #303,Baltimore,MD,21229,169000,,,,1330,,2009,,127,,,,,https://www.redfin.com/MD/Baltimore/5307-Wyndholme-Cir-21229/unit-303/home/28546633,,,N,Y,39.2783801,-76.7036329
PAST SALE,February-14-2020,Townhouse,5149 Stafford Rd,Baltimore,MD,21229,150000,3,1.5,Ward 25,1485,2655,1946,660,101,,Sold,,,https://www.redfin.com/MD/Baltimore/5149-Stafford-Rd-21229/home/11031503,BRIGHT MLS,MDBA494054,N,Y,39.2800841,-76.7011651
PAST SALE,April-21-2021,Townhouse,5151 Stafford Rd,Baltimore,MD,21229,165000,3,1.5,Ward 25,1200,1710,1946,228,138,,Sold,,,https://www.redfin.com/MD/Baltimore/5151-Stafford-Rd-21229/home/11031506,BRIGHT MLS,MDBA539538,N,Y,39.280053,-76.701215
PAST SALE,,Condo/Co-op,5212 Wyndholme Cir #13,Baltimore,MD,21229,220000,,,,1961,,2011,,112,,,,,https://www.redfin.com/MD/Baltimore/5212-Wyndholme-Cir-21229/unit-13/home/45424557,,,N,Y,39.2794367,-76.7034793
PAST SALE,,Single Family Residential,4400 Flowerton Rd,Baltimore,MD,21229,92000,,2.5,,1806,4487,1935,,51,,,,,https://www.redfin.com/MD/Baltimore/4400-Flowerton-Rd-21229/home/11219265,,,N,Y,39.2958863,-76.691198
PAST SALE,September-3-2019,Townhouse,607 Charraway Rd,Baltimore,MD,21229,58500,2,1.0,BALTIMORE,1120,1717,1958,824,52,,Sold,,,https://www.redfin.com/MD/Baltimore/607-Charraway-Rd-21229/home/11032216,BRIGHT MLS,MDBA476832,N,Y,39.2746219,-76.6969537
PAST SALE,May-10-2021,Single Family Residential,314 S Augusta Ave,Baltimore,MD,21229,73700,3,1.5,Ward 20,1392,2675,1920,209,53,,Sold,,,https://www.redfin.com/MD/Baltimore/314-S-Augusta-Ave-21229/home/10970900,BRIGHT MLS,MDBA543056,N,Y,39.2808173,-76.6848454
PAST SALE,,Townhouse,3218 Frederick Ave,Baltimore,MD,21229,49500,,2.0,,1600,5052,1910,,31,,,,,https://www.redfin.com/MD/Baltimore/3218-Frederick-Ave-21229/home/10994067,,,N,Y,39.2808605,-76.6707565
PAST SALE,June-26-2020,Townhouse,4109 Walrad St,Baltimore,MD,21229,12500,3,1.0,Ward 20,1400,,1920,527,9,,Sold,,,https://www.redfin.com/MD/Baltimore/4109-Walrad-St-21229/home/10970642,BRIGHT MLS,MDBA495290,N,Y,39.2798037,-76.6839742
PAST SALE,September-29-2020,Townhouse,511 Coventry Rd,Baltimore,MD,21229,75000,3,2.0,Ward 25,1425,,1947,432,53,,Sold,,,https://www.redfin.com/MD/Baltimore/511-Coventry-Rd-21229/home/11031659,BRIGHT MLS,MDBA512818,N,Y,39.279062,-76.699861
PAST SALE,March-5-2021,Townhouse,4842 Melbourne Rd,Baltimore,MD,21229,150000,3,2.0,BEECHFIELD,1358,,1964,275,110,,Sold,,,https://www.redfin.com/MD/Baltimore/4842-Melbourne-Rd-21229/home/11033023,BRIGHT MLS,MDBA535024,N,Y,39.273568,-76.6996518
PAST SALE,December-27-2019,Townhouse,626 Gibson Rd,Baltimore,MD,21229,130000,3,2.0,BEECHFIELD,1008,4527,1964,709,129,,Sold,,,https://www.redfin.com/MD/Baltimore/626-Gibson-Rd-21229/home/11032446,BRIGHT MLS,MDBA469142,N,Y,39.27277,-76.6954201
PAST SALE,,Townhouse,4730 Dartford Ave,Baltimore,MD,21229,132000,,1.0,,1080,1710,1945,,122,,,,,https://www.redfin.com/MD/Baltimore/4730-Dartford-Ave-21229/home/11221303,,,N,Y,39.2829997,-76.6942266
PAST SALE,February-14-2020,Townhouse,14 S Abington Ave,Baltimore,MD,21229,8500,3,1.0,BALTIMORE CITY,1280,,1939,660,7,,Sold,,,https://www.redfin.com/MD/Baltimore/14-S-Abington-Ave-21229/home/10993517,BRIGHT MLS,MDBA490084,N,Y,39.2853861,-76.6713137
PAST SALE,September-14-2020,Townhouse,22 S Bernice Ave,Baltimore,MD,21229,99950,3,1.0,Ward 20,1280,,1940,447,78,,Sold,,,https://www.redfin.com/MD/Baltimore/22-S-Bernice-Ave-21229/home/10993664,BRIGHT MLS,MDBA507686,N,Y,39.285216,-76.6699107
PAST SALE,,Townhouse,3512 Old Frederick Rd,Baltimore,MD,21229,55000,,1.0,,1624,1275,1926,,34,,,,,https://www.redfin.com/MD/Baltimore/3512-Old-Frederick-Rd-21229/home/10991629,,,N,Y,39.282976,-76.6755047
PAST SALE,,Townhouse,147 Siegwart Ln,Baltimore,MD,21229,54000,,1.0,,996,1632,1926,,54,,,,,https://www.redfin.com/MD/Baltimore/147-Siegwart-Ln-21229/home/10991696,,,N,Y,39.2835531,-76.6758436
PAST SALE,,Townhouse,149 Siegwart Ln,Baltimore,MD,21229,81500,,1.0,,996,1760,1926,,82,,,,,https://www.redfin.com/MD/Baltimore/149-Siegwart-Ln-21229/home/10991701,,,N,Y,39.283541,-76.6759107
PAST SALE,January-20-2020,Townhouse,144 Palormo Ave,Baltimore,MD,21229,10000,3,1.0,SAINT JOESPH'S,996,,1920,685,10,,Sold,,,https://www.redfin.com/MD/Baltimore/144-Palormo-Ave-21229/home/10991838,BRIGHT MLS,MDBA464486,N,Y,39.2834506,-76.6753017
PAST SALE,August-20-2021,Townhouse,29 S Hilton St,Baltimore,MD,21229,28600,3,1.0,Ward 20,952,,1923,107,30,,Sold,,,https://www.redfin.com/MD/Baltimore/29-S-Hilton-St-21229/home/10993460,BRIGHT MLS,MDBA2002908,N,Y,39.2856901,-76.6722004
PAST SALE,,Single Family Residential,818 Glen Allen Dr,Baltimore,MD,21229,268950,,2.0,,1984,7096,1927,,136,,,,,https://www.redfin.com/MD/Baltimore/818-Glen-Allen-Dr-21229/home/11218785,,,N,Y,39.2983375,-76.6981221
PAST SALE,October-8-2021,Townhouse,116 N Culver St,Baltimore,MD,21229,185000,3,2.0,Ward 20,1440,1365,1942,58,128,,Sold,,,https://www.redfin.com/MD/Baltimore/116-N-Culver-St-21229/home/10991197,BRIGHT MLS,MDBA2008494,N,Y,39.2881984,-76.6753468
PAST SALE,,Townhouse,3903 Glenhunt Rd,Baltimore,MD,21229,99900,,1.0,,1452,1980,1949,,69,,,,,https://www.redfin.com/MD/Baltimore/3903-Glenhunt-Rd-21229/home/10930859,,,N,Y,39.2998757,-76.6821502
PAST SALE,February-14-2019,Townhouse,623 N Grantley St,Baltimore,MD,21229,55000,3,1.0,BALTIMORE CITY,1250,1250,1920,1025,44,,Sold,,,https://www.redfin.com/MD/Baltimore/623-N-Grantley-St-21229/home/10939717,BRIGHT MLS,MDBA305864,N,Y,39.2950582,-76.6770272
PAST SALE,October-8-2021,Townhouse,236 Collins Ave,Baltimore,MD,21229,33500,3,1.0,Ward 20,1440,,1920,58,23,,Sold,,,https://www.redfin.com/MD/Baltimore/236-Collins-Ave-21229/home/10971787,BRIGHT MLS,MDBA2011132,N,Y,39.282275,-76.683595
PAST SALE,July-29-2020,Single Family Residential,3522 W Caton Ave,Baltimore,MD,21229,95000,4,2.5,Ward 20,3561,5301,1966,494,27,,Sold,,,https://www.redfin.com/MD/Baltimore/3522-W-Caton-Ave-21229/home/10991291,BRIGHT MLS,MDBA504230,N,Y,39.2877713,-76.6753581
PAST SALE,,Townhouse,243 N Monastery Ave,Baltimore,MD,21229,172000,,1.0,,1120,1125,1929,,154,,,,,https://www.redfin.com/MD/Baltimore/243-N-Monastery-Ave-21229/home/10991031,,,N,Y,39.2898283,-76.6737679
PAST SALE,,Townhouse,3703 Edmondson Ave,Baltimore,MD,21229,120000,,2.0,,1498,2205,1920,,80,,,,,https://www.redfin.com/MD/Baltimore/3703-Edmondson-Ave-21229/home/10968837,,,N,Y,39.2936363,-76.67861
PAST SALE,,Townhouse,7 S Monastery Ave,Baltimore,MD,21229,50000,,1.0,,1200,1686,1929,,42,,,,,https://www.redfin.com/MD/Baltimore/7-S-Monastery-Ave-21229/home/10990605,,,N,Y,39.2863202,-76.678093
PAST SALE,August-24-2021,Single Family Residential,5307 Wendley Rd,Baltimore,MD,21229,315000,3,1.5,Ward 28,1648,5340,1927,103,191,,Sold,,,https://www.redfin.com/MD/Baltimore/5307-Wendley-Rd-21229/home/11220603,BRIGHT MLS,MDBA554188,N,Y,39.2859885,-76.7091426
PAST SALE,September-5-2019,Multi-Family (2-4 Unit),3434 W Caton Ave,Baltimore,MD,21229,54500,,,Baltimore,1096,,1938,822,50,,Sold,,,https://www.redfin.com/MD/Baltimore/3434-W-Caton-Ave-21229/home/10992638,BRIGHT MLS,MDBA468352,N,Y,39.286928,-76.67416
PAST SALE,March-15-2019,Townhouse,340 N Hilton St,Baltimore,MD,21229,30200,3,2.0,BALTIMORE CITY,1512,,1917,996,20,,Sold,,,https://www.redfin.com/MD/Baltimore/340-N-Hilton-St-21229/home/10988047,BRIGHT MLS,MDBA303558,N,Y,39.2916043,-76.6729333
PAST SALE,,Townhouse,536 Lucia Ave,Baltimore,MD,21229,150000,,1.0,,896,1804,1955,,167,,,,,https://www.redfin.com/MD/Baltimore/536-Lucia-Ave-21229/home/11027342,,,N,Y,39.2752588,-76.6926461
PAST SALE,October-29-2021,Townhouse,4232 Flowerton Rd,Baltimore,MD,21229,210000,4,2.0,Ward 28,1652,1890,1952,37,127,,Sold,,,https://www.redfin.com/MD/Baltimore/4232-Flowerton-Rd-21229/home/11218332,BRIGHT MLS,MDBA2008938,N,Y,39.2985832,-76.6879314
PAST SALE,August-23-2021,Townhouse,133 N Monastery Ave,Baltimore,MD,21229,100000,2,2.0,Ward 20,1080,,1932,104,93,,Sold,,,https://www.redfin.com/MD/Baltimore/133-N-Monastery-Ave-21229/home/10991126,BRIGHT MLS,MDBA2005596,N,Y,39.2885743,-76.6754127
PAST SALE,August-21-2021,Townhouse,10 N Morley St,Baltimore,MD,21229,42000,3,1.0,Ward 20,1200,,1921,106,35,,Sold,,,https://www.redfin.com/MD/Baltimore/10-N-Morley-St-21229/home/10992627,BRIGHT MLS,MDBA2004198,N,Y,39.2872642,-76.6739934
PAST SALE,September-1-2021,Townhouse,29 N Kossuth St,Baltimore,MD,21229,66000,3,2.0,Ward 20,1216,,1946,95,54,,Sold,,,https://www.redfin.com/MD/Baltimore/29-N-Kossuth-St-21229/home/10992710,BRIGHT MLS,MDBA2002682,N,Y,39.2879286,-76.6738806
PAST SALE,May-21-2021,Townhouse,18 N Morley St,Baltimore,MD,21229,165000,3,2.0,Ward 20,1040,1040,1921,198,159,,Sold,,,https://www.redfin.com/MD/Baltimore/18-N-Morley-St-21229/home/10992623,BRIGHT MLS,MDBA543024,N,Y,39.2873879,-76.6738581
PAST SALE,,Townhouse,202 N Monastery Ave,Baltimore,MD,21229,45000,,1.0,,1014,1125,1930,,44,,,,,https://www.redfin.com/MD/Baltimore/202-N-Monastery-Ave-21229/home/10988242,,,N,Y,39.2894931,-76.674828
PAST SALE,April-25-2019,Townhouse,909 Kevin Rd,Baltimore,MD,21229,99000,3,1.5,ROGNEL HEIGHTS,1352,,1952,955,73,,Sold,,,https://www.redfin.com/MD/Baltimore/909-Kevin-Rd-21229/home/11218392,BRIGHT MLS,MDBA440556,N,Y,39.2973557,-76.688158
PAST SALE,February-11-2021,Townhouse,1209 Haverhill Rd,Baltimore,MD,21229,74000,2,1.5,Ward 25,1050,,1951,297,70,,Sold,,,https://www.redfin.com/MD/Baltimore/1209-Haverhill-Rd-21229/home/11030499,BRIGHT MLS,MDBA521830,N,Y,39.26713,-76.675391
PAST SALE,September-13-2019,Townhouse,815 Mount Holly St,Baltimore,MD,21229,167000,4,2.0,BALTIMORE CITY,1800,,1940,814,93,,Sold,,,https://www.redfin.com/MD/Baltimore/815-Mt-Holly-St-21229/home/10938841,BRIGHT MLS,MDBA479256,N,Y,39.2969602,-76.6797677
PAST SALE,,Townhouse,126 N Monastery Ave,Baltimore,MD,21229,118600,,2.0,,1620,1824,1942,,73,,,,,https://www.redfin.com/MD/Baltimore/126-N-Monastery-Ave-21229/home/10988498,,,N,Y,39.2888553,-76.6756851
PAST SALE,May-20-2021,Townhouse,132 N Monastery Ave,Baltimore,MD,21229,129900,3,2.0,Ward 20,1178,,1942,199,110,,Sold,,,https://www.redfin.com/MD/Baltimore/132-N-Monastery-Ave-21229/home/10988509,BRIGHT MLS,MDBA542030,N,Y,39.2889479,-76.6755385
PAST SALE,July-8-2021,Townhouse,140 N Monastery Ave,Baltimore,MD,21229,195000,3,2.0,Ward 20,1620,,1942,150,120,,Sold,,,https://www.redfin.com/MD/Baltimore/140-N-Monastery-Ave-21229/home/10988520,BRIGHT MLS,MDBA549906,N,Y,39.2891296,-76.6753017
PAST SALE,January-4-2019,Townhouse,149 Denison St,Baltimore,MD,21229,110000,3,2.0,ALLENDALE,1370,4356,1942,1066,80,,Sold,,,https://www.redfin.com/MD/Baltimore/149-Denison-St-21229/home/10988609,BRIGHT MLS,1000456664,N,Y,39.2895517,-76.6755047
PAST SALE,,Single Family Residential,1104 Haverhill Rd,Baltimore,MD,21229,135000,,1.0,,910,4995,1920,,148,,,,,https://www.redfin.com/MD/Baltimore/1104-Haverhill-Rd-21229/home/11029062,,,N,Y,39.2680682,-76.6772189
PAST SALE,August-6-2021,Single Family Residential,1002 Haverhill Rd,Baltimore,MD,21229,325000,4,2.0,Ward 25,1750,9683,1920,121,186,,Sold,,,https://www.redfin.com/MD/Baltimore/1002-Haverhill-Rd-21229/home/11028974,BRIGHT MLS,MDBA2002040,N,Y,39.2698526,-76.6796443
PAST SALE,September-30-2021,Townhouse,3929 Colchester Rd,Baltimore,MD,21229,125000,3,1.5,Ward 25,1105,1360,1949,66,113,,Sold,,,https://www.redfin.com/MD/Baltimore/3929-Colchester-Rd-21229/home/25810653,BRIGHT MLS,MDBA2008898,N,Y,39.2671697,-76.6845945
PAST SALE,May-13-2021,Townhouse,5154 Stafford Rd,Baltimore,MD,21229,180000,4,1.5,Ward 25,2000,2288,1942,206,90,,Sold,,,https://www.redfin.com/MD/Baltimore/5154-Stafford-Rd-21229/home/11031384,BRIGHT MLS,MDBA546036,N,Y,39.2804284,-76.7011477
PAST SALE,August-30-2019,Townhouse,3417 Edmondson Ave,Baltimore,MD,21229,8000,3,1.0,BALTIMORE CITY,1216,,1920,828,7,,Sold,,,https://www.redfin.com/MD/Baltimore/3417-Edmondson-Ave-21229/home/10989284,BRIGHT MLS,MDBA474200,N,Y,39.2938383,-76.6746701
PAST SALE,September-24-2021,Townhouse,320 Denison St,Baltimore,MD,21229,95000,2,1.5,Ward 20,1162,1260,1951,72,82,,Sold,,,https://www.redfin.com/MD/Baltimore/320-Denison-St-21229/home/10988842,BRIGHT MLS,MDBA2006590,N,Y,39.291209,-76.67479
PAST SALE,,Townhouse,208 Denison St,Baltimore,MD,21229,55000,,1.5,,1215,1755,1951,,45,,,,,https://www.redfin.com/MD/Baltimore/208-Denison-St-21229/home/10988974,,,N,Y,39.2901935,-76.6753693
PAST SALE,,Townhouse,210 Denison St,Baltimore,MD,21229,154000,,2.0,,1568,1755,1951,,98,,,,,https://www.redfin.com/MD/Baltimore/210-Denison-St-21229/home/10988977,,,N,Y,39.2902281,-76.6753242
PAST SALE,,Townhouse,3935 W Mulberry St,Baltimore,MD,21229,117500,,1.0,,1368,1620,1923,,86,,,,,https://www.redfin.com/MD/Baltimore/3935-W-Mulberry-St-21229/home/10969689,,,N,Y,39.2914363,-76.6822149
PAST SALE,October-13-2021,Townhouse,4457 Eldone Rd,Baltimore,MD,21229,172000,3,1.5,Ward 25,1280,1487,1955,53,134,,Sold,,,https://www.redfin.com/MD/Baltimore/4457-Eldone-Rd-21229/home/11026502,BRIGHT MLS,MDBA2008736,N,Y,39.2769904,-76.6917666
PAST SALE,,Townhouse,510 Edgewood St,Baltimore,MD,21229,111000,,1.5,,1408,1520,1927,,79,,,,,https://www.redfin.com/MD/Baltimore/510-Edgewood-St-21229/home/10989458,,,N,Y,39.2931132,-76.675719
PAST SALE,September-2-2021,Townhouse,531 Lucia Ave,Baltimore,MD,21229,109000,2,1.0,Ward 25,896,2499,1955,94,122,,Sold,,,https://www.redfin.com/MD/Baltimore/531-Lucia-Ave-21229/home/11027514,BRIGHT MLS,MDBA2008914,N,Y,39.2753161,-76.6920051
PAST SALE,August-12-2021,Townhouse,5210 Greenwich Ave,Baltimore,MD,21229,230000,3,2.0,Ward 28,2074,4356,1950,115,111,,Sold,,,https://www.redfin.com/MD/Baltimore/5210-Greenwich-Ave-21229/home/11220224,BRIGHT MLS,MDBA2002222,N,Y,39.2884413,-76.7106124
PAST SALE,,Townhouse,1015 Cooks Ln,Baltimore,MD,21229,177000,,2.0,,1330,1980,1952,,133,,,,,https://www.redfin.com/MD/Baltimore/1015-Cooks-Ln-21229/home/11219063,,,N,Y,39.2978725,-76.7086198
PAST SALE,,Townhouse,3701 Edmondson Ave,Baltimore,MD,21229,130000,,2.5,,2625,2205,1923,,50,,,,,https://www.redfin.com/MD/Baltimore/3701-Edmondson-Ave-21229/home/10968834,,,N,Y,39.2935973,-76.6785159
PAST SALE,July-7-2020,Townhouse,444 Random Rd,Baltimore,MD,21229,168300,4,2.0,Ward 25,1425,1425,1947,516,118,,Sold,,,https://www.redfin.com/MD/Baltimore/444-Random-Rd-21229/home/11031242,BRIGHT MLS,MDBA509482,N,Y,39.279852,-76.700447
PAST SALE,November-17-2021,Townhouse,728 Linnard St,Baltimore,MD,21229,114480,4,2.0,Ward 16,1360,,1930,18,84,,Sold,,,https://www.redfin.com/MD/Baltimore/728-Linnard-St-21229/home/10940252,BRIGHT MLS,MDBA2014494,N,Y,39.2959843,-76.6760799
PAST SALE,,Townhouse,38 N Rosedale St Unit H,Baltimore,MD,21229,72555,,1.0,,1280,1429,1940,,57,,,,,https://www.redfin.com/MD/Baltimore/38-N-Rosedale-St-21229/unit-H/home/10993045,,,N,Y,39.2870302,-76.6692581
PAST SALE,,Townhouse,103 N Athol Ave,Baltimore,MD,21229,185000,,1.0,,992,1600,1952,,186,,,,,https://www.redfin.com/MD/Baltimore/103-N-Athol-Ave-21229/home/11221728,,,N,Y,39.2873674,-76.6885544
PAST SALE,July-26-2019,Townhouse,3810 Rokeby Rd,Baltimore,MD,21229,139500,3,1.0,EDMONDSON,1440,1440,1948,863,97,,Sold,,,https://www.redfin.com/MD/Baltimore/3810-Rokeby-Rd-21229/home/10930735,BRIGHT MLS,MDBA472500,N,Y,39.2995728,-76.6809067
PAST SALE,April-24-2019,Townhouse,41 Ellamont St,Baltimore,MD,21229,120000,3,1.0,BALTIMORE CITY,1280,3485,1939,956,94,,Sold,,,https://www.redfin.com/MD/Baltimore/41-N-Ellamont-St-21229/home/10993103,BRIGHT MLS,1002100614,N,Y,39.2871047,-76.6702692
PAST SALE,October-24-2019,Townhouse,4516 Mountview Rd,Baltimore,MD,21229,158000,3,2.0,BALTIMORE CITY,1224,3005,1948,773,129,,Sold,,,https://www.redfin.com/MD/Baltimore/4516-Mountview-Rd-21229/home/11221578,BRIGHT MLS,MDBA474856,N,Y,39.2860925,-76.6914621
PAST SALE,April-1-2020,Townhouse,4535 Pen Lucy Rd,Baltimore,MD,21229,48000,3,1.0,Ward 28,1224,,1948,613,39,,Sold,,,https://www.redfin.com/MD/Baltimore/4535-Pen-Lucy-Rd-21229/home/11221514,BRIGHT MLS,MDBA499514,N,Y,39.2867562,-76.692804
PAST SALE,,Single Family Residential,5313 Wendley Rd,Baltimore,MD,21229,243000,,1.0,,1320,5759,1927,,184,,,,,https://www.redfin.com/MD/Baltimore/5313-Wendley-Rd-21229/home/11220600,,,N,Y,39.2856934,-76.7094515
PAST SALE,,Townhouse,4521 Pen Lucy Rd,Baltimore,MD,21229,155000,,1.0,,1536,1920,1948,,101,,,,,https://www.redfin.com/MD/Baltimore/4521-Pen-Lucy-Rd-21229/home/11221507,,,N,Y,39.2870075,-76.6925264
PAST SALE,November-1-2019,Townhouse,4505 Manorview Rd,Baltimore,MD,21229,143000,4,2.0,UPLANDS,1536,3,1948,765,93,,Sold,,,https://www.redfin.com/MD/Baltimore/4505-Manorview-Rd-21229/home/11221549,BRIGHT MLS,MDBA476652,N,Y,39.2866574,-76.6916087
PAST SALE,June-18-2019,Townhouse,3340 Caton Ave W,Baltimore,MD,21229,86500,3,2.0,BALTIMORE CITY,1436,,1930,901,60,,Sold,,,https://www.redfin.com/MD/Baltimore/3340-W-Caton-Ave-21229/home/10992462,BRIGHT MLS,MDBA101448,N,Y,39.2862296,-76.6732772
PAST SALE,July-19-2019,Townhouse,4718 Edmondson Ave,Baltimore,MD,21229,190000,3,2.0,HUNTING RIDGE,1814,4713,1930,870,105,,Sold,,,https://www.redfin.com/MD/Baltimore/4718-Edmondson-Ave-21229/home/11218874,BRIGHT MLS,MDBA461738,N,Y,39.2930563,-76.7002783
PAST SALE,October-13-2021,Townhouse,3568 Benzinger Rd,Baltimore,MD,21229,104000,3,1.5,Ward 25,1260,1470,1950,53,83,,Sold,,,https://www.redfin.com/MD/Baltimore/3568-Benzinger-Rd-21229/home/11028442,BRIGHT MLS,MDBA2011654,N,Y,39.2706923,-76.6789038
PAST SALE,,Townhouse,1114 Seminole Ave,Baltimore,MD,21229,195000,,1.0,,1152,2717,1951,,169,,,,,https://www.redfin.com/MD/Baltimore/1114-Seminole-Ave-21229/home/11218588,,,N,Y,39.2991557,-76.6898193
PAST SALE,April-30-2019,Townhouse,4430 Manorview Rd,Baltimore,MD,21229,155000,4,2.5,UPLANDS,1224,1742,1948,950,127,,Sold,,,https://www.redfin.com/MD/Baltimore/4430-Manorview-Rd-21229/home/11221494,BRIGHT MLS,MDBA438436,N,Y,39.2872484,-76.6914595
PAST SALE,July-23-2020,Townhouse,4508 Mountview Rd,Baltimore,MD,21229,147500,3,2.0,Ward 28,1596,,1948,500,92,,Sold,,,https://www.redfin.com/MD/Baltimore/4508-Mountview-Rd-21229/home/11221574,BRIGHT MLS,MDBA504316,N,Y,39.286284,-76.691271
PAST SALE,,Single Family Residential,405 N Chapel Gate Ln,Baltimore,MD,21229,401699,,3.5,,3292,16466,1986,,122,,,,,https://www.redfin.com/MD/Baltimore/405-N-Chapel-Gate-Ln-21229/home/11220486,,,N,Y,39.2864061,-76.6996712
PAST SALE,October-18-2019,Townhouse,3912 Edmondson Ave,Baltimore,MD,21229,9100,4,1.0,EDMONDSON VILLAGE,1364,,1920,779,7,,Sold,,,https://www.redfin.com/MD/Baltimore/3912-Edmondson-Ave-21229/home/10928846,BRIGHT MLS,1007209752,N,Y,39.2940437,-76.6817502
PAST SALE,,Townhouse,4514 Manorview Rd,Baltimore,MD,21229,157000,,2.0,,1536,2731,1948,,102,,,,,https://www.redfin.com/MD/Baltimore/4514-Manorview-Rd-21229/home/11221531,,,N,Y,39.2867935,-76.6920794
PAST SALE,January-3-2020,Single Family Residential,3206 Strickland St,Baltimore,MD,21229,90000,3,2.0,Ward 20,1204,7967,1820,702,75,,Sold,,,https://www.redfin.com/MD/Baltimore/3206-Strickland-St-21229/home/10973169,BRIGHT MLS,MDBA491174,N,Y,39.2777164,-76.6700234
PAST SALE,,Townhouse,3935 Edmondson Ave,Baltimore,MD,21229,47500,,2.0,,1686,2310,1919,,28,,,,,https://www.redfin.com/MD/Baltimore/3935-Edmondson-Ave-21229/home/10969060,,,N,Y,39.2935189,-76.6823052
PAST SALE,,Townhouse,1046 Rock Hill Ave,Baltimore,MD,21229,130000,,1.0,,1120,1200,1954,,116,,,,,https://www.redfin.com/MD/Baltimore/1046-Rock-Hill-Ave-21229/home/11028832,,,N,Y,39.2692573,-76.6773317
PAST SALE,,Townhouse,4811 Frederick Ave,Baltimore,MD,21229,61000,,1.0,,1200,2080,1941,,51,,,,,https://www.redfin.com/MD/Baltimore/4811-Frederick-Ave-21229/home/11030989,,,N,Y,39.2811932,-76.6949411
PAST SALE,December-31-2019,Townhouse,5016 Frederick Ave,Baltimore,MD,21229,174000,4,2.0,BEECHFIELD,1600,1600,1996,705,109,,Sold,,,https://www.redfin.com/MD/Baltimore/5016-Frederick-Ave-21229/home/11220462,BRIGHT MLS,MDBA484858,N,Y,39.2815829,-76.6986338
PAST SALE,,Townhouse,4624 Rokeby Rd,Baltimore,MD,21229,200000,,3.5,,2276,3472,1937,,88,,,,,https://www.redfin.com/MD/Baltimore/4624-Rokeby-Rd-21229/home/11218750,,,N,Y,39.2958837,-76.6951296
PAST SALE,April-27-2021,Townhouse,102 S Loudon Ave,Baltimore,MD,21229,79000,3,1.0,Ward 20,1204,1307,1920,222,66,,Sold,,,https://www.redfin.com/MD/Baltimore/102-S-Loudon-Ave-21229/home/10971353,BRIGHT MLS,MDBA542218,N,Y,39.2844639,-76.6823164
PAST SALE,November-12-2021,Townhouse,554 Brisbane Rd,Baltimore,MD,21229,113500,3,1.5,Ward 25,1260,,1958,23,90,,Sold,,,https://www.redfin.com/MD/Baltimore/554-Brisbane-Rd-21229/home/11031901,BRIGHT MLS,MDBA2000525,N,Y,39.2752385,-76.6956511
PAST SALE,February-9-2021,Townhouse,605 Allendale St,Baltimore,MD,21229,183000,3,1.0,Ward 16,1200,,1926,299,153,,Sold,,,https://www.redfin.com/MD/Baltimore/605-Allendale-St-21229/home/10939764,BRIGHT MLS,MDBA539530,N,Y,39.2945117,-76.678155
PAST SALE,December-31-2018,Townhouse,588 Lucia Ave,Baltimore,MD,21229,138000,3,2.0,YALE HEIGHTS,1280,1696,1955,1070,108,,Sold,,,https://www.redfin.com/MD/Baltimore/588-Lucia-Ave-21229/home/11027416,BRIGHT MLS,MDBA101928,N,Y,39.2740111,-76.6924256
PAST SALE,,Townhouse,4630 Coleherne Rd,Baltimore,MD,21229,50000,,2.0,,1540,3535,1953,,32,,,,,https://www.redfin.com/MD/Baltimore/4630-Coleherne-Rd-21229/home/11218731,,,N,Y,39.2951095,-76.6955885
PAST SALE,December-30-2020,Townhouse,506 Normandy Ave,Baltimore,MD,21229,40000,3,1.0,Ward 20,1518,,1920,340,26,,Sold,,,https://www.redfin.com/MD/Baltimore/506-Normandy-Ave-21229/home/10969075,BRIGHT MLS,MDBA530174,N,Y,39.2927926,-76.6817977
PAST SALE,January-6-2020,Townhouse,5 N Athol Ave,Baltimore,MD,21229,143200,3,2.0,IRVINGTON,1224,,1989,699,117,,Sold,,,https://www.redfin.com/MD/Baltimore/5-N-Athol-Ave-21229/home/11221742,BRIGHT MLS,MDBA488176,N,Y,39.285522,-76.6885189
PAST SALE,December-12-2019,Townhouse,1206 Pine Heights Ave,Baltimore,MD,21229,175000,3,2.0,VIOLETVILLE,1280,3193,1951,724,137,,Sold,,,https://www.redfin.com/MD/Baltimore/1206-Pine-Heights-Ave-21229/home/11030385,BRIGHT MLS,MDBA485008,N,Y,39.2677228,-76.6748537
PAST SALE,October-8-2019,Townhouse,141 S Collins Ave,Baltimore,MD,21229,99000,3,1.0,IRVINGTON,1564,,1920,789,63,,Sold,,,https://www.redfin.com/MD/Baltimore/141-Collins-Ave-21229/home/10971424,BRIGHT MLS,MDBA474546,N,Y,39.2841821,-76.683151
PAST SALE,,Townhouse,820 N Chapel Gate Ln,Baltimore,MD,21229,117500,,2.0,,1200,2180,1947,,98,,,,,https://www.redfin.com/MD/Baltimore/820-N-Chapel-Gate-Ln-21229/home/11219850,,,N,Y,39.2941195,-76.7074288
PAST SALE,October-22-2020,Townhouse,800 Allendale St,Baltimore,MD,21229,85860,3,1.5,Ward 16,1200,1640,1946,409,72,,Sold,,,https://www.redfin.com/MD/Baltimore/800-Allendale-St-21229/home/10938855,BRIGHT MLS,MDBA523408,N,Y,39.2966039,-76.6787701
PAST SALE,April-8-2020,Townhouse,57 Upmanor Rd,Baltimore,MD,21229,70000,3,1.5,Ward 28,1224,2178,1948,606,57,,Sold,,,https://www.redfin.com/MD/Baltimore/57-Upmanor-Rd-21229/home/11891531,BRIGHT MLS,MDBA492232,N,Y,39.2874194,-76.6896292
PAST SALE,October-10-2019,Townhouse,4723 Amberley Ave,Baltimore,MD,21229,65000,3,1.5,BEECHFIELD,1224,,1930,787,53,,Sold,,,https://www.redfin.com/MD/Baltimore/4723-Amberley-Ave-21229/home/11221161,BRIGHT MLS,MDBA480550,N,Y,39.2820043,-76.6938633
PAST SALE,September-27-2019,Townhouse,37 S Monastery Ave,Baltimore,MD,21229,22000,3,2.0,SAINT JOSEPH,1200,1686,1930,800,18,,Sold,,,https://www.redfin.com/MD/Baltimore/37-S-Monastery-Ave-21229/home/10990568,BRIGHT MLS,MDBA470858,N,Y,39.2858481,-76.6786174
PAST SALE,June-10-2019,Townhouse,9 S Ellamont St,Baltimore,MD,21229,45000,3,1.5,HILTON,1280,,1940,909,35,,Sold,,,https://www.redfin.com/MD/Baltimore/9-S-Ellamont-St-21229/home/10993623,BRIGHT MLS,MDBA440656,N,Y,39.285535,-76.6701701
PAST SALE,,Townhouse,4810 Melbourne Rd,Baltimore,MD,21229,68564,,1.0,,1008,1818,1965,,68,,,,,https://www.redfin.com/MD/Baltimore/4810-Melbourne-Rd-21229/home/11032291,,,N,Y,39.273118,-76.697822
PAST SALE,September-16-2019,Townhouse,403 S Augusta Ave,Baltimore,MD,21229,70000,3,1.5,IRVINGTON - BALTIMORE,1332,,1917,811,53,,Sold,,,https://www.redfin.com/MD/Baltimore/403-S-Augusta-Ave-21229/home/10970519,BRIGHT MLS,MDBA437802,N,Y,39.2798144,-76.6843238
PAST SALE,September-16-2021,Townhouse,4907 Briarclift Rd,Baltimore,MD,21229,195000,3,1.5,Ward 28,1320,2389,1948,80,148,,Sold,,,https://www.redfin.com/MD/Baltimore/4907-Briarclift-Rd-21229/home/11219429,BRIGHT MLS,MDBA2002328,N,Y,39.294224,-76.70552
PAST SALE,October-21-2019,Townhouse,3810 Cranston Ave,Baltimore,MD,21229,144000,4,2.0,EDMONDSON,2680,5000,1938,776,54,,Sold,,,https://www.redfin.com/MD/Baltimore/3810-Cranston-Ave-21229/home/10938563,BRIGHT MLS,MDBA476008,N,Y,39.2966266,-76.6806699
PAST SALE,December-27-2018,Townhouse,592 Beechfield Ave S,Baltimore,MD,21229,137000,3,1.5,NORWOOD HEIGHTS,1008,8712,1960,1074,136,,Sold,,,https://www.redfin.com/MD/Baltimore/592-S-Beechfield-Ave-21229/home/11031995,BRIGHT MLS,1000484142,N,Y,39.273762,-76.693661
PAST SALE,April-23-2021,Townhouse,248 S Loudon Ave,Baltimore,MD,21229,165000,4,2.5,Ward 20,1376,1379,1900,226,120,,Sold,,,https://www.redfin.com/MD/Baltimore/248-S-Loudon-Ave-21229/home/10971207,BRIGHT MLS,MDBA541298,N,Y,39.2825084,-76.6822939
PAST SALE,,Single Family Residential,409 Kingston Rd,Baltimore,MD,21229,275700,,2.0,,1360,5412,1928,,203,,,,,https://www.redfin.com/MD/Baltimore/409-Kingston-Rd-21229/home/11220639,,,N,Y,39.2862395,-76.7085563
PAST SALE,,Single Family Residential,239 S Augusta Ave,Baltimore,MD,21229,103000,,1.0,,1320,5597,1937,,78,,,,,https://www.redfin.com/MD/Baltimore/239-S-Augusta-Ave-21229/home/10971803,,,N,Y,39.2821732,-76.6843536
PAST SALE,November-26-2019,Townhouse,14 N Kossuth St,Baltimore,MD,21229,25000,3,1.0,SAINT JOSEPHS,1280,435,1941,740,20,,Sold,,,https://www.redfin.com/MD/Baltimore/14-N-Kossuth-St-21229/home/10991358,BRIGHT MLS,MDBA488560,N,Y,39.2878379,-76.6745803
PAST SALE,August-14-2020,Townhouse,100 S Morley St,Baltimore,MD,21229,30000,3,1.5,Ward 20,1425,,1930,478,21,,Sold,,,https://www.redfin.com/MD/Baltimore/100-S-Morley-St-21229/home/10992276,BRIGHT MLS,MDBA513322,N,Y,39.2851312,-76.676046
PAST SALE,,Townhouse,3803 Gelston Dr,Baltimore,MD,21229,145000,,1.0,,1208,2149,1932,,120,,,,,https://www.redfin.com/MD/Baltimore/3803-Gelston-Dr-21229/home/10938398,,,N,Y,39.2954684,-76.6806474
PAST SALE,May-7-2021,Townhouse,4240 Flowerton Rd,Baltimore,MD,21229,200000,3,2.0,Ward 28,1152,,1952,212,174,,Sold,,,https://www.redfin.com/MD/Baltimore/4240-Flowerton-Rd-21229/home/11218336,BRIGHT MLS,MDBA538618,N,Y,39.2984806,-76.6882866
PAST SALE,April-30-2020,Townhouse,40 N Abington Ave,Baltimore,MD,21229,12000,2,1.5,Ward 20,930,1306,1926,584,13,,Sold,,,https://www.redfin.com/MD/Baltimore/40-N-Abington-Ave-21229/home/10993388,BRIGHT MLS,MDBA500090,N,Y,39.2867559,-76.6713317
PAST SALE,December-1-2020,Townhouse,3311 Elbert St,Baltimore,MD,21229,165000,3,1.5,Ward 20,1164,,1940,369,142,,Sold,,,https://www.redfin.com/MD/Baltimore/3311-Elbert-St-21229/home/10992396,BRIGHT MLS,MDBA533202,N,Y,39.2867635,-76.6731137
PAST SALE,June-27-2019,Townhouse,135 Siegwart Ln,Baltimore,MD,21229,12000,3,1.0,SAINT JOSEPH'S,996,1000,1926,892,12,,Sold,,,https://www.redfin.com/MD/Baltimore/135-Siegwart-Ln-21229/home/10991676,BRIGHT MLS,MDBA464670,N,Y,39.2837689,-76.67564
PAST SALE,,Townhouse,4219 Colborne Rd,Baltimore,MD,21229,171000,,2.0,,1540,2000,1950,,111,,,,,https://www.redfin.com/MD/Baltimore/4219-Colborne-Rd-21229/home/11218211,,,N,Y,39.2973612,-76.6873461
PAST SALE,January-15-2020,Townhouse,7 S Rosedale St,Baltimore,MD,21229,125000,3,1.0,ALLENDALE,1280,5227,1940,690,98,,Sold,,,https://www.redfin.com/MD/Baltimore/7-S-Rosedale-St-21229/home/10993742,BRIGHT MLS,MDBA485740,N,Y,39.285633,-76.6687835
PAST SALE,,Townhouse,8 N Abington Ave,Baltimore,MD,21229,105000,,1.0,,930,1095,1926,,113,,,,,https://www.redfin.com/MD/Baltimore/8-N-Abington-Ave-21229/home/10993342,,,N,Y,39.2861102,-76.6713319
PAST SALE,,Townhouse,37 Cobber Ln,Baltimore,MD,21229,210000,,1.0,,1224,1602,1988,,172,,,,,https://www.redfin.com/MD/Baltimore/37-Cobber-Ln-21229/home/11221813,,,N,Y,39.2861799,-76.6876618
PAST SALE,October-25-2019,Townhouse,1 S Ellamont St,Baltimore,MD,21229,101000,3,1.5,Baltimore,1780,1440,1940,772,57,,Sold,,,https://www.redfin.com/MD/Baltimore/1-S-Ellamont-St-21229/home/10993616,BRIGHT MLS,MDBA439052,N,Y,39.2857598,-76.6702073
PAST SALE,November-20-2019,Townhouse,5105 Frederick Ave,Baltimore,MD,21229,49500,3,1.0,NORWOOD HEIGHTS,1290,1742,1950,746,38,,Sold,,,https://www.redfin.com/MD/Baltimore/5105-Frederick-Ave-21229/home/11031262,BRIGHT MLS,MDBA488418,N,Y,39.2809616,-76.6993304
PAST SALE,,Single Family Residential,715 Dryden Dr,Baltimore,MD,21229,430000,,4.0,,2460,13430,1927,,175,,,,,https://www.redfin.com/MD/Baltimore/715-Dryden-Dr-21229/home/11219110,,,N,Y,39.2973022,-76.6977643
PAST SALE,August-24-2021,Townhouse,772 Linnard St,Baltimore,MD,21229,80000,3,2.0,Ward 16,1524,,1926,103,52,,Sold,,,https://www.redfin.com/MD/Baltimore/772-Linnard-St-21229/home/10940292,BRIGHT MLS,MDBA555314,N,Y,39.2969345,-76.6749972
PAST SALE,January-10-2020,Townhouse,3815 Harlem Ave,Baltimore,MD,21229,174000,3,3.0,EDMONDSON  VILLAGE,1867,,1929,695,93,,Sold,,,https://www.redfin.com/MD/Baltimore/3815-Harlem-Ave-21229/home/10938179,BRIGHT MLS,MDBA490548,N,Y,39.2949257,-76.6807925
PAST SALE,,Single Family Residential,1023 Haverhill Rd,Baltimore,MD,21229,265000,,2.0,,1373,11970,1920,,193,,,,,https://www.redfin.com/MD/Baltimore/1023-Haverhill-Rd-21229/home/11028293,,,N,Y,39.2690124,-76.6778843
PAST SALE,September-23-2021,Townhouse,1205 N Augusta Ave,Baltimore,MD,21229,205000,4,2.0,Ward 16,1536,2178,1950,73,133,,Sold,,,https://www.redfin.com/MD/Baltimore/1205-N-Augusta-Ave-21229/home/10931208,BRIGHT MLS,MDBA2004830,N,Y,39.300171,-76.685087
PAST SALE,June-9-2020,Townhouse,734 N Edgewood St,Baltimore,MD,21229,155000,3,1.0,Ward 16,1180,,1925,544,131,,Sold,,,https://www.redfin.com/MD/Baltimore/734-Edgewood-St-21229/home/10940073,BRIGHT MLS,MDBA512758,N,Y,39.2961693,-76.6746701
PAST SALE,January-4-2021,Single Family Residential,626 Orpington Rd,Baltimore,MD,21229,285000,3,2.0,MERRIDALE,1595,10890,1921,335,179,,Sold,,,https://www.redfin.com/MD/Baltimore/626-Orpington-Rd-21229/home/9682680,BRIGHT MLS,MDBC512478,N,Y,39.2877603,-76.7144643
PAST SALE,October-30-2020,Townhouse,3505 Wilkens Ave,Baltimore,MD,21229,100000,2,1.5,Ward 25,1050,,1950,401,95,,Sold,,,https://www.redfin.com/MD/Baltimore/3505-Wilkens-Ave-21229/home/11028509,BRIGHT MLS,MDBA523874,N,Y,39.271642,-76.677021
PAST SALE,October-20-2021,Townhouse,4401 Maple Wood Dr,Baltimore,MD,21229,275000,4,2.5,Ward 28,1660,2613,2015,46,166,87,Sold,,,https://www.redfin.com/MD/Baltimore/4401-Maple-Wood-Dr-21229/home/109858682,BRIGHT MLS,MDBA2012538,N,Y,39.2895501,-76.690806
PAST SALE,March-1-2019,Townhouse,626 N Hilton St,Baltimore,MD,21229,18000,4,1.0,EDMONDSON VILLAGE,,,1919,1010,,,Sold,,,https://www.redfin.com/MD/Baltimore/626-N-Hilton-St-21229/home/10939413,BRIGHT MLS,MDBA382178,N,Y,39.2951102,-76.6730122
PAST SALE,March-26-2021,Townhouse,1004 N Augusta Ave,Baltimore,MD,21229,190000,3,1.0,Ward 16,1400,,1947,254,136,,Sold,,,https://www.redfin.com/MD/Baltimore/1004-N-Augusta-Ave-21229/home/10930714,BRIGHT MLS,MDBA544048,N,Y,39.2987007,-76.6854966
PAST SALE,,Townhouse,3414 Wilkens Ave,Baltimore,MD,21229,123000,,1.0,,1720,1344,1927,,72,,,,,https://www.redfin.com/MD/Baltimore/3414-Wilkens-Ave-21229/home/11025769,,,N,Y,39.2730037,-76.6745806
PAST SALE,June-25-2021,Townhouse,3731 Mactavish Ave,Baltimore,MD,21229,177000,3,1.5,Ward 25,1275,871,1951,163,139,,Sold,,,https://www.redfin.com/MD/Baltimore/3731-Mactavish-Ave-21229/home/11029492,BRIGHT MLS,MDBA553664,N,Y,39.2649034,-76.6789787
PAST SALE,October-28-2019,Townhouse,822 Wildwood Pkwy,Baltimore,MD,21229,165000,4,2.0,BALTIMORE CITY,1200,1200,1951,769,138,,Sold,,,https://www.redfin.com/MD/Baltimore/822-Wildwood-Pkwy-21229/home/10930003,BRIGHT MLS,MDBA484964,N,Y,39.2971604,-76.6841546
PAST SALE,,Townhouse,728 Allendale St,Baltimore,MD,21229,72000,,1.0,,1586,1600,1937,,45,,,,,https://www.redfin.com/MD/Baltimore/728-Allendale-St-21229/home/10938355,,,N,Y,39.296347,-76.6787753
PAST SALE,September-28-2021,Townhouse,719 Linnard St,Baltimore,MD,21229,194900,4,2.0,Ward 16,1960,1742,1923,68,99,,Sold,,,https://www.redfin.com/MD/Baltimore/719-Linnard-St-21229/home/10940142,BRIGHT MLS,MDBA2007252,N,Y,39.2957891,-76.6756851
PAST SALE,,Townhouse,5005 W Hills Rd,Baltimore,MD,21229,193000,,2.0,,1582,2043,1949,,122,,,,,https://www.redfin.com/MD/Baltimore/5005-W-Hills-Rd-21229/home/11219569,,,N,Y,39.295209,-76.709467
PAST SALE,April-19-2021,Townhouse,3938 Edmondson Ave,Baltimore,MD,21229,133500,3,2.0,Ward 16,1762,2178,1920,230,76,,Sold,,,https://www.redfin.com/MD/Baltimore/3938-Edmondson-Ave-21229/home/10928877,BRIGHT MLS,MDBA540732,N,Y,39.2940457,-76.6824312
PAST SALE,February-28-2019,Townhouse,4645 Coleherne Rd,Baltimore,MD,21229,165000,3,2.0,BALTIMORE CITY,1500,,1945,1011,110,,Sold,,,https://www.redfin.com/MD/Baltimore/4645-Coleherne-Rd-21229/home/11218669,BRIGHT MLS,MDBA303932,N,Y,39.2946897,-76.6960967
PAST SALE,December-29-2020,Townhouse,629 Denison St,Baltimore,MD,21229,58000,2,1.0,Ward 16,,1306,1921,341,,,Sold,,,https://www.redfin.com/MD/Baltimore/629-Denison-St-21229/home/10939378,BRIGHT MLS,MDBA529552,N,Y,39.2951968,-76.674016
PAST SALE,December-5-2019,Townhouse,3618 Edmondson Ave,Baltimore,MD,21229,26950,4,2.0,EDGEWOOD,,,1926,731,,,Sold,,,https://www.redfin.com/MD/Baltimore/3618-Edmondson-Ave-21229/home/10939796,BRIGHT MLS,MDBA485502,N,Y,39.2942223,-76.6780648
PAST SALE,September-30-2020,Townhouse,608 Allendale St,Baltimore,MD,21229,159900,4,2.0,Ward 16,1360,,1927,431,118,,Sold,,,https://www.redfin.com/MD/Baltimore/608-Allendale-St-21229/home/10937909,BRIGHT MLS,MDBA517882,N,Y,39.2946092,-76.6786512
PAST SALE,,Townhouse,3624 Edmondson Ave,Baltimore,MD,21229,135000,,,,,2058,1926,,,,,,,https://www.redfin.com/MD/Baltimore/3624-Edmondson-Ave-21229/home/10939789,,,N,Y,39.2942485,-76.6782903
PAST SALE,May-7-2021,Townhouse,551 Lucia Ave,Baltimore,MD,21229,113000,2,1.0,Ward 25,1120,,1955,212,101,,Sold,,,https://www.redfin.com/MD/Baltimore/551-Lucia-Ave-21229/home/11027543,BRIGHT MLS,MDBA543274,N,Y,39.2747235,-76.6921134
PAST SALE,,Townhouse,616 Edgewood St,Baltimore,MD,21229,91160,,,,,1660,1921,,,,,,,https://www.redfin.com/MD/Baltimore/616-Edgewood-St-21229/home/10939596,,,N,Y,39.2949221,-76.6758543
PAST SALE,,Townhouse,4 S Tremont Rd,Baltimore,MD,21229,165000,,1.0,,1390,2000,1920,,119,,,,,https://www.redfin.com/MD/Baltimore/4-S-Tremont-Rd-21229/home/11221308,,,N,Y,39.2833953,-76.6952316
PAST SALE,September-21-2021,Townhouse,1026 Stamford Rd,Baltimore,MD,21229,200000,3,1.5,Ward 28,1274,1536,1953,75,157,,Sold,,,https://www.redfin.com/MD/Baltimore/1026-Stamford-Rd-21229/home/11891513,BRIGHT MLS,MDBA555306,N,Y,39.296878,-76.710899
PAST SALE,November-22-2019,Vacant Land,412 N Chapelgate Ln,Baltimore,MD,21229,75000,,,Baltimore,,19127,,744,,,Sold,,,https://www.redfin.com/MD/Baltimore/412-N-Chapel-Gate-Ln-21229/home/11220087,BRIGHT MLS,MDBA100139,N,Y,39.2873095,-76.7006748
PAST SALE,,Townhouse,204 Denison St,Baltimore,MD,21229,88000,,1.5,,1140,1755,1951,,77,,,,,https://www.redfin.com/MD/Baltimore/204-Denison-St-21229/home/10988970,,,N,Y,39.290104,-76.675477
PAST SALE,November-16-2021,Townhouse,611 N Augusta Ave,Baltimore,MD,21229,190000,4,2.0,Ward 16,1544,1742,1930,19,123,,Sold,,,https://www.redfin.com/MD/Baltimore/611-N-Augusta-Ave-21229/home/10928997,BRIGHT MLS,MDBA2010960,N,Y,39.294453,-76.6847749
PAST SALE,,Townhouse,609 Lyndhurst St,Baltimore,MD,21229,138300,,2.0,,1667,1594,1929,,83,,,,,https://www.redfin.com/MD/Baltimore/609-Lyndhurst-St-21229/home/10938144,,,N,Y,39.2945233,-76.6810166
PAST SALE,January-29-2021,Townhouse,602 Lyndhurst St,Baltimore,MD,21229,8500,3,1.0,Ward 16,1480,2180,1920,310,6,,Sold,,,https://www.redfin.com/MD/Baltimore/602-Lyndhurst-St-21229/home/10928936,BRIGHT MLS,MDBA535104,N,Y,39.2943803,-76.6815721
PAST SALE,,Townhouse,4117 Mountwood Rd,Baltimore,MD,21229,110000,,1.0,,960,1706,1949,,115,,,,,https://www.redfin.com/MD/Baltimore/4117-Mountwood-Rd-21229/home/10931153,,,N,Y,39.300699,-76.6848942
PAST SALE,,Townhouse,3615 W Lexington St,Baltimore,MD,21229,125000,,1.0,,840,1605,1951,,149,,,,,https://www.redfin.com/MD/Baltimore/3615-W-Lexington-St-21229/home/10989991,,,N,Y,39.2901639,-76.6771738
