SALE TYPE,SOLD DATE,PROPERTY TYPE,ADDRESS,CITY,STATE OR PROVINCE,ZIP OR POSTAL CODE,PRICE,BEDS,BATHS,LOCATION,SQUARE FEET,LOT SIZE,YEAR BUILT,DAYS ON MARKET,$/SQUARE FEET,HOA/MONTH,STATUS,NEXT OPEN HOUSE START TIME,NEXT OPEN HOUSE END TIME,URL (SEE https://www.redfin.com/buy-a-home/comparative-market-analysis FOR INFO ON PRICING),SOURCE,MLS#,FAVORITE,INTERESTED,LATITUDE,LONGITUDE
MLS Listing,,Single Family Residential,418 Ronsdale Rd,Eldersburg,MD,21784,749000,4,3.5,BERRETT ELECTION DISTRIC,3648,16160,2000,19,205,35,Active,,,https://www.redfin.com/MD/Eldersburg/418-Ronsdale-Rd-21784/home/14453578,BRIGHT MLS,MDCR2003474,N,Y,39.4220043,-76.97675
MLS Listing,,Single Family Residential,7315 1st Ave,Sykesville,MD,21784,489900,3,3.0,FREEDOM ELECTION DISTRIC,2678,7013,1951,32,183,,Active,,,https://www.redfin.com/MD/Sykesville/7315-1st-Ave-21784/home/14443167,BRIGHT MLS,MDCR2003338,N,Y,39.3730435,-76.9701458
PAST SALE,November-24-2020,Single Family Residential,7420 Brandenburg Cir,Sykesville,MD,21784,445000,3,3.5,SHANNON RUN,2496,8030,1998,376,178,,Sold,,,https://www.redfin.com/MD/Sykesville/7420-Brandenburg-Cir-21784/home/14453154,BRIGHT MLS,MDCR200250,N,Y,39.3683185,-76.9813627
PAST SALE,January-9-2020,Single Family Residential,845 Streaker Rd,Sykesville,MD,21784,330900,4,3.0,BERRETT ELECTION DISTRIC,1580,26949,1987,696,209,,Sold,,,https://www.redfin.com/MD/Sykesville/845-Streaker-Rd-21784/home/14468948,BRIGHT MLS,MDCR193334,N,Y,39.41141,-77.0269628
PAST SALE,March-31-2021,Townhouse,1819 Cassandra Dr #182,Eldersburg,MD,21784,282000,3,2.5,RESERVOIR RIDGE,1700,,2014,249,166,230,Sold,,,https://www.redfin.com/MD/Eldersburg/1819-Cassandra-Dr-21784/unit-182/home/85696504,BRIGHT MLS,MDCR202406,N,Y,39.3974389,-76.9306269
PAST SALE,December-13-2019,Single Family Residential,2037 Stillwater Rd,Sykesville,MD,21784,355000,3,1.5,FREEDOM ELECTION DISTRIC,1476,13950,1982,723,241,13,Sold,,,https://www.redfin.com/MD/Sykesville/2037-Stillwater-Rd-21784/home/14436818,BRIGHT MLS,MDCR193018,N,Y,39.403482,-76.9227055
PAST SALE,May-29-2020,Single Family Residential,7450 Brandenburg Cir,Sykesville,MD,21784,495000,4,2.5,FREEDOM ELECTION DISTRIC,2190,8030,1997,555,226,,Sold,,,https://www.redfin.com/MD/Sykesville/7450-Brandenburg-Cir-21784/home/14435749,BRIGHT MLS,MDCR195014,N,Y,39.3669939,-76.9803951
PAST SALE,December-18-2020,Single Family Residential,6538 Tydings Rd,Eldersburg,MD,21784,496500,3,2.5,ELDERSBURG ESTATES,2686,11467,1993,352,185,8,Sold,,,https://www.redfin.com/MD/Eldersburg/6538-Tydings-Rd-21784/home/14452331,BRIGHT MLS,MDCR200930,N,Y,39.3938025,-76.9464694
PAST SALE,October-30-2020,Single Family Residential,717 W Old Liberty Rd,Sykesville,MD,21784,535000,4,3.0,SYKESVILLE,2550,32491,1950,401,210,,Sold,,,https://www.redfin.com/MD/Sykesville/717-W-Old-Liberty-Rd-21784/home/14438177,BRIGHT MLS,MDCR199484,N,Y,39.4356016,-77.0220482
PAST SALE,October-23-2020,Townhouse,1826 Cassandra Dr #136,Eldersburg,MD,21784,269900,3,2.5,RESERVOIR RIDGE,,,2015,408,,230,Sold,,,https://www.redfin.com/MD/Eldersburg/1826-Cassandra-Dr-21784/unit-136/home/108440411,BRIGHT MLS,MDCR198392,N,Y,39.3974389,-76.9306269
PAST SALE,January-13-2020,Townhouse,7310 Jennifer Way,Sykesville,MD,21784,287000,4,2.5,FREEDOM ELECTION DISTRIC,1702,7322,1984,692,169,,Sold,,,https://www.redfin.com/MD/Sykesville/7310-Jennifer-Way-21784/home/14441393,BRIGHT MLS,MDCR193254,N,Y,39.372182,-76.9772337
PAST SALE,November-26-2019,Single Family Residential,22 Martz Rd,Sykesville,MD,21784,445000,3,2.5,CANDLEWICKE,1826,43560,1974,740,244,8,Sold,,,https://www.redfin.com/MD/Sykesville/22-Martz-Rd-21784/home/14475609,BRIGHT MLS,MDCR192250,N,Y,39.3963916,-76.9959656
PAST SALE,May-8-2019,Single Family Residential,5634 Compton Ln,Eldersburg,MD,21784,584900,4,3.5,STONE MANOR II,4788,10200,2002,942,122,60,Sold,,,https://www.redfin.com/MD/Eldersburg/5634-Compton-Ln-21784/home/14468169,BRIGHT MLS,MDCR181788,N,Y,39.4178099,-76.954359
PAST SALE,April-25-2019,Single Family Residential,1102 Dundee Rd,Sykesville,MD,21784,453500,4,3.0,ROLLING HILLS,2844,158123,1963,955,159,,Sold,,,https://www.redfin.com/MD/Sykesville/1102-Dundee-Rd-21784/home/15158302,BRIGHT MLS,MDCR140250,N,Y,39.447465,-76.95891
PAST SALE,May-13-2021,Single Family Residential,591 Noland Dr,Sykesville,MD,21784,561000,5,3.0,BERRETT ELECTION DISTRIC,2275,55757,1978,206,247,,Sold,,,https://www.redfin.com/MD/Sykesville/591-Noland-Dr-21784/home/14467439,BRIGHT MLS,MDCR203550,N,Y,39.3972539,-77.013862
PAST SALE,April-23-2021,Single Family Residential,646 Green Valley Way,Eldersburg,MD,21784,710000,5,4.5,FREEDOM ELECTION DISTRIC,4864,20495,2005,226,146,15,Sold,,,https://www.redfin.com/MD/Eldersburg/646-Green-Valley-Way-21784/home/14425936,BRIGHT MLS,MDCR202976,N,Y,39.4056178,-76.973045
PAST SALE,April-10-2019,Single Family Residential,254 W Obrecht Rd,Sykesville,MD,21784,340000,3,2.0,SYKESVILLE,1344,45782,1982,970,253,,Sold,,,https://www.redfin.com/MD/Sykesville/254-W-Obrecht-Rd-21784/home/14451615,BRIGHT MLS,MDCR181848,N,Y,39.3897425,-77.0181281
PAST SALE,January-4-2021,Single Family Residential,911 Caren Dr,Sykesville,MD,21784,375000,4,2.0,CARROLL SQUARE,1422,17520,1975,335,264,,Sold,,,https://www.redfin.com/MD/Sykesville/911-Caren-Dr-21784/home/14479174,BRIGHT MLS,MDCR200962,N,Y,39.4074963,-76.963563
PAST SALE,October-8-2021,Single Family Residential,6629 Carroll Highlands Rd,Sykesville,MD,21784,535000,4,2.5,FREEDOM ELECTION DISTRIC,1976,24393,1963,58,271,,Sold,,,https://www.redfin.com/MD/Sykesville/6629-Carroll-Highlands-Rd-21784/home/14426497,BRIGHT MLS,MDCR2001978,N,Y,39.39022,-76.918509
PAST SALE,June-7-2019,Townhouse,1014 Larch Ln,Sykesville,MD,21784,284000,3,2.0,PINEY RIDGE VILLAGE,1574,3442,1983,912,180,35,Sold,,,https://www.redfin.com/MD/Sykesville/1014-Larch-Ln-21784/home/14471697,BRIGHT MLS,MDCR187854,N,Y,39.3992999,-76.958707
PAST SALE,October-2-2019,Townhouse,1901 Lennox Dr #29,Eldersburg,MD,21784,254900,3,2.5,RESERVOIR RIDGE,1620,,,795,157,227,Sold,,,https://www.redfin.com/MD/Eldersburg/1901-Lennox-Dr-21784/unit-29/home/40021600,BRIGHT MLS,MDCR191202,N,Y,39.3964955,-76.9306787
PAST SALE,August-12-2021,Townhouse,1117 Pennywort Cir,Eldersburg,MD,21784,368000,4,3.5,FREEDOM ELECTION DISTRIC,2220,1800,2002,115,166,44,Sold,,,https://www.redfin.com/MD/Eldersburg/1117-Pennywort-Cir-21784/home/14474377,BRIGHT MLS,MDCR2000548,N,Y,39.40195,-76.956746
PAST SALE,August-12-2019,Single Family Residential,4380 Capital Dr,Sykesville,MD,21784,507000,4,3.0,OLDE WASH VALLEY,3713,266587,1995,846,137,,Sold,,,https://www.redfin.com/MD/Sykesville/4380-Capital-Dr-21784/home/14425577,BRIGHT MLS,MDCR188736,N,Y,39.453367,-77.007101
PAST SALE,May-28-2021,Single Family Residential,1099 Thames Dr,Eldersburg,MD,21784,592000,4,3.5,FREEDOM ELECTION DISTRIC,2074,27079,1992,191,285,,Sold,,,https://www.redfin.com/MD/Eldersburg/1099-Thames-Dr-21784/home/14429733,BRIGHT MLS,MDCR204052,N,Y,39.4246837,-76.9580464
PAST SALE,November-22-2021,Townhouse,1321 Cabello Ct,Sykesville,MD,21784,360000,3,2.5,FREEDOM ELECTION DISTRIC,1860,2567,2000,13,194,43,Sold,,,https://www.redfin.com/MD/Sykesville/1321-Cabello-Ct-21784/home/14463953,BRIGHT MLS,MDCR2003198,N,Y,39.39849,-76.94924
PAST SALE,November-8-2019,Single Family Residential,6526 Sykesville Rd,Sykesville,MD,21784,240000,2,1.0,CARROLL COUNTY,1280,17859,1954,758,188,,Sold,,,https://www.redfin.com/MD/Sykesville/6526-Sykesville-Rd-21784/home/14446122,BRIGHT MLS,MDCR192090,N,Y,39.3947603,-76.9584367
PAST SALE,September-7-2021,Single Family Residential,6355 Piney Ridge Dr,Sykesville,MD,21784,357000,3,1.5,FREEDOM ELECTION DISTRIC,1375,5471,1982,89,260,35,Sold,,,https://www.redfin.com/MD/Sykesville/6355-Piney-Ridge-Dr-21784/home/14469477,BRIGHT MLS,MDCR2001502,N,Y,39.3995774,-76.9586172
PAST SALE,April-14-2020,Single Family Residential,619 Boulder Ct,Sykesville,MD,21784,374000,3,2.0,BOULDER HILL ESTATES,1790,10594,1996,600,209,,Sold,,,https://www.redfin.com/MD/Sykesville/619-Boulder-Ct-21784/home/14452898,BRIGHT MLS,MDCR195316,N,Y,39.3655143,-76.972988
PAST SALE,August-18-2021,Single Family Residential,6218 Pinyon Pine Ct,Eldersburg,MD,21784,475000,4,2.5,FREEDOM ELECTION DISTRIC,2115,12893,1988,109,225,38,Sold,,,https://www.redfin.com/MD/Eldersburg/6218-Pinyon-Pine-Ct-21784/home/14438742,BRIGHT MLS,MDCR205414,N,Y,39.4043293,-76.9658588
PAST SALE,January-11-2019,Townhouse,6488 Cornwall Dr #12,Eldersburg,MD,21784,245000,3,2.5,RESERVOIR RIDGE,1680,,2009,1059,146,,Sold,,,https://www.redfin.com/MD/Eldersburg/6488-Cornwall-Dr-21784/unit-12/home/28480897,BRIGHT MLS,1002346016,N,Y,39.3968884,-76.9314012
PAST SALE,January-31-2019,Single Family Residential,109 Rockvale Rd,Sykesville,MD,21784,381500,4,2.5,WHITE ROCK,2260,27534,1976,1039,169,,Sold,,,https://www.redfin.com/MD/Sykesville/109-Rockvale-Rd-21784/home/14431978,BRIGHT MLS,1009991136,N,Y,39.3969699,-77.0024466
PAST SALE,May-9-2019,Single Family Residential,415 Ronsdale Rd,Eldersburg,MD,21784,540000,4,3.5,SUMNERS HOLLOW,4348,17810,2001,941,124,37,Sold,,,https://www.redfin.com/MD/Eldersburg/415-Ronsdale-Rd-21784/home/14452651,BRIGHT MLS,MDCR182294,N,Y,39.421788,-76.97765
PAST SALE,January-29-2020,Single Family Residential,7483 Wind Swept Ct,Sykesville,MD,21784,440000,4,3.5,CARROLL FIELDS,2093,7519,1996,676,210,,Sold,,,https://www.redfin.com/MD/Sykesville/7483-Windswept-Ct-21784/home/148203043,BRIGHT MLS,MDCR191712,N,Y,39.3695579,-76.9731497
PAST SALE,November-3-2020,Single Family Residential,7303 R. Oak St,Sykesville,MD,21784,310000,3,2.0,Sykesville,2240,25992,1977,397,138,,Sold,,,https://www.redfin.com/MD/Sykesville/7303-Oak-St-21784/home/14443745,BRIGHT MLS,MDCR199378,N,Y,39.372674,-76.9712434
PAST SALE,January-11-2019,Single Family Residential,5602 Brookside Ct,Sykesville,MD,21784,379900,4,3.0,STRAWBRIDGE ESTATES,2610,31363,1969,1059,146,,Sold,,,https://www.redfin.com/MD/Sykesville/5602-Brookside-Ct-21784/home/14449952,BRIGHT MLS,1009987666,N,Y,39.421332,-76.944598
PAST SALE,November-30-2020,Single Family Residential,7073 Bridle Ct,Sykesville,MD,21784,379900,4,2.0,HILLTOP,2220,10354,1984,370,171,11,Sold,,,https://www.redfin.com/MD/Sykesville/7073-Bridle-Ct-21784/home/14449623,BRIGHT MLS,MDCR199508,N,Y,39.3847672,-76.9346085
PAST SALE,May-15-2020,Single Family Residential,1508 Springlake Way S,Sykesville,MD,21784,399900,4,2.0,STRAWBRIDGE ESTATES,2199,24722,1969,569,182,,Sold,,,https://www.redfin.com/MD/Sykesville/1508-Springlake-Way-S-21784/home/14437813,BRIGHT MLS,MDCR195576,N,Y,39.4215368,-76.9426681
PAST SALE,October-24-2019,Townhouse,1024 Cypress Forest Dr,Sykesville,MD,21784,354000,3,2.5,RAINCLIFFE CENTER,1584,1420,2013,773,223,125,Sold,,,https://www.redfin.com/MD/Sykesville/1024-Cypress-Forest-Dr-21784/home/52356382,BRIGHT MLS,MDCR191090,N,Y,39.3722141,-76.9606716
PAST SALE,September-16-2021,Condo/Co-op,6502 Ridenour Way E Unit 2A,Sykesville,MD,21784,200000,2,2.0,FREEDOM ELECTION DISTRIC,1100,,2001,80,182,300,Sold,,,https://www.redfin.com/MD/Sykesville/6502-Ridenour-Way-E-21784/unit-2A/home/14429993,BRIGHT MLS,MDCR2001562,N,Y,39.393413,-76.91447
PAST SALE,November-17-2020,Single Family Residential,5601 Watson Ct,Eldersburg,MD,21784,675000,5,3.5,SHERLOCK HOLMES ESTATES,3724,48787,1993,383,181,,Sold,,,https://www.redfin.com/MD/Eldersburg/5601-Watson-Ct-21784/home/14470851,BRIGHT MLS,MDCR199482,N,Y,39.4202403,-76.9174161
PAST SALE,August-4-2020,Single Family Residential,6218 Rolling View Dr,Eldersburg,MD,21784,375000,4,2.0,LONG MEADOWS,2386,22320,1959,488,157,,Sold,,,https://www.redfin.com/MD/Eldersburg/6218-Rolling-View-Dr-21784/home/14449087,BRIGHT MLS,MDCR197178,N,Y,39.4036644,-76.9393469
PAST SALE,November-5-2021,Single Family Residential,1800 Pine Knob Rd,Sykesville,MD,21784,575000,3,3.5,FREEDOM ELECTION DISTRIC,2687,152460,1984,30,214,,Sold,,,https://www.redfin.com/MD/Sykesville/1800-Pine-Knob-Rd-21784/home/14450450,BRIGHT MLS,MDCR2002342,N,Y,39.426241,-76.931755
PAST SALE,,Single Family Residential,6278 Pinyon Pine Ct,Sykesville,MD,21784,405000,3,2.5,,2272,7535,1987,,178,,,,,https://www.redfin.com/MD/Sykesville/6278-Pinyon-Pine-Ct-21784/home/14477581,,,N,Y,39.402575,-76.965154
PAST SALE,,Single Family Residential,478 Gaither Rd,Sykesville,MD,21784,670000,,3.5,,5010,30056,2005,,134,,,,,https://www.redfin.com/MD/Sykesville/478-Gaither-Rd-21784/home/10104584,,,N,Y,39.357757,-76.99169
PAST SALE,September-2-2021,Single Family Residential,649 Oklahoma Ave,Sykesville,MD,21784,520000,5,3.5,FREEDOM ELECTION DISTRIC,2600,10890,2005,94,200,,Sold,,,https://www.redfin.com/MD/Sykesville/649-Oklahoma-Ave-21784/home/14455530,BRIGHT MLS,MDCR2000740,N,Y,39.3645785,-76.9747126
PAST SALE,June-12-2020,Townhouse,1306 Sorrell Ct,Eldersburg,MD,21784,340000,3,2.5,TYDINGS ACRES,1944,2500,2000,541,175,42,Sold,,,https://www.redfin.com/MD/Eldersburg/1306-Sorrell-Ct-21784/home/14437416,BRIGHT MLS,MDCR195862,N,Y,39.397839,-76.949434
PAST SALE,August-20-2020,Single Family Residential,6604 Sunset Dr,Sykesville,MD,21784,375000,3,2.0,SWEET AIR ESTATES,1916,21200,1968,472,196,,Sold,,,https://www.redfin.com/MD/Sykesville/6604-Sunset-Dr-21784/home/14425078,BRIGHT MLS,MDCR197910,N,Y,39.392134,-76.918003
PAST SALE,September-30-2019,Single Family Residential,422 Ronsdale Rd,Eldersburg,MD,21784,592000,5,3.5,SUMNERS HOLLOW,3974,16160,2000,797,149,35,Sold,,,https://www.redfin.com/MD/Eldersburg/422-Ronsdale-Rd-21784/home/14434593,BRIGHT MLS,MDCR191250,N,Y,39.4217298,-76.9762119
PAST SALE,July-17-2020,Single Family Residential,1124 Taylor Park Rd,Sykesville,MD,21784,390000,3,1.5,RIVER PARK ESTATES,1344,43560,1966,506,290,,Sold,,,https://www.redfin.com/MD/Sykesville/1124-Taylor-Park-Rd-21784/home/12524883,BRIGHT MLS,MDHW280134,N,Y,39.3396582,-76.9491151
PAST SALE,September-27-2019,Single Family Residential,12730 Milo Ct,Sykesville,MD,21784,835000,4,4.5,TERRAPIN CREEK,4780,49702,2016,800,175,46,Sold,,,https://www.redfin.com/MD/Sykesville/12730-Milo-Ct-21784/home/108437511,BRIGHT MLS,MDHW264642,N,Y,39.3162238,-76.9561369
PAST SALE,June-5-2020,Single Family Residential,5370 Thames Ct,Sykesville,MD,21784,539900,4,2.5,HAMMONDS ESTATES,3388,25097,1991,548,159,,Sold,,,https://www.redfin.com/MD/Sykesville/5370-Thames-Ct-21784/home/14462968,BRIGHT MLS,MDCR195788,N,Y,39.4240295,-76.9566676
PAST SALE,January-25-2021,Single Family Residential,409 Hawkridge Ln,Sykesville,MD,21784,582000,4,3.5,FREEDOM ELECTION DISTRIC,3028,10839,1993,314,192,,Sold,,,https://www.redfin.com/MD/Sykesville/409-Hawkridge-Ln-21784/home/14455971,BRIGHT MLS,MDCR201694,N,Y,39.3767774,-76.9800511
PAST SALE,July-31-2020,Single Family Residential,6229 Pinyon Pine Ct,Sykesville,MD,21784,400000,3,2.5,PINEY RIDGE VILLAGE,2060,5799,1988,492,194,39,Sold,,,https://www.redfin.com/MD/Sykesville/6229-Pinyon-Pine-Ct-21784/home/14475726,BRIGHT MLS,MDCR196950,N,Y,39.4040321,-76.9650824
PAST SALE,August-7-2020,Single Family Residential,1224 Sapphire Ct,Eldersburg,MD,21784,535000,3,3.0,STONE MANOR II,4150,11774,2002,485,129,60,Sold,,,https://www.redfin.com/MD/Eldersburg/1224-Sapphire-Ct-21784/home/14437743,BRIGHT MLS,MDCR197746,N,Y,39.4166296,-76.9523785
PAST SALE,September-30-2021,Single Family Residential,833 Gibbons Rd,Sykesville,MD,21784,625000,4,2.5,FREEDOM ELECTION DISTRIC,2972,49049,2004,66,210,,Sold,,,https://www.redfin.com/MD/Sykesville/833-Gibbons-Rd-21784/home/14450957,BRIGHT MLS,MDCR2000118,N,Y,39.4174908,-76.964682
PAST SALE,March-26-2020,Single Family Residential,418 Obrecht Rd,Sykesville,MD,21784,585000,6,4.5,SYKESVILLE,6097,174153,1986,619,96,,Sold,,,https://www.redfin.com/MD/Sykesville/418-Obrecht-Rd-21784/home/14442509,BRIGHT MLS,MDCR190442,N,Y,39.382818,-76.9879459
PAST SALE,November-18-2021,Single Family Residential,5688 Mineral Hill Rd,Sykesville,MD,21784,425000,3,2.5,FREEDOM ELECTION DISTRIC,2032,20020,1987,17,209,,Sold,,,https://www.redfin.com/MD/Sykesville/5688-Mineral-Hill-Rd-21784/home/14446262,BRIGHT MLS,MDCR2002862,N,Y,39.4178477,-76.914315
PAST SALE,June-28-2019,Single Family Residential,746 Sussex Ct,Eldersburg,MD,21784,550000,4,2.5,EDGEWOOD,3089,39664,2000,891,178,39,Sold,,,https://www.redfin.com/MD/Eldersburg/746-Sussex-Ct-21784/home/14425862,BRIGHT MLS,MDCR187368,N,Y,39.4167373,-76.967164
PAST SALE,April-18-2019,Townhouse,1913 Lennox Dr #193,Eldersburg,MD,21784,240000,3,2.5,RESERVOIR RIDGE,1680,,2013,962,143,237,Sold,,,https://www.redfin.com/MD/Eldersburg/1913-Lennox-Dr-21784/unit-193/home/56710454,BRIGHT MLS,MDCR167438,N,Y,39.3957435,-76.9293158
PAST SALE,,Single Family Residential,794 Iron Gate Cir,Eldersburg,MD,21784,431000,,2.5,,2188,29446,1978,,197,,,,,https://www.redfin.com/MD/Eldersburg/794-Iron-Gate-Cir-21784/home/14435803,,,N,Y,39.4311599,-76.9679342
MLS Listing,,Single Family Residential,7518 Gaither Rd,Sykesville,MD,21784,439000,3,2.5,BERRETT ELECTION DISTRIC,2440,17500,1962,3,180,,Active,,,https://www.redfin.com/MD/Sykesville/7518-Gaither-Rd-21784/home/14480111,BRIGHT MLS,MDCR2003930,N,Y,39.3665317,-76.9949166
MLS Listing,,Single Family Residential,6003 Oklahoma Rd,Eldersburg,MD,21784,465000,3,2.5,FREEDOM ELECTION DISTRIC,1346,12980,1995,3,345,11,Active,,,https://www.redfin.com/MD/Eldersburg/6003-Oklahoma-Rd-21784/home/14438155,BRIGHT MLS,MDCR2003720,N,Y,39.4094581,-76.9252253
MLS Listing,,Single Family Residential,1124 Dundee Rd,Sykesville,MD,21784,360000,3,2.0,BERRETT ELECTION DISTRIC,2376,43167,1973,3,152,,Active,December-5-2021 01:00 PM,December-5-2021 03:00 PM,https://www.redfin.com/MD/Sykesville/1124-Dundee-Rd-21784/home/14441371,BRIGHT MLS,MDCR2003856,N,Y,39.4482586,-76.957637
MLS Listing,,Single Family Residential,12629 Howard Lodge Dr,Sykesville,MD,21784,525000,3,2.0,INDIAN HILL,1801,70132,1964,3,292,,Active,December-5-2021 01:00 PM,December-5-2021 03:00 PM,https://www.redfin.com/MD/Sykesville/12629-Howard-Lodge-Dr-21784/home/10083251,BRIGHT MLS,MDHW2007152,N,Y,39.3377896,-76.9505555
MLS Listing,,Single Family Residential,6816 Littlewood Ct,Sykesville,MD,21784,414900,4,3.5,FREEDOM ELECTION DISTRIC,2928,5967,1988,4,142,,Active,December-5-2021 01:00 PM,December-5-2021 03:00 PM,https://www.redfin.com/MD/Sykesville/6816-Littlewood-Ct-21784/home/15157332,BRIGHT MLS,MDCR2003838,N,Y,39.3876214,-76.9365558
MLS Listing,,Townhouse,1900 Lennox Dr #46,Eldersburg,MD,21784,289000,3,2.5,FREEDOM ELECTION DISTRIC,1720,,2011,4,168,249,Active,,,https://www.redfin.com/MD/Eldersburg/1900-Lennox-Dr-21784/unit-46/home/44596236,BRIGHT MLS,MDCR2003792,N,Y,39.3969217,-76.9306314
MLS Listing,,Single Family Residential,112 Heritage Ln,Sykesville,MD,21784,439000,4,3.0,BERRETT ELECTION DISTRIC,2161,52272,1984,4,203,,Active,,,https://www.redfin.com/MD/Sykesville/112-Heritage-Ln-21784/home/14446370,BRIGHT MLS,MDCR2003882,N,Y,39.4477663,-76.9986769
MLS Listing,,Single Family Residential,6511 Tydings Rd,Eldersburg,MD,21784,460000,3,2.5,FREEDOM ELECTION DISTRIC,2320,11552,1994,4,198,19,Active,,,https://www.redfin.com/MD/Eldersburg/6511-Tydings-Rd-21784/home/14445480,BRIGHT MLS,MDCR2003824,N,Y,39.3959384,-76.9477197
MLS Listing,,Townhouse,1425 Four Point Ct,Eldersburg,MD,21784,324900,3,2.5,FREEDOM ELECTION DISTRIC,,,1994,5,,105,Active,,,https://www.redfin.com/MD/Eldersburg/1425-4-Point-Ct-21784/home/143729635,BRIGHT MLS,MDCR2003832,N,Y,39.399809,-76.946631
MLS Listing,,Single Family Residential,7658 Gaither Rd,Sykesville,MD,21784,448000,3,3.0,BERRETT ELECTION DISTRIC,2435,87076,1988,5,184,,Active,,,https://www.redfin.com/MD/Eldersburg/7658-Gaither-Rd-21784/home/14467367,BRIGHT MLS,MDCR2003652,N,Y,39.3629954,-76.9953797
MLS Listing,,Single Family Residential,5929 Snowdens Run Rd,Sykesville,MD,21784,475000,3,1.5,FREEDOM ELECTION DISTRIC,1584,22118,1973,8,300,,Active,,,https://www.redfin.com/MD/Sykesville/5929-Snowdens-Run-Rd-21784/home/14439769,BRIGHT MLS,MDCR2003718,N,Y,39.410081,-76.912713
MLS Listing,,Single Family Residential,321 Quail Dr,Sykesville,MD,21784,420000,3,2.5,BERRETT ELECTION DISTRIC,1452,43255,1977,9,289,,Active,,,https://www.redfin.com/MD/Sykesville/321-Quail-Dr-21784/home/14469454,BRIGHT MLS,MDCR2003622,N,Y,39.4196093,-76.9809425
MLS Listing,,Single Family Residential,6410 Candlewicke Ct,Sykesville,MD,21784,475000,4,2.5,BERRETT ELECTION DISTRIC,2200,50965,1974,14,216,8,Active,,,https://www.redfin.com/MD/Sykesville/6410-Candlewicke-Ct-21784/home/14461250,BRIGHT MLS,MDCR2003370,N,Y,39.396864,-76.997586
MLS Listing,,Single Family Residential,5116 Bushey Rd,Sykesville,MD,21784,360000,3,1.0,BERRETT ELECTION DISTRIC,1120,47829,1966,18,321,,Active,,,https://www.redfin.com/MD/Sykesville/5116-Bushey-Rd-21784/home/14459085,BRIGHT MLS,MDCR2003628,N,Y,39.4338779,-77.0151118
MLS Listing,,Single Family Residential,6506 Monroe Ave,Sykesville,MD,21784,414900,4,2.0,FREEDOM ELECTION DISTRIC,1536,16700,1959,24,270,,Active,,,https://www.redfin.com/MD/Sykesville/6506-Monroe-Ave-21784/home/14455460,BRIGHT MLS,MDCR2003480,N,Y,39.3964158,-76.9259448
MLS Listing,,Single Family Residential,930 Windriver Dr,Sykesville,MD,21784,649000,4,3.0,SYKESVILLE,2556,309712,1991,31,254,,Active,,,https://www.redfin.com/MD/Sykesville/930-Windriver-Dr-21784/home/10082767,BRIGHT MLS,MDHW2006670,N,Y,39.3406129,-76.9519059
MLS Listing,,Single Family Residential,4305 Coolidge Ct,Sykesville,MD,21784,404995,3,3.0,BERRETT ELECTION DISTRIC,1305,21011,1979,39,310,,Active,,,https://www.redfin.com/MD/Sykesville/4305-Coolidge-Ct-21784/home/14430003,BRIGHT MLS,MDCR2003300,N,Y,39.4548694,-76.9874996
MLS Listing,,Single Family Residential,5 Clas Dr,Eldersburg,MD,21784,915990,4,2.5,CLAS FARM,2950,48787,2022,40,311,,Active,,,https://www.redfin.com/MD/Eldersburg/5-Clas-DR-21784/home/176965743,BRIGHT MLS,MDCR2003262,N,Y,39.38678141,-77.00527835
MLS Listing,,Single Family Residential,157 Klees Ml,Sykesville,MD,21784,525000,5,2.5,BARRETT,2996,28270,1890,58,175,,Active,,,https://www.redfin.com/MD/Sykesville/157-Klees-Mill-Rd-21784/home/14449521,BRIGHT MLS,MDCR2002894,N,Y,39.4490793,-76.9897582
MLS Listing,,Single Family Residential,5588 Linton Rd,Sykesville,MD,21784,639900,5,2.5,BERRETT ELECTION DISTRIC,2672,48439,1984,61,239,,Active,December-5-2021 12:00 PM,December-5-2021 03:00 PM,https://www.redfin.com/MD/Sykesville/5588-Linton-Rd-21784/home/14449995,BRIGHT MLS,MDCR2002522,N,Y,39.42158,-76.98590999
MLS Listing,,Single Family Residential,6026 Old Washington Rd,Sykesville,MD,21784,499900,5,4.0,BERRETT ELECTION DISTRIC,3248,16879,1900,72,154,,Active,,,https://www.redfin.com/MD/Sykesville/6026-Old-Washington-Rd-21784/home/14477366,BRIGHT MLS,MDCR2002670,N,Y,39.4087868,-77.0153129
MLS Listing,,Single Family Residential,Lot 2 Rascal Dr,Eldersburg,MD,21784,872990,4,3.5,BERRETT ELECTION DISTRIC,500,152373,2021,72,1746,,Active,,,https://www.redfin.com/MD/Eldersburg/Lot-2-Rascal-DR-21784/home/175852335,BRIGHT MLS,MDCR2002782,N,Y,39.42742434,-77.00782212
MLS Listing,,Single Family Residential,Lot 3 Rascal Dr,Eldersburg,MD,21784,994990,4,4.5,BERRETT ELECTION DISTRIC,5200,311323,2022,72,191,,Active,,,https://www.redfin.com/MD/Eldersburg/Lot-3-Rascal-DR-21784/home/177346824,BRIGHT MLS,MDCR2002784,N,Y,39.42663472,-77.00735774
MLS Listing,,Single Family Residential,Lot 1 Rascal Dr,Eldersburg,MD,21784,845990,4,3.5,BERRETT ELECTION DISTRIC,2950,137693,2022,73,287,,Active,,,https://www.redfin.com/MD/Eldersburg/Lot-1-1st-St-21784/home/175848299,BRIGHT MLS,MDCR2002764,N,Y,39.42660136,-77.00719681
MLS Listing,,Single Family Residential,2 Clas Dr,Eldersburg,MD,21784,1049990,4,3.5,CLAS FARM,3300,56628,2022,74,318,,Active,,,https://www.redfin.com/MD/Sykesville/2-2nd-St-21784/home/175618680,BRIGHT MLS,MDCR2002748,N,Y,39.38681873,-77.00510669
MLS Listing,,Single Family Residential,1 Clas Dr,Eldersburg,MD,21784,968990,4,3.5,CLAS FARM,3550,48787,2022,76,273,,Active,,,https://www.redfin.com/MD/Eldersburg/1-1st-St-21784/home/171817717,BRIGHT MLS,MDCR2002654,N,Y,39.38681873,-77.00520862
MLS Listing,,Single Family Residential,7 Clas Dr,Eldersburg,MD,21784,905990,4,2.5,CLAS FARM,2950,52707,2022,76,307,,Active,,,https://www.redfin.com/MD/Eldersburg/6351-Oklahoma-Rd-21784/home/145955433,BRIGHT MLS,MDCR2002650,N,Y,39.3995642,-76.9311425
MLS Listing,,Single Family Residential,599 Elyse Ct,Sykesville,MD,21784,550000,4,2.5,BERRETT ELECTION DISTRIC,2060,57064,1978,82,267,,Active,,,https://www.redfin.com/MD/Sykesville/599-Elyse-Ct-21784/home/14459387,BRIGHT MLS,MDCR2002496,N,Y,39.3961697,-77.0169865
MLS Listing,,Single Family Residential,222 Lincoln Ln,Sykesville,MD,21784,729000,4,2.5,PRESIDENTIAL PARK,2788,86684,2021,86,261,,Active,,,https://www.redfin.com/MD/Eldersburg/222-Lincoln-Ln-21784/home/176353878,BRIGHT MLS,MDCR2002306,N,Y,39.4567466,-76.9870172
MLS Listing,,Vacant Land,Old Bartholow Rd,Sykesville,MD,21784,450000,,,ELDERSBURG,,59677,,115,,,Active,,,https://www.redfin.com/MD/Eldersburg/Old-Bartholow-Rd-21784/home/176101893,BRIGHT MLS,MDCR2001770,N,Y,39.4075274,-76.95112011
MLS Listing,,Single Family Residential,12645 Old Frederick Rd,Sykesville,MD,21784,1750000,4,3.0,SYKESVILLE,4563,1157825,1925,146,384,,Active,,,https://www.redfin.com/MD/Sykesville/12645-Old-Frederick-Rd-21784/home/10083013,BRIGHT MLS,MDHW2000492,N,Y,39.318842,-76.95286
MLS Listing,,Single Family Residential,4955 Old Washington Rd,Sykesville,MD,21784,609950,3,2.5,Sykesville,2000,319730,2020,184,305,,Active,,,https://www.redfin.com/MD/Sykesville/4955-Old-Washington-Rd-21784/home/173832746,BRIGHT MLS,MDCR205220,N,Y,39.4337925,-77.0091559
MLS Listing,,Vacant Land,5805 Bartholow Rd,Sykesville,MD,21784,375000,,,FREEDOM ELECTION DISTRIC,,81892,,261,,,Active,,,https://www.redfin.com/MD/Eldersburg/5805-Bartholow-Rd-21784/home/174754238,BRIGHT MLS,MDCR203198,N,Y,39.4150242,-76.9552367
MLS Listing,,Vacant Land,1739 Underwood Rd,Sykesville,MD,21784,400000,,,WILLOWBROOKE,,221720,,318,,100,Active,,,https://www.redfin.com/MD/Sykesville/1739-Underwood-Rd-21784/home/167116412,BRIGHT MLS,MDHW289786,N,Y,39.3207231,-76.9788635
MLS Listing,,Vacant Land,Gaither Rd,Sykesville,MD,21784,189000,,,Sykesville,,160736,,574,,,Active,,,https://www.redfin.com/MD/SYKESVILLE/GAITHER-RD-21784/home/10108831,BRIGHT MLS,MDCR196486,N,Y,39.37143469,-76.98720955
MLS Listing,,Vacant Land,5712 Hodges Rd,Sykesville,MD,21784,625000,,,Sykesville,,683892,,621,,,Active,,,https://www.redfin.com/MD/Sykesville/5712-Hodges-Rd-21784/home/14456968,BRIGHT MLS,MDCR195436,N,Y,39.418253,-76.956574
New Construction Home,,Townhouse,1114 Owen Way,Sykesville,MD,21784,523765,3,2.5,Parkside at Warfield,1926,,2021,87,272,,Active,,,https://www.redfin.com/MD/Sykesville/1114-Owen-WAY-21784/home/176705249,NewHomeSource.com,2077780,N,Y,39.3772,-76.9654
New Construction Home,,Townhouse,1112 Owen Way,Sykesville,MD,21784,480115,3,2.5,Parkside at Warfield,1926,,2021,87,249,,Active,,,https://www.redfin.com/MD/Sykesville/1112-Owen-WAY-21784/home/176705248,NewHomeSource.com,2077781,N,Y,39.3772,-76.9654
New Construction Plan,,Townhouse,Ellicott Rear Load Garage,Sykesville,MD,21784,494990,3,2.5,Parkside at Warfield,2326,,,,213,,Active,,,https://www.redfin.com/MD/Sykesville/Parkside-at-Warfield/Ellicott-Rear-Load-Garage/home/177499555,NewHomeSource.com,Plan-171610412,N,Y,39.3773496,-76.9645986
New Construction Plan,,Townhouse,Arcadia Rear Load Garage,Sykesville,MD,21784,454990,3,2.5,Parkside at Warfield,1926,,,,236,,Active,,,https://www.redfin.com/MD/Sykesville/Parkside-at-Warfield/Arcadia-Rear-Load-Garage/home/177481076,NewHomeSource.com,Plan-171610411,N,Y,39.3773496,-76.9645986
PAST SALE,January-22-2021,Single Family Residential,1400 Underwood Rd,Sykesville,MD,21784,2895000,7,8.5,SYKESVILLE,16577,2138796,2009,317,175,,Sold,,,https://www.redfin.com/MD/Sykesville/1400-Underwood-Rd-21784/home/50665387,BRIGHT MLS,MDHW270336,N,Y,39.334791,-76.988809
PAST SALE,January-31-2020,Single Family Residential,636 White Cloud Ct,Eldersburg,MD,21784,869900,5,4.5,POOLDALE,6336,86815,2017,674,137,25,Sold,,,https://www.redfin.com/MD/Eldersburg/636-White-Cloud-Ct-21784/home/105425525,BRIGHT MLS,MDCR191820,N,Y,39.442794,-76.9752117
PAST SALE,April-30-2021,Vacant Land,Lot 1 Old Washington Rd,Sykesville,MD,21784,179000,,,Sykesville,,139392,,219,,,Sold,,,https://www.redfin.com/MD/Sykesville/Lot-1-Old-Washington-RD-21784/home/168978869,BRIGHT MLS,MDCR199172,N,Y,39.42645882,-77.00973147
PAST SALE,April-2-2021,Townhouse,2010 Rudy Serra Dr Unit B,Eldersburg,MD,21784,227000,2,2.0,FREEDOM ELECTION DISTRIC,,,,247,,260,Sold,,,https://www.redfin.com/MD/Eldersburg/2010-Rudy-Serra-Dr-21784/unit-B/home/15157237,BRIGHT MLS,MDCR202736,N,Y,39.3945248,-76.9237857
PAST SALE,October-1-2021,Single Family Residential,7320 Spout Hill Rd,Sykesville,MD,21784,470500,4,3.0,FREEDOM ELECTION DISTRIC,2388,11979,1954,65,197,,Sold,,,https://www.redfin.com/MD/Sykesville/7320-Spout-Hill-Rd-21784/home/14475021,BRIGHT MLS,MDCR2001842,N,Y,39.3733182,-76.9718896
PAST SALE,,Vacant Land,12209 Mayapple Dr,Marriottsville,MD,21104,351577,,,,,41774,,,,,,,,https://www.redfin.com/MD/Marriottsville/12209-Mayapple-Dr-21104/home/170727510,,,N,Y,39.3414826,-76.9354481
PAST SALE,November-6-2019,Townhouse,7474 Willow Bottom Rd,Sykesville,MD,21784,361200,3,2.5,RAINCLIFFE CENTER,1960,1820,2013,760,184,125,Sold,,,https://www.redfin.com/MD/Sykesville/7474-Willow-Bottom-Rd-21784/home/52356390,BRIGHT MLS,MDCR182370,N,Y,39.371661514,-76.96069309
PAST SALE,September-20-2019,Single Family Residential,1817 Fallstaff Ct,Eldersburg,MD,21784,425000,4,2.5,RESERVOIR RIDGE,2118,11178,1994,807,201,,Sold,,,https://www.redfin.com/MD/Eldersburg/1817-Fallstaff-Ct-21784/home/14426812,BRIGHT MLS,MDCR190456,N,Y,39.394538,-76.9301631
PAST SALE,February-8-2019,Townhouse,6282 Meadowcroft Rd,Eldersburg,MD,21784,285000,3,2.5,PINEY RIDGE VILLAGE,1816,1800,1995,1031,157,42,Sold,,,https://www.redfin.com/MD/Eldersburg/6282-Meadowcroft-Rd-21784/home/14472739,BRIGHT MLS,MDCR153776,N,Y,39.401629,-76.95482
PAST SALE,April-24-2019,Single Family Residential,201 Riverview Ct,Sykesville,MD,21784,500000,4,2.5,PATAPSCO VALLEY OVERLOOK,3531,11235,2001,956,142,72,Sold,,,https://www.redfin.com/MD/Eldersburg/201-Riverview-Trl-21784/home/14431449,BRIGHT MLS,MDCR191690,N,Y,39.3648402,-76.9872847
PAST SALE,March-29-2019,Single Family Residential,6260 Oakland Mills Rd,Sykesville,MD,21784,257575,3,2.0,SYKESVILLE,1384,65340,1927,982,186,,Sold,,,https://www.redfin.com/MD/Sykesville/6260-Oakland-Mills-Rd-21784/home/14435360,BRIGHT MLS,MDCR174462,N,Y,39.4021618,-76.8972948
PAST SALE,September-30-2020,Single Family Residential,2307 Erin Rd,Sykesville,MD,21784,591000,4,2.5,MERRYMAN HEIGHTS,2548,49223,1967,431,232,,Sold,,,https://www.redfin.com/MD/Sykesville/2307-Erin-Rd-21784/home/14470506,BRIGHT MLS,MDCR198370,N,Y,39.4228334,-76.9152178
PAST SALE,March-11-2020,Townhouse,6288 Samara Cir,Eldersburg,MD,21784,315000,3,3.0,FREEDOM ELECTION DISTRIC,1792,3497,2001,634,176,37,Sold,,,https://www.redfin.com/MD/Eldersburg/6288-Samara-Cir-21784/home/14452570,BRIGHT MLS,MDCR194030,N,Y,39.401783,-76.956957
PAST SALE,June-15-2021,Single Family Residential,6365 Barnett Ave,Sykesville,MD,21784,285000,2,1.0,FREEDOM ELECTION DISTRIC,900,13895,1962,173,317,,Sold,,,https://www.redfin.com/MD/Sykesville/6365-Barnett-Ave-21784/home/14436126,BRIGHT MLS,MDCR203826,N,Y,39.3990255,-76.9506465
PAST SALE,August-18-2020,Single Family Residential,6300 Freedom Ave,Sykesville,MD,21784,300000,3,1.0,SYKESVILLE,1372,23522,1960,474,219,,Sold,,,https://www.redfin.com/MD/Sykesville/6300-Freedom-Ave-21784/home/14437989,BRIGHT MLS,MDCR196666,N,Y,39.400599,-76.963095
PAST SALE,July-25-2019,Single Family Residential,5908 Forest Ct,Sykesville,MD,21784,395000,4,3.0,ROLLING VIEW,2476,17859,1973,864,160,,Sold,,,https://www.redfin.com/MD/Sykesville/5908-Forest-Ct-21784/home/14453392,BRIGHT MLS,MDCR187360,N,Y,39.4114938,-76.9159941
PAST SALE,October-28-2020,Single Family Residential,5393 Sykesville Rd,Sykesville,MD,21784,550000,4,3.5,FREEDOM FOREST,2596,110642,1999,403,212,,Sold,,,https://www.redfin.com/MD/Sykesville/5393-Sykesville-Rd-21784/home/14436091,BRIGHT MLS,MDCR199038,N,Y,39.427676,-76.93604
PAST SALE,December-14-2020,Single Family Residential,5882 Mineral Hill Rd,Sykesville,MD,21784,350000,5,3.5,SYKESVILLE,4124,19033,1940,356,85,,Sold,,,https://www.redfin.com/MD/Sykesville/5882-Mineral-Hill-Rd-21784/home/14469713,BRIGHT MLS,MDCR199872,N,Y,39.410561,-76.909386
PAST SALE,June-30-2020,Single Family Residential,6511 Marvin Ave,Sykesville,MD,21784,350000,3,2.0,Sykesville,1840,12525,1951,523,190,,Sold,,,https://www.redfin.com/MD/Sykesville/6511-Marvin-Ave-21784/home/14465138,BRIGHT MLS,MDCR196766,N,Y,39.3958691,-76.9268071
PAST SALE,August-16-2019,Single Family Residential,6713 Carroll Highlands Rd,Sykesville,MD,21784,343900,4,2.0,CARROLL HIGHLANDS,2110,23289,1964,842,163,,Sold,,,https://www.redfin.com/MD/Sykesville/6713-Carroll-Highlands-Rd-21784/home/15157703,BRIGHT MLS,MDCR190360,N,Y,39.387951,-76.917991
PAST SALE,November-17-2021,Single Family Residential,5808 Oklahoma Rd,Sykesville,MD,21784,420000,3,2.5,FREEDOM ELECTION DISTRIC,2584,20395,1971,18,163,,Sold,,,https://www.redfin.com/MD/Sykesville/5808-Oklahoma-Rd-21784/home/14428001,BRIGHT MLS,MDCR2000125,N,Y,39.4154996,-76.918557
PAST SALE,,Single Family Residential,1022 Johnsville Rd,Sykesville,MD,21784,300000,,1.5,,1320,20037,1970,,227,,,,,https://www.redfin.com/MD/Sykesville/1022-Johnsville-Rd-21784/home/14446873,,,N,Y,39.4099074,-76.9600209
PAST SALE,June-7-2019,Single Family Residential,6819 Ridge Rd,Marriottsville,MD,21104,365000,3,2.0,CARROLL HIGHLANDS,1932,20000,1968,912,189,,Sold,,,https://www.redfin.com/MD/Marriottsville/6819-Ridge-Rd-21104/home/14466418,BRIGHT MLS,MDCR187690,N,Y,39.3863849,-76.923096
PAST SALE,February-3-2021,Single Family Residential,5804 Oklahoma Rd,Sykesville,MD,21784,410000,3,2.5,FREEDOM ELECTION DISTRIC,2560,20386,1971,305,160,,Sold,,,https://www.redfin.com/MD/Sykesville/5804-Oklahoma-Rd-21784/home/15157663,BRIGHT MLS,MDCR201494,N,Y,39.4156007,-76.9178298
PAST SALE,March-27-2020,Single Family Residential,5907 Forest Ct,Sykesville,MD,21784,332000,3,2.0,FREEDOM ELECTION DISTRIC,1480,15681,1972,618,224,,Sold,,,https://www.redfin.com/MD/Sykesville/5907-Forest-Ct-21784/home/14438828,BRIGHT MLS,MDCR194718,N,Y,39.41133,-76.9153965
PAST SALE,July-9-2020,Single Family Residential,6544 Church St,Sykesville,MD,21784,250000,3,1.5,FLOHRVILLE,1308,8929,1949,514,191,,Sold,,,https://www.redfin.com/MD/Sykesville/6544-Church-St-21784/home/14453510,BRIGHT MLS,MDCR196914,N,Y,39.3923103,-76.9658714
PAST SALE,January-29-2021,Single Family Residential,2711 Old Liberty Rd,Sykesville,MD,21784,269000,3,2.0,SYKESVILLE,1248,12000,1922,310,216,,Sold,,,https://www.redfin.com/MD/Sykesville/2711-Old-Liberty-Rd-21784/home/14456601,BRIGHT MLS,MDCR200474,N,Y,39.3959157,-76.8986
PAST SALE,,Single Family Residential,2130 Winton Ct,Eldersburg,MD,21784,1014069,,4.0,,6854,40016,2019,,148,,,,,https://www.redfin.com/MD/Eldersburg/2130-Winton-Ct-21784/home/143433241,,,N,Y,39.4153123,-76.9240177
PAST SALE,April-23-2019,Condo/Co-op,2023 Rudy Serra Dr Unit 2-C,Sykesville,MD,21784,192500,2,2.0,WINIFRED MANOR,872,,2002,957,221,235,Sold,,,https://www.redfin.com/MD/Eldersburg/2023-Rudy-Serra-Dr-21784/unit-2C/home/14451490,BRIGHT MLS,MDCR181884,N,Y,39.39539,-76.924476
PAST SALE,,Single Family Residential,1695 Gemini Dr,Sykesville,MD,21784,320000,,1.0,,1560,8259,1980,,205,,,,,https://www.redfin.com/MD/Sykesville/1695-Gemini-Dr-21784/home/14465644,,,N,Y,39.3932951,-76.9381314
PAST SALE,December-14-2018,Single Family Residential,1110 Underwood Rd,Sykesville,MD,21784,465000,4,2.0,GERBER KNOLL,1942,106722,1962,1087,239,,Sold,,,https://www.redfin.com/MD/Sykesville/1110-Underwood-Rd-21784/home/10101805,BRIGHT MLS,1010005156,N,Y,39.3401538,-76.9874677
PAST SALE,April-9-2021,Single Family Residential,6116 Rolling View Dr,Sykesville,MD,21784,485000,4,3.5,FREEDOM ELECTION DISTRIC,3376,21874,1963,240,144,,Sold,,,https://www.redfin.com/MD/Sykesville/6116-Rolling-View-Dr-21784/home/14436116,BRIGHT MLS,MDCR202534,N,Y,39.4063398,-76.9339853
PAST SALE,July-10-2020,Single Family Residential,913 Dixon Ave,Sykesville,MD,21784,352000,3,1.5,Sykesville,1874,17424,1962,513,188,,Sold,,,https://www.redfin.com/MD/Sykesville/913-Dixon-Ave-21784/home/14441520,BRIGHT MLS,MDCR197294,N,Y,39.398231,-76.9640299
PAST SALE,January-31-2020,Single Family Residential,2054 Harvest Farm Rd,Eldersburg,MD,21784,443500,4,3.5,QUAIL MEADOW,3269,11312,1999,674,136,24,Sold,,,https://www.redfin.com/MD/Eldersburg/2054-Harvest-Farm-Rd-21784/home/14453344,BRIGHT MLS,MDCR189998,N,Y,39.3906032,-76.9251404
PAST SALE,October-8-2021,Single Family Residential,6436 Sykesville Rd,Sykesville,MD,21784,340000,4,3.0,FREEDOM ELECTION DISTRIC,2404,17600,1955,58,141,,Sold,,,https://www.redfin.com/MD/Sykesville/6436-Sykesville-Rd-21784/home/14468623,BRIGHT MLS,MDCR204702,N,Y,39.3960258,-76.9576844
PAST SALE,July-15-2021,Single Family Residential,5527 Mineral Hill Rd,Sykesville,MD,21784,394500,3,2.5,FREEDOM ELECTION DISTRIC,2072,17990,1965,143,190,,Sold,,,https://www.redfin.com/MD/Sykesville/5527-Mineral-Hill-Rd-21784/home/14437309,BRIGHT MLS,MDCR204642,N,Y,39.421566,-76.915014
PAST SALE,June-4-2019,Townhouse,1901 Lennox Dr #36,Eldersburg,MD,21784,250000,3,2.5,RESERVOIR RIDGE,1680,,,915,149,227,Sold,,,https://www.redfin.com/MD/Eldersburg/1901-Lennox-Dr-21784/unit-36/home/28647133,BRIGHT MLS,MDCR181812,N,Y,39.3964955,-76.9306787
PAST SALE,September-25-2019,Townhouse,1819 Cassandra Dr #184,Eldersburg,MD,21784,265000,3,2.5,RESERVOIR RIDGE,,,2014,802,,230,Sold,,,https://www.redfin.com/MD/Eldersburg/1819-Cassandra-Dr-21784/unit-184/home/85696506,BRIGHT MLS,MDCR190776,N,Y,39.3974389,-76.9306269
PAST SALE,May-11-2020,Single Family Residential,5894 Mineral Hill Rd,Sykesville,MD,21784,291000,3,2.0,SYKESVILLE/ELDERSBURG,1256,50355,1950,573,232,,Sold,,,https://www.redfin.com/MD/Sykesville/5894-Mineral-Hill-Rd-21784/home/15157643,BRIGHT MLS,MDCR195530,N,Y,39.410691,-76.90786
PAST SALE,May-7-2021,Single Family Residential,6217 Oak Hill Dr,Sykesville,MD,21784,475000,3,2.5,FREEDOM ELECTION DISTRIC,2334,19602,1970,212,204,,Sold,,,https://www.redfin.com/MD/Sykesville/6217-Oak-Hill-Dr-21784/home/15157459,BRIGHT MLS,MDCR203404,N,Y,39.4035014,-76.9152373
PAST SALE,June-3-2019,Single Family Residential,7498 Windswept Ct,Sykesville,MD,21784,416000,4,3.5,CARROLL FIELDS,2824,8188,1996,916,147,,Sold,,,https://www.redfin.com/MD/Sykesville/7498-Windswept-Ct-21784/home/14443585,BRIGHT MLS,1002282022,N,Y,39.3683667,-76.9737711
PAST SALE,May-26-2020,Single Family Residential,3637 Pleasant Meadow Ct,Eldersburg,MD,21784,560000,4,3.5,WOOLERYS ELECTION DISTRI,3198,66908,2016,558,175,8,Sold,,,https://www.redfin.com/MD/Sykesville/3637-Pleasant-Meadow-Ct-21784/home/105425637,BRIGHT MLS,MDCR194406,N,Y,39.4717319,-76.9525595
PAST SALE,April-15-2020,Single Family Residential,3630 Pleasant Meadow Ct,Eldersburg,MD,21784,615000,5,3.5,WOOLERYS ELECTION DISTRI,4594,58545,2015,599,134,8,Sold,,,https://www.redfin.com/MD/Westminster/3630-Pleasant-Meadow-Ct-21784/home/101852437,BRIGHT MLS,MDCR193916,N,Y,39.4727377,-76.9527519
PAST SALE,October-21-2019,Single Family Residential,5927 Grace Lee Ave,Sykesville,MD,21784,432000,4,2.0,CARROLL ESTATES,2172,35283,1970,776,199,,Sold,,,https://www.redfin.com/MD/Sykesville/5927-Grace-Lee-Ave-21784/home/14471859,BRIGHT MLS,MDCR191308,N,Y,39.4107431,-77.033007
PAST SALE,May-18-2021,Single Family Residential,13886 Forsythe Rd,Sykesville,MD,21784,790000,4,2.5,SYKESVILLE,4428,261360,1996,201,178,,Sold,,,https://www.redfin.com/MD/Sykesville/13886-Forsythe-Rd-21784/home/10109144,BRIGHT MLS,MDHW291808,N,Y,39.3447028,-76.9965721
PAST SALE,,Single Family Residential,6609 Wexford Ln,Eldersburg,MD,21784,388000,,2.0,,1242,7337,1983,,312,,,,,https://www.redfin.com/MD/Eldersburg/6609-Wexford-Ln-21784/home/14450903,,,N,Y,39.3925391,-76.9367359
PAST SALE,December-14-2018,Single Family Residential,3772 London Bridge Rd,Sykesville,MD,21784,475000,4,3.0,STANSFIELD ESTATES,3420,155074,1998,1087,139,,Sold,,,https://www.redfin.com/MD/Sykesville/3772-London-Bridge-Rd-21784/home/14460999,BRIGHT MLS,MDCR100274,N,Y,39.4719573,-76.9535263
PAST SALE,,Single Family Residential,12575 Indian Hill Dr,Sykesville,MD,21784,499900,5,3.0,,2709,52272,1968,,185,,,,,https://www.redfin.com/MD/Sykesville/12575-Indian-Hill-Dr-21784/home/10085309,,,N,Y,39.3339413,-76.9487775
PAST SALE,April-28-2021,Single Family Residential,6274 White Birch Rd,Eldersburg,MD,21784,696000,4,3.5,FREEDOM ELECTION DISTRIC,3744,14381,2002,221,186,51,Sold,,,https://www.redfin.com/MD/Eldersburg/6274-White-Birch-Rd-21784/home/14436517,BRIGHT MLS,MDCR203090,N,Y,39.4040272,-76.9691201
PAST SALE,July-10-2020,Single Family Residential,4229 London Bridge Rd,Sykesville,MD,21784,580000,3,2.5,Sykesville,2780,153810,1990,513,209,,Sold,,,https://www.redfin.com/MD/Sykesville/4229-London-Bridge-Rd-21784/home/14436542,BRIGHT MLS,MDCR196880,N,Y,39.4561948,-76.9546291
PAST SALE,March-12-2021,Single Family Residential,5503 Strawbridge Ter,Eldersburg,MD,21784,450000,4,3.0,FREEDOM ELECTION DISTRIC,2174,36459,1969,268,207,,Sold,,,https://www.redfin.com/MD/Eldersburg/5503-Strawbridge-Ter-21784/home/14464661,BRIGHT MLS,MDCR202326,N,Y,39.4233176,-76.9467969
PAST SALE,August-14-2019,Single Family Residential,953 High Stepper Trl,Sykesville,MD,21784,715000,4,3.5,RIVER DOWNS,3715,152460,1992,844,192,,Sold,,,https://www.redfin.com/MD/Sykesville/953-High-Stepper-Trl-21784/home/10091370,BRIGHT MLS,MDHW251040,N,Y,39.3465416,-76.9409674
PAST SALE,June-19-2020,Single Family Residential,638 Sideling Ct,Sykesville,MD,21784,650000,4,2.5,GAITHERS SIDELING,4996,165092,1990,534,130,,Sold,,,https://www.redfin.com/MD/Sykesville/638-Sideling-Ct-21784/home/10108873,BRIGHT MLS,MDHW276778,N,Y,39.3561034,-76.9945023
PAST SALE,September-20-2019,Single Family Residential,1220 Canterbury Dr,Eldersburg,MD,21784,450000,4,2.5,CARROLL WINDE,3222,44867,1987,807,140,,Sold,,,https://www.redfin.com/MD/Sykesville/1220-Canterbury-Dr-21784/home/14466971,BRIGHT MLS,MDCR190958,N,Y,39.463681,-76.952051
PAST SALE,September-20-2019,Single Family Residential,1241 Canterbury Dr,Sykesville,MD,21784,410000,3,2.5,CARROLL WINDE,2360,49223,1988,807,174,,Sold,,,https://www.redfin.com/MD/Sykesville/1241-Canterbury-Dr-21784/home/14458443,BRIGHT MLS,MDCR190388,N,Y,39.4654801,-76.9504205
PAST SALE,July-14-2021,Single Family Residential,12237 Mayapple Dr,Sykesville,MD,21784,1030465,6,6.5,Sykesville,6463,55539,2021,144,159,,Sold,,,https://www.redfin.com/MD/Sykesville/12237-Mayapple-DR-21784/home/171306862,BRIGHT MLS,MDHW2001806,N,Y,39.36391,-76.96669
PAST SALE,May-11-2020,Single Family Residential,1238 Canterbury Dr,Sykesville,MD,21784,470000,4,2.5,CARROLL WINDE,2306,78408,1990,573,204,,Sold,,,https://www.redfin.com/MD/Sykesville/1238-Canterbury-Dr-21784/home/14450754,BRIGHT MLS,MDCR195252,N,Y,39.4664058,-76.952266
PAST SALE,July-3-2019,Vacant Land,6388 Sykesville Rd,Sykesville,MD,21784,63000,,,SYKESVILLE,,222678,,886,,,Sold,,,https://www.redfin.com/MD/Eldersburg/6388-Sykesville-Rd-21784/home/14463991,BRIGHT MLS,1000080067,N,Y,39.398659,-76.956902
PAST SALE,June-30-2021,Single Family Residential,1090 Thames Dr,Eldersburg,MD,21784,580000,4,3.5,FREEDOM ELECTION DISTRIC,3203,63946,1992,158,181,,Sold,,,https://www.redfin.com/MD/Eldersburg/1090-Thames-Dr-21784/home/14441368,BRIGHT MLS,MDCR204634,N,Y,39.4254834,-76.9576223
PAST SALE,,Single Family Residential,824 Mayfair Way,Eldersburg,MD,21784,605000,,2.5,,2974,13287,2001,,203,,,,,https://www.redfin.com/MD/Eldersburg/824-Mayfair-Way-21784/home/14441354,,,N,Y,39.4146239,-76.9661636
PAST SALE,August-9-2019,Single Family Residential,1330 Jay Rd,Eldersburg,MD,21784,495000,5,2.5,ELDERSBURG ESTATES,3538,15060,2000,849,140,19,Sold,,,https://www.redfin.com/MD/Eldersburg/1330-Jay-Rd-21784/home/14428602,BRIGHT MLS,MDCR189230,N,Y,39.3928351,-76.9515908
PAST SALE,October-15-2019,Townhouse,1015 Cypress Forest Dr,Sykesville,MD,21784,417000,3,3.0,RAINCLIFFE CENTER,2412,3423,2015,782,173,125,Sold,,,https://www.redfin.com/MD/Sykesville/1015-Cypress-Forest-Dr-21784/home/52913551,BRIGHT MLS,MDCR190392,N,Y,39.3723073,-76.9601401
PAST SALE,March-27-2020,Single Family Residential,1200 Underwood Rd,Sykesville,MD,21784,915000,6,6.0,SYKESVILLE,6565,174240,2003,618,139,,Sold,,,https://www.redfin.com/MD/Sykesville/1200-Underwood-Rd-21784/home/10101599,BRIGHT MLS,MDHW271848,N,Y,39.3379614,-76.9871902
PAST SALE,May-21-2019,Single Family Residential,12635 Howard Lodge Dr,Sykesville,MD,21784,511000,4,2.5,INDIAN HILL,2166,71003,1969,929,236,,Sold,,,https://www.redfin.com/MD/Sykesville/12635-Howard-Lodge-Dr-21784/home/10085760,BRIGHT MLS,MDHW250446,N,Y,39.3376978,-76.9515007
PAST SALE,October-27-2021,Single Family Residential,12280 Howard Lodge Dr,Sykesville,MD,21784,750000,4,3.0,Sykesville,3139,273121,1973,39,239,,Sold,,,https://www.redfin.com/MD/Sykesville/12280-Howard-Lodge-Dr-21784/home/10085372,BRIGHT MLS,MDHW2004688,N,Y,39.3390056,-76.9400446
PAST SALE,,Single Family Residential,625 Boulder Ct,Sykesville,MD,21784,465000,,2.5,,1960,12179,1996,,237,,,,,https://www.redfin.com/MD/Sykesville/625-Boulder-Ct-21784/home/14451911,,,N,Y,39.3651814,-76.9733388
PAST SALE,June-2-2021,Single Family Residential,2317 Storm Cat Ct,Eldersburg,MD,21784,925000,4,4.5,FREEDOM ELECTION DISTRIC,6486,222156,2015,186,143,45,Sold,,,https://www.redfin.com/MD/Eldersburg/2317-Storm-Cat-Ct-21784/home/85696508,BRIGHT MLS,MDCR203784,N,Y,39.4171542,-76.9079574
PAST SALE,October-29-2021,Single Family Residential,7629 Maple Ave,Sykesville,MD,21784,312500,2,2.0,FREEDOM ELECTION DISTRIC,966,10018,1939,37,323,,Sold,,,https://www.redfin.com/MD/Sykesville/7629-Maple-Ave-21784/home/14453977,BRIGHT MLS,MDCR2002248,N,Y,39.3640466,-76.9663539
PAST SALE,,Condo/Co-op,1830 Vincenza Dr Unit G,Eldersburg,MD,21784,125000,,,,,,,,,,,,,https://www.redfin.com/MD/Eldersburg/1830-Vincenza-Dr-21784/unit-G/home/14480767,,,N,Y,39.390698,-76.931098
PAST SALE,December-1-2020,Single Family Residential,631 Sideling Ct,Sykesville,MD,21784,840000,5,5.0,GAITHERS SIDELING,5738,292723,1990,369,146,,Sold,,,https://www.redfin.com/MD/Sykesville/631-Sideling-Ct-21784/home/10108848,BRIGHT MLS,MDHW281344,N,Y,39.3535116,-76.997652
PAST SALE,March-20-2020,Single Family Residential,6447 Othello Dr,Eldersburg,MD,21784,400000,4,2.5,FREEDOM ELECTION DISTRIC,1916,9678,1999,625,209,,Sold,,,https://www.redfin.com/MD/Eldersburg/6447-Othello-Dr-21784/home/14469549,BRIGHT MLS,MDCR193976,N,Y,39.3947611,-76.9314237
PAST SALE,May-16-2019,Single Family Residential,6457 Daniel Ct,Eldersburg,MD,21784,432900,4,2.5,BENJAMINS CLAIM,2823,7000,1996,934,153,18,Sold,,,https://www.redfin.com/MD/Eldersburg/6457-Daniel-Ct-21784/home/14472407,BRIGHT MLS,MDCR182276,N,Y,39.3959907,-76.9514982
PAST SALE,,Condo/Co-op,1825 Vincenza Dr Unit D,Eldersburg,MD,21784,155000,,,,,,,,,,,,,https://www.redfin.com/MD/Eldersburg/1825-Vincenza-Dr-21784/unit-D/home/14477315,,,N,Y,39.3903798,-76.9315812
PAST SALE,June-19-2020,Single Family Residential,6104 Oak Hill Dr,Eldersburg,MD,21784,490000,6,3.5,FREEDOM FOREST,3656,19602,1972,534,134,,Sold,,,https://www.redfin.com/MD/Eldersburg/6104-Oak-Hill-Dr-21784/home/14437429,BRIGHT MLS,MDCR196208,N,Y,39.4017531,-76.9169715
PAST SALE,May-29-2019,Single Family Residential,805 Old Liberty Rd,Sykesville,MD,21784,335000,4,2.5,Sykesville,1960,31363,1950,921,171,,Sold,,,https://www.redfin.com/MD/Sykesville/805-Old-Liberty-Rd-21784/home/14437727,BRIGHT MLS,MDCR181838,N,Y,39.4074129,-76.9671809
PAST SALE,,Other,OPEN SPACE,SYKESVILLE,MD,21784,225000,,,,,403366,,,,,,,,https://www.redfin.com/MD/SYKESVILLE/OPEN-SPACE-21784/home/14453352,,,N,Y,39.429763,-77.014227
PAST SALE,May-7-2021,Single Family Residential,6613 Sweet Air Ln,Sykesville,MD,21784,450000,3,2.5,FREEDOM ELECTION DISTRIC,2220,15420,1976,212,203,,Sold,,,https://www.redfin.com/MD/Sykesville/6613-Sweet-Air-Ln-21784/home/14468634,BRIGHT MLS,MDCR204080,N,Y,39.3910279,-76.9170029
PAST SALE,October-14-2019,Single Family Residential,5704 Hodges Rd,Sykesville,MD,21784,280000,3,3.0,HAMMONDS ESTATES,1728,39988,1992,783,162,,Sold,,,https://www.redfin.com/MD/Sykesville/5704-Hodges-Rd-21784/home/14454177,BRIGHT MLS,MDCR190532,N,Y,39.4171578,-76.9553576
PAST SALE,May-13-2019,Single Family Residential,5833 Melville Rd,Sykesville,MD,21784,355000,4,2.5,OAKLAND HILLS,1922,35457,1964,937,185,,Sold,,,https://www.redfin.com/MD/Sykesville/5833-Melville-Rd-21784/home/14463947,BRIGHT MLS,MDCR182386,N,Y,39.4127201,-76.9021575
PAST SALE,May-10-2019,Single Family Residential,6611 Marvin Ave,Sykesville,MD,21784,303000,3,2.0,RIDGELY PARK,1107,18704,1965,940,274,,Sold,,,https://www.redfin.com/MD/Sykesville/6611-Marvin-Ave-21784/home/14434932,BRIGHT MLS,1001932648,N,Y,39.3932211,-76.9277646
PAST SALE,May-23-2019,Single Family Residential,6018 Snowdens Run Rd,Sykesville,MD,21784,345000,3,2.0,ACORN VILLAGE,1666,41469,1972,927,207,,Sold,,,https://www.redfin.com/MD/Sykesville/6018-Snowdens-Run-Rd-21784/home/15157597,BRIGHT MLS,MDCR187608,N,Y,39.408592,-76.916815
PAST SALE,February-27-2019,Single Family Residential,6622 Marvin Ave,Sykesville,MD,21784,300000,3,2.0,RIDGELY PARK,1508,24437,1968,1012,199,,Sold,,,https://www.redfin.com/MD/Sykesville/6622-Marvin-Ave-21784/home/15157677,BRIGHT MLS,MDCR118476,N,Y,39.3919659,-76.9289026
PAST SALE,March-31-2021,Single Family Residential,6513 Carroll Highlands Rd,Sykesville,MD,21784,344000,3,2.0,FREEDOM ELECTION DISTRIC,1540,20186,1956,249,223,,Sold,,,https://www.redfin.com/MD/Sykesville/6513-Carroll-Highlands-Rd-21784/home/14435250,BRIGHT MLS,MDCR202276,N,Y,39.394158,-76.922495
PAST SALE,August-16-2019,Single Family Residential,912 Hallford St,Sykesville,MD,21784,310000,3,1.5,FREEDOM HEIGHTS,1232,19253,1967,842,252,,Sold,,,https://www.redfin.com/MD/Sykesville/912-Hallford-St-21784/home/14476901,BRIGHT MLS,MDCR182478,N,Y,39.397817,-76.964436
PAST SALE,,Single Family Residential,1017 Grandview Ave,Sykesville,MD,21784,309000,,1.0,,1230,10480,1952,,251,,,,,https://www.redfin.com/MD/Sykesville/1017-Grandview-Ave-21784/home/14428407,,,N,Y,39.396054,-76.9593927
PAST SALE,April-30-2019,Single Family Residential,6225 N Walnut Ave,Sykesville,MD,21784,238000,2,1.0,Sykesville,1420,12594,1947,950,168,,Sold,,,https://www.redfin.com/MD/Sykesville/6225-Walnut-Ave-21784/home/14473569,BRIGHT MLS,1009965446,N,Y,39.4026962,-76.9414455
PAST SALE,June-12-2020,Single Family Residential,2330 Erin Rd,Sykesville,MD,21784,500000,4,3.0,MERRYMAN HEIGHTS,3177,87556,1968,541,157,,Sold,,,https://www.redfin.com/MD/Sykesville/2330-Erin-Rd-21784/home/14465645,BRIGHT MLS,MDCR196104,N,Y,39.424342,-76.913419
PAST SALE,September-8-2020,Single Family Residential,5925 Snowdens Run Rd,Sykesville,MD,21784,425000,4,2.5,ACORN VILLAGE,2232,17732,1972,453,190,,Sold,,,https://www.redfin.com/MD/Sykesville/5925-Snowdens-Run-Rd-21784/home/15157644,BRIGHT MLS,MDCR197656,N,Y,39.4103438,-76.9125445
PAST SALE,July-27-2020,Single Family Residential,5900 Dale Dr,Sykesville,MD,21784,415000,4,2.5,CARROLL SQUARE,2028,20767,1970,496,205,,Sold,,,https://www.redfin.com/MD/Sykesville/5900-Dale-Dr-21784/home/14427722,BRIGHT MLS,MDCR197300,N,Y,39.4116508,-76.9616281
PAST SALE,October-2-2020,Single Family Residential,5328 Wendy Rd,Sykesville,MD,21784,400000,3,2.5,MERRYMAND HEIGHTS,1498,57064,1966,429,267,,Sold,,,https://www.redfin.com/MD/Sykesville/5328-Wendy-Rd-21784/home/14436279,BRIGHT MLS,MDCR199294,N,Y,39.430818,-76.915408
PAST SALE,November-19-2019,Single Family Residential,32 Amin Ct,Eldersburg,MD,21784,686893,4,2.5,Eldersburg,2650,,2019,747,259,8,Sold,,,https://www.redfin.com/MD/Eldersburg/32-Amin-Ct-21784/home/148423945,BRIGHT MLS,MDCR134666,N,Y,39.40943501,-76.92298511
PAST SALE,June-24-2019,Single Family Residential,2101 Curtis Ct,Sykesville,MD,21784,405000,4,3.0,SWEET AIR ESTATES,1340,19166,1967,895,302,,Sold,,,https://www.redfin.com/MD/Sykesville/2101-Curtis-Ct-21784/home/14444784,BRIGHT MLS,MDCR188496,N,Y,39.3927188,-76.9204834
PAST SALE,June-12-2020,Single Family Residential,6216 N Walnut Ave,Sykesville,MD,21784,319000,3,2.0,Sykesville,1630,15246,1954,541,196,,Sold,,,https://www.redfin.com/MD/Sykesville/6216-Walnut-Ave-21784/home/15157590,BRIGHT MLS,MDCR196270,N,Y,39.4037633,-76.9416711
PAST SALE,October-14-2019,Single Family Residential,6632 Church St,Sykesville,MD,21784,325000,3,2.0,Sykesville,1586,10815,1900,783,205,,Sold,,,https://www.redfin.com/MD/Sykesville/6632-Church-St-21784/home/14462171,BRIGHT MLS,MDCR191590,N,Y,39.3905401,-76.9655723
PAST SALE,,Single Family Residential,6204 Long Meadow Dr,Sykesville,MD,21784,315000,,1.5,,1622,21000,1967,,194,,,,,https://www.redfin.com/MD/Sykesville/6204-Long-Meadow-Dr-21784/home/14429791,,,N,Y,39.4048803,-76.9403308
PAST SALE,June-25-2020,Single Family Residential,304 Clark Dr,Sykesville,MD,21784,440000,4,3.0,BLOOMFIELD MANOR,2380,23304,1972,528,185,,Sold,,,https://www.redfin.com/MD/Sykesville/304-Clark-Dr-21784/home/14457873,BRIGHT MLS,MDCR195980,N,Y,39.3756918,-76.9857952
PAST SALE,June-16-2020,Single Family Residential,1302 Hillcrest Dr,Sykesville,MD,21784,454000,5,3.0,STRAWBRIDGE ESTATES,2482,20000,1968,537,183,,Sold,,,https://www.redfin.com/MD/Sykesville/1302-Hillcrest-Dr-21784/home/14470186,BRIGHT MLS,MDCR196336,N,Y,39.4216443,-76.9494756
PAST SALE,May-14-2021,Single Family Residential,6021 Oakland Mills Rd,Sykesville,MD,21784,342700,3,1.0,FREEDOM ELECTION DISTRIC,1080,20856,1947,205,317,,Sold,,,https://www.redfin.com/MD/Sykesville/6021-Oakland-Mills-Rd-21784/home/14467848,BRIGHT MLS,MDCR203522,N,Y,39.40845,-76.900854
PAST SALE,September-25-2020,Single Family Residential,6332 Sykesville Rd,Sykesville,MD,21784,320000,3,2.0,SYKESVILLE,2480,20542,1960,436,129,,Sold,,,https://www.redfin.com/MD/Sykesville/6332-Sykesville-Rd-21784/home/14470931,BRIGHT MLS,MDCR198684,N,Y,39.3998232,-76.9535263
PAST SALE,January-13-2021,Single Family Residential,1607 Arrington Rd,Sykesville,MD,21784,345500,3,2.0,SYKESVILLE,1658,43560,1952,326,208,,Sold,,,https://www.redfin.com/MD/Sykesville/1607-Arrington-Rd-21784/home/14455161,BRIGHT MLS,MDCR200752,N,Y,39.3684333,-76.9382226
PAST SALE,September-4-2020,Single Family Residential,6212 N Walnut Ave,Sykesville,MD,21784,284900,3,1.0,Sykesville,1026,12500,1955,457,278,,Sold,,,https://www.redfin.com/MD/Sykesville/6212-Walnut-Ave-21784/home/14462970,BRIGHT MLS,MDCR198180,N,Y,39.4039664,-76.9415639
PAST SALE,December-4-2020,Single Family Residential,5853 Oklahoma Rd,Sykesville,MD,21784,330000,3,1.0,Sykesville,1336,93698,1902,366,247,,Sold,,,https://www.redfin.com/MD/Sykesville/5853-Oklahoma-Rd-21784/home/14451869,BRIGHT MLS,MDCR200606,N,Y,39.413123,-76.9227049
PAST SALE,July-31-2020,Single Family Residential,534 Obrecht Rd,Sykesville,MD,21784,320000,3,1.0,Sykesville,1526,20513,1956,492,210,,Sold,,,https://www.redfin.com/MD/Sykesville/534-Obrecht-Rd-21784/home/14478386,BRIGHT MLS,MDCR197100,N,Y,39.3811202,-76.979735
PAST SALE,February-7-2019,Single Family Residential,5814 Hanna Rd,Sykesville,MD,21784,283000,4,3.0,ROLLING VIEW,1244,15648,1966,1032,227,,Sold,,,https://www.redfin.com/MD/Sykesville/5814-Hanna-Rd-21784/home/14438007,BRIGHT MLS,MDCR153680,N,Y,39.4128929,-76.913799
PAST SALE,December-27-2019,Single Family Residential,6219 Oakland Mills Rd,Eldersburg,MD,21784,385000,4,2.5,FREEDOM ELECTION DISTRIC,1981,12632,2004,709,194,,Sold,,,https://www.redfin.com/MD/Eldersburg/6219-Oakland-Mills-Rd-21784/home/14429249,BRIGHT MLS,MDCR192988,N,Y,39.4038975,-76.8980201
PAST SALE,August-15-2019,Single Family Residential,6512 Marvin Ave,Sykesville,MD,21784,342500,3,3.0,SYKESVILLE,1876,29185,1951,843,183,,Sold,,,https://www.redfin.com/MD/Sykesville/6512-Marvin-Ave-21784/home/14425232,BRIGHT MLS,MDCR189180,N,Y,39.3958401,-76.9275246
PAST SALE,November-5-2021,Single Family Residential,7111 Gaither Rd,Sykesville,MD,21784,440000,2,2.0,FREEDOM ELECTION DISTRIC,1454,22607,1967,30,303,,Sold,,,https://www.redfin.com/MD/Sykesville/7111-Gaither-Rd-21784/home/14436221,BRIGHT MLS,MDCR2003392,N,Y,39.378568,-76.9857445
PAST SALE,June-30-2021,Single Family Residential,6610 Church St,Sykesville,MD,21784,335000,4,2.0,FREEDOM ELECTION DISTRIC,1208,10563,1948,158,277,,Sold,,,https://www.redfin.com/MD/Sykesville/6610-Church-St-21784/home/14472610,BRIGHT MLS,MDCR204538,N,Y,39.391595,-76.965736
PAST SALE,December-28-2018,Single Family Residential,5705 Carroll Dale Dr N,Sykesville,MD,21784,359900,4,3.0,CARROLL DALE,2031,26571,1970,1073,177,,Sold,,,https://www.redfin.com/MD/Sykesville/5705-Carroll-Dale-Rd-N-21784/home/14441077,BRIGHT MLS,1008362468,N,Y,39.4176191,-76.9171967
PAST SALE,April-9-2021,Single Family Residential,7331 Gaither Rd,Sykesville,MD,21784,235000,3,1.0,FREEDOM ELECTION DISTRIC,672,13503,1957,240,350,,Sold,,,https://www.redfin.com/MD/Sykesville/7331-Gaither-Rd-21784/home/14459151,BRIGHT MLS,MDCR202346,N,Y,39.3733453,-76.9885636
PAST SALE,,Single Family Residential,6706 Autumn View Ct,Sykesville,MD,21784,347500,,2.0,,1742,36154,1972,,199,,,,,https://www.redfin.com/MD/Sykesville/6706-Autumn-View-Ct-21784/home/14453921,,,N,Y,39.38871,-76.916673
PAST SALE,January-30-2020,Single Family Residential,6709 Autumn View Ct,Sykesville,MD,21784,335000,3,3.5,FREEDOM ELECTION DISTRIC,2518,23086,1972,675,133,,Sold,,,https://www.redfin.com/MD/Sykesville/6709-Autumn-View-Ct-21784/home/14432247,BRIGHT MLS,MDCR193344,N,Y,39.3881402,-76.916151
PAST SALE,February-19-2021,Single Family Residential,6108 Oakland Mills Rd,Sykesville,MD,21784,235000,2,1.0,FREEDOM ELECTION DISTRIC,852,21500,1955,289,276,,Sold,,,https://www.redfin.com/MD/Sykesville/6108-Oakland-Mills-Rd-21784/home/14457476,BRIGHT MLS,MDCR202140,N,Y,39.4065288,-76.9011913
PAST SALE,July-17-2020,Single Family Residential,5810 Hanna Rd,Sykesville,MD,21784,365000,4,2.0,ROLLING VIEW,2008,15000,1960,506,182,,Sold,,,https://www.redfin.com/MD/Sykesville/5810-Hanna-Rd-21784/home/14467775,BRIGHT MLS,MDCR195836,N,Y,39.4136124,-76.9133808
PAST SALE,March-15-2019,Single Family Residential,6526 Macbeth Way,Sykesville,MD,21784,400000,4,3.0,BONNIE BRAE,2200,20995,1971,996,182,,Sold,,,https://www.redfin.com/MD/Sykesville/6526-MacBeth-Way-21784/home/14463287,BRIGHT MLS,MDCR148580,N,Y,39.394269,-76.938518
PAST SALE,October-21-2020,Single Family Residential,6354 Barnett Ave,Sykesville,MD,21784,320000,3,2.0,ELDERSBURG,1738,9990,1958,410,184,,Sold,,,https://www.redfin.com/MD/Sykesville/6354-Barnett-Ave-21784/home/14437475,BRIGHT MLS,MDCR197990,N,Y,39.4000057,-76.9507754
PAST SALE,May-1-2020,Single Family Residential,1292 Amy Ct,Eldersburg,MD,21784,670000,5,4.0,FREEDOM ELECTION DISTRIC,4782,88862,1995,583,140,,Sold,,,https://www.redfin.com/MD/Eldersburg/1292-Amy-Ct-21784/home/14427949,BRIGHT MLS,MDCR195072,N,Y,39.4319363,-76.9497529
PAST SALE,October-29-2021,Single Family Residential,1231 Pouder Rd,Sykesville,MD,21784,429900,3,2.5,FREEDOM ELECTION DISTRIC,3216,43996,1973,37,134,,Sold,,,https://www.redfin.com/MD/Sykesville/1231-Pouder-Rd-21784/home/14466712,BRIGHT MLS,MDCR2002056,N,Y,39.4420956,-76.9515007
PAST SALE,November-22-2019,Single Family Residential,6216 Rolling View Dr,Sykesville,MD,21784,389900,4,2.5,LONG MEADOWS,2415,21780,1961,744,161,,Sold,,,https://www.redfin.com/MD/Sykesville/6216-Rolling-View-Dr-21784/home/14464101,BRIGHT MLS,MDCR192276,N,Y,39.4036201,-76.9389953
PAST SALE,December-20-2019,Single Family Residential,4869 Cherry Tree Ln,Sykesville,MD,21784,315000,5,3.0,BUCKINGHAM MANOR,2512,41800,1968,716,125,,Sold,,,https://www.redfin.com/MD/Sykesville/4869-Cherry-Tree-Ln-21784/home/15157662,BRIGHT MLS,MDCR192434,N,Y,39.441533,-76.955397
PAST SALE,August-27-2021,Single Family Residential,2727 Friday Harbor Dr,Sykesville,MD,21784,451000,6,4.0,FREEDOM ELECTION DISTRIC,4631,326395,1993,100,97,,Sold,,,https://www.redfin.com/MD/Sykesville/2727-Friday-Harbor-Dr-21784/home/14450206,BRIGHT MLS,MDCR2000884,N,Y,39.4077538,-76.8987335
PAST SALE,September-13-2019,Single Family Residential,6847 Autumn View Dr,Sykesville,MD,21784,365000,4,2.5,CARROLL HIGHLANDS,2236,33014,1972,814,163,,Sold,,,https://www.redfin.com/MD/Sykesville/6847-Autumn-View-Dr-21784/home/15157661,BRIGHT MLS,MDCR190448,N,Y,39.387569,-76.9137723
PAST SALE,,Single Family Residential,6405 Church St,Sykesville,MD,21784,430000,,2.5,,2292,20037,1981,,188,,,,,https://www.redfin.com/MD/Sykesville/6405-Church-St-21784/home/15157660,,,N,Y,39.396945,-76.965225
PAST SALE,September-13-2019,Single Family Residential,5900 Hanna Rd,Sykesville,MD,21784,292000,3,2.0,ROLLING VIEW,2120,16552,1970,814,138,,Sold,,,https://www.redfin.com/MD/Sykesville/5900-Hanna-Rd-21784/home/14456151,BRIGHT MLS,MDCR189300,N,Y,39.411969,-76.914283
PAST SALE,May-22-2020,Single Family Residential,6346 Barnett Ave,Sykesville,MD,21784,320000,4,2.0,ELDERSBURG,1300,9990,1953,562,246,,Sold,,,https://www.redfin.com/MD/Sykesville/6346-Barnett-Ave-21784/home/14435881,BRIGHT MLS,MDCR195908,N,Y,39.400327,-76.950648
PAST SALE,October-9-2020,Single Family Residential,1401 Leafy Ct,Sykesville,MD,21784,340000,4,3.0,STRAWBRIDGE ESTATES,2214,27442,1971,422,154,,Sold,,,https://www.redfin.com/MD/Sykesville/1401-Leafy-Ct-21784/home/14449766,BRIGHT MLS,MDCR200208,N,Y,39.4254335,-76.9465025
PAST SALE,November-5-2020,Single Family Residential,6151 Oakland Mills Rd,Sykesville,MD,21784,457000,3,2.0,Sykesville,1552,38768,1954,395,294,,Sold,,,https://www.redfin.com/MD/Sykesville/6151-Oakland-Mills-Rd-21784/home/14468480,BRIGHT MLS,MDCR199976,N,Y,39.404706,-76.899525
PAST SALE,,Single Family Residential,6824 Autumn View Dr,Sykesville,MD,21784,348000,,2.0,,1848,35719,1970,,188,,,,,https://www.redfin.com/MD/Sykesville/6824-Autumn-View-Dr-21784/home/14462260,,,N,Y,39.3855121,-76.9145402
PAST SALE,September-15-2020,Single Family Residential,625 Sideling Ct,Sykesville,MD,21784,642500,5,3.5,GAITHERS SIDELING,3588,135036,1989,446,179,,Sold,,,https://www.redfin.com/MD/Sykesville/625-Sideling-Ct-21784/home/10108842,BRIGHT MLS,MDHW281328,N,Y,39.3546313,-76.9943448
PAST SALE,April-15-2021,Single Family Residential,1305 Judges Ct,Sykesville,MD,21784,400000,3,2.0,FREEDOM ELECTION DISTRIC,2038,50094,1974,234,196,,Sold,,,https://www.redfin.com/MD/Sykesville/1305-Judges-Ct-21784/home/14479407,BRIGHT MLS,MDCR202778,N,Y,39.422406,-76.949297
PAST SALE,December-23-2019,Single Family Residential,6228 Oak Hill Dr,Eldersburg,MD,21784,386000,4,2.5,FREEDOM FOREST,1912,19602,1971,713,202,,Sold,,,https://www.redfin.com/MD/Eldersburg/6228-Oak-Hill-Dr-21784/home/14425214,BRIGHT MLS,MDCR190430,N,Y,39.4020587,-76.9161611
PAST SALE,October-30-2020,Single Family Residential,6514 Monroe Ave,Sykesville,MD,21784,295000,3,1.0,ELDERSBURG,1536,12525,1960,401,192,,Sold,,,https://www.redfin.com/MD/Sykesville/6514-Monroe-Ave-21784/home/14471741,BRIGHT MLS,MDCR199334,N,Y,39.3955538,-76.9263175
PAST SALE,July-14-2020,Single Family Residential,6211 Oak Hill Dr,Sykesville,MD,21784,480000,4,3.0,FREEDOM FOREST,3368,19602,1978,509,143,,Sold,,,https://www.redfin.com/MD/Sykesville/6211-Oak-Hill-Dr-21784/home/14463131,BRIGHT MLS,MDCR197114,N,Y,39.4043174,-76.9154371
PAST SALE,April-5-2019,Single Family Residential,6607 Marvin Ave,Sykesville,MD,21784,245000,3,2.0,RIDGELY PARK,1365,19732,1962,975,179,,Sold,,,https://www.redfin.com/MD/Sykesville/6607-Marvin-Ave-21784/home/14446296,BRIGHT MLS,MDCR181578,N,Y,39.3938592,-76.9276129
PAST SALE,July-23-2020,Single Family Residential,2552 Arthur Ave,Sykesville,MD,21784,324900,3,2.0,SYKESVILLE,1340,19994,1955,500,242,,Sold,,,https://www.redfin.com/MD/Sykesville/2552-Arthur-Ave-21784/home/15157671,BRIGHT MLS,MDCR197482,N,Y,39.4063368,-76.9039174
PAST SALE,January-8-2019,Single Family Residential,6415 Oakland Mills Rd,Sykesville,MD,21784,295000,5,2.5,LIBERTY RESERVOIR,2603,98794,1961,1062,113,,Sold,,,https://www.redfin.com/MD/Sykesville/6415-Oakland-Mills-Rd-21784/home/14450180,BRIGHT MLS,MDCR106842,N,Y,39.3981486,-76.8944844
PAST SALE,December-20-2019,Single Family Residential,6606 Carroll Highlands Rd,Sykesville,MD,21784,230000,2,1.5,FREEDOM ELECTION DISTRIC,1330,25264,1958,716,173,,Sold,,,https://www.redfin.com/MD/Sykesville/6606-Carroll-Highlands-Rd-21784/home/14473201,BRIGHT MLS,MDCR193010,N,Y,39.391893,-76.921851
PAST SALE,February-18-2020,Single Family Residential,6413 Oak Hill Dr,Sykesville,MD,21784,340000,3,3.5,FREEDOM ELECTION DISTRIC,1560,21780,1953,656,218,,Sold,,,https://www.redfin.com/MD/Sykesville/6413-Oak-Hill-Dr-21784/home/14428996,BRIGHT MLS,MDCR193020,N,Y,39.397456,-76.919397
PAST SALE,February-3-2020,Single Family Residential,1500 Springlake Way S,Sykesville,MD,21784,385000,4,2.5,STRAWBRIDGE ESTATES,2184,44431,1971,671,176,,Sold,,,https://www.redfin.com/MD/Sykesville/1500-Springlake-Way-S-21784/home/14459655,BRIGHT MLS,MDCR189730,N,Y,39.4217576,-76.9430934
PAST SALE,June-15-2021,Single Family Residential,2302 Sunset Dr N,Sykesville,MD,21784,415000,3,2.5,FREEDOM ELECTION DISTRIC,1960,14679,1973,173,212,,Sold,,,https://www.redfin.com/MD/Sykesville/2302-N-Sunset-Dr-21784/home/14454802,BRIGHT MLS,MDCR203416,N,Y,39.4126718,-76.9148394
PAST SALE,February-2-2021,Single Family Residential,5909 Forest Ct,Sykesville,MD,21784,375000,4,2.0,FREEDOM ELECTION DISTRIC,1686,15495,1972,306,222,,Sold,,,https://www.redfin.com/MD/Sykesville/5909-Forest-Ct-21784/home/14471191,BRIGHT MLS,MDCR201440,N,Y,39.4110554,-76.9154951
PAST SALE,August-13-2021,Single Family Residential,5912 Forest Ct,Sykesville,MD,21784,355000,3,1.5,FREEDOM ELECTION DISTRIC,1660,16552,1973,114,214,,Sold,,,https://www.redfin.com/MD/Sykesville/5912-Forest-Ct-21784/home/14464278,BRIGHT MLS,MDCR2000576,N,Y,39.410998,-76.916324
PAST SALE,October-12-2021,Single Family Residential,5847 Mineral Hill Rd,Sykesville,MD,21784,350000,4,2.0,FREEDOM ELECTION DISTRIC,1632,24611,1965,54,214,,Sold,,,https://www.redfin.com/MD/Sykesville/5847-Mineral-Hill-Rd-21784/home/14470550,BRIGHT MLS,MDCR2001610,N,Y,39.412538,-76.909989
PAST SALE,November-2-2020,Single Family Residential,5401 Mineral Hill Rd,Sykesville,MD,21784,625000,5,3.0,FREEDOM ELECTION DISTRIC,4087,145055,1958,398,153,,Sold,,,https://www.redfin.com/MD/Sykesville/5401-Mineral-Hill-Rd-21784/home/14460507,BRIGHT MLS,MDCR193946,N,Y,39.42671,-76.91938
PAST SALE,June-17-2019,Single Family Residential,5414 Mineral Hill Rd,Eldersburg,MD,21784,691247,5,4.0,ELDERSBURG,4092,76012,1994,902,169,,Sold,,,https://www.redfin.com/MD/Sykesville/5414-Mineral-Hill-Rd-21784/home/14445309,BRIGHT MLS,MDCR187210,N,Y,39.426293,-76.920511
PAST SALE,,Other,1052 Stepping Pl,Gaither,MD,21784,337512,,,,,59764,,,,,,,,https://www.redfin.com/MD/Gaither/1052-Stepping-Pl-21784/home/170727484,,,N,Y,39.3422244,-76.9410424
PAST SALE,July-12-2019,Single Family Residential,5876 Oakland Rd,Sykesville,MD,21784,370000,3,3.0,LIBERTY RESERVOIR,1932,26528,1953,877,192,,Sold,,,https://www.redfin.com/MD/Sykesville/5876-Oakland-Rd-21784/home/14438800,BRIGHT MLS,MDCR188010,N,Y,39.412527,-76.89883
PAST SALE,May-31-2019,Single Family Residential,1606 Bennett Rd,Sykesville,MD,21784,530000,4,3.0,SYKESVILLE,2688,174240,1964,919,197,,Sold,,,https://www.redfin.com/MD/Sykesville/1606-Bennett-Rd-21784/home/14445600,BRIGHT MLS,MDCR186832,N,Y,39.4165969,-76.9373604
PAST SALE,October-21-2021,Single Family Residential,2530 Arthur Ave,Sykesville,MD,21784,320000,3,2.0,FREEDOM ELECTION DISTRIC,1312,20000,1962,45,244,,Sold,,,https://www.redfin.com/MD/Sykesville/2530-Arthur-Ave-21784/home/14458426,BRIGHT MLS,MDCR204470,N,Y,39.4057417,-76.9055448
PAST SALE,September-18-2020,Single Family Residential,2001 Pine Knob Rd,Sykesville,MD,21784,405000,3,1.0,SYKESVILLE,1980,133729,1971,443,205,,Sold,,,https://www.redfin.com/MD/Sykesville/2001-Pine-Knob-Rd-21784/home/14428827,BRIGHT MLS,MDCR198716,N,Y,39.4267209,-76.924936
PAST SALE,November-30-2021,Single Family Residential,6530 Sykesville Rd,Sykesville,MD,21784,171000,2,1.0,FREEDOM ELECTION DISTRIC,1632,16335,1944,5,105,,Sold,,,https://www.redfin.com/MD/Sykesville/6530-Sykesville-Rd-21784/home/14452544,BRIGHT MLS,MDCR2003618,N,Y,39.394598,-76.958598
PAST SALE,July-12-2021,Single Family Residential,7349 Gaither Rd,Sykesville,MD,21784,469900,4,3.5,FREEDOM ELECTION DISTRIC,1906,23958,1951,146,247,,Sold,,,https://www.redfin.com/MD/Sykesville/7349-Gaither-Rd-21784/home/14441689,BRIGHT MLS,MDCR204118,N,Y,39.3723577,-76.9893209
PAST SALE,,Single Family Residential,650 Old Liberty Rd,Sykesville,MD,21784,145000,,1.0,,848,18000,1954,,171,,,,,https://www.redfin.com/MD/Sykesville/650-Old-Liberty-Rd-21784/home/14433957,,,N,Y,39.410455,-76.972751
PAST SALE,December-16-2020,Single Family Residential,6200 Long Meadow Dr,Sykesville,MD,21784,415000,3,2.5,LONG MEADOWS,1568,26250,1966,354,265,,Sold,,,https://www.redfin.com/MD/Sykesville/6200-Long-Meadow-Dr-21784/home/14435197,BRIGHT MLS,MDCR200828,N,Y,39.4055346,-76.9401358
PAST SALE,,Single Family Residential,6765 Marvin Ave,Sykesville,MD,21784,175000,,1.5,,1428,36677,1966,,123,,,,,https://www.redfin.com/MD/Sykesville/6765-Marvin-Ave-21784/home/15157376,,,N,Y,39.388338,-76.932151
PAST SALE,October-15-2021,Single Family Residential,5805 Oklahoma Rd,Sykesville,MD,21784,455000,4,3.0,FREEDOM ELECTION DISTRIC,2420,25961,1972,51,188,,Sold,,,https://www.redfin.com/MD/Sykesville/5805-Oklahoma-Rd-21784/home/14452923,BRIGHT MLS,MDCR2002288,N,Y,39.414874,-76.918028
PAST SALE,May-28-2019,Single Family Residential,1966 Conan Doyle Way,Eldersburg,MD,21784,629900,5,4.5,SHERLOCK HOLMES ESTATES,4092,57064,2003,922,154,,Sold,,,https://www.redfin.com/MD/Eldersburg/1966-Conan-Doyle-Way-21784/home/14450901,BRIGHT MLS,MDCR187082,N,Y,39.423588,-76.931145
PAST SALE,June-22-2021,Single Family Residential,7606 Patapsco Dr,Sykesville,MD,21784,343000,3,1.5,FREEDOM ELECTION DISTRIC,1092,25047,1972,166,314,,Sold,,,https://www.redfin.com/MD/Sykesville/7606-Patapsco-Dr-21784/home/14462053,BRIGHT MLS,MDCR204626,N,Y,39.364971,-76.989622
PAST SALE,April-30-2020,Single Family Residential,2119 Carroll Dale Rd,Sykesville,MD,21784,366000,3,2.0,CARROLL DALE,2048,24393,1974,584,179,,Sold,,,https://www.redfin.com/MD/Sykesville/2119-Carroll-Dale-Rd-21784/home/14445482,BRIGHT MLS,MDCR195182,N,Y,39.4172805,-76.9188263
PAST SALE,November-6-2020,Single Family Residential,6504 Carroll Highlands Rd,Sykesville,MD,21784,340000,3,2.5,CARROLL HIGHLANDS,1492,20925,1959,394,228,,Sold,,,https://www.redfin.com/MD/Sykesville/6504-Carroll-Highlands-Rd-21784/home/14479677,BRIGHT MLS,MDCR199574,N,Y,39.3956484,-76.9228402
PAST SALE,April-8-2020,Single Family Residential,478 Hawk Ridge Ln,Sykesville,MD,21784,550000,4,3.5,FREEDOM ELECTION DISTRIC,3283,12078,1999,606,168,,Sold,,,https://www.redfin.com/MD/Sykesville/478-Hawkridge-Ln-21784/home/14458764,BRIGHT MLS,MDCR194722,N,Y,39.3793106,-76.9783701
PAST SALE,July-9-2020,Single Family Residential,6047 Oakland Mills Rd,Sykesville,MD,21784,405000,4,3.0,Sykesville,2424,22041,1947,514,167,,Sold,,,https://www.redfin.com/MD/Sykesville/6047-Oakland-Mills-Rd-21784/home/14471415,BRIGHT MLS,MDCR196264,N,Y,39.407056,-76.900319
PAST SALE,April-24-2020,Single Family Residential,5706 Oakview Dr,Sykesville,MD,21784,365000,3,2.0,FREEDOM ELECTION DISTRIC,2584,22215,1975,590,141,,Sold,,,https://www.redfin.com/MD/Sykesville/5706-Oakview-Dr-21784/home/15157543,BRIGHT MLS,MDCR195054,N,Y,39.415956,-76.9188099
PAST SALE,March-27-2020,Single Family Residential,6505 Monroe Ave,Sykesville,MD,21784,300000,3,2.0,FREEDOM ELECTION DISTRIC,1075,14810,1958,618,279,,Sold,,,https://www.redfin.com/MD/Sykesville/6505-Monroe-Ave-21784/home/14444099,BRIGHT MLS,MDCR193504,N,Y,39.3962553,-76.9252838
PAST SALE,September-16-2021,Single Family Residential,6836 Autumn View Dr,Sykesville,MD,21784,532500,4,2.5,FREEDOM ELECTION DISTRIC,2500,32234,1971,80,213,,Sold,,,https://www.redfin.com/MD/Sykesville/6836-Autumn-View-Dr-21784/home/14476703,BRIGHT MLS,MDCR2000754,N,Y,39.386827,-76.9129386
PAST SALE,January-17-2020,Single Family Residential,5811 Oklahoma Rd,Sykesville,MD,21784,360000,3,2.0,WESTCHESTER HILLS,2382,20000,1972,688,151,,Sold,,,https://www.redfin.com/MD/Sykesville/5811-Oklahoma-Rd-21784/home/14477240,BRIGHT MLS,MDCR191150,N,Y,39.4147854,-76.9190669
PAST SALE,June-19-2020,Single Family Residential,6816 Autumn View Dr,Sykesville,MD,21784,382000,4,2.5,CARROLL HIGHLANDS,2421,52708,1967,534,158,,Sold,,,https://www.redfin.com/MD/Sykesville/6816-Autumn-View-Dr-21784/home/14439111,BRIGHT MLS,MDCR195638,N,Y,39.384411,-76.9159279
PAST SALE,,Single Family Residential,7456 Brandenburg Cir,Sykesville,MD,21784,460000,4,3.5,,2214,8030,1996,,208,,,,,https://www.redfin.com/MD/Sykesville/7456-Brandenburg-Cir-21784/home/14479648,,,N,Y,39.3675608,-76.9801251
PAST SALE,September-13-2021,Single Family Residential,6574 Kali Dr,Eldersburg,MD,21784,525000,4,3.5,FREEDOM ELECTION DISTRIC,2404,8000,1995,83,218,,Sold,,,https://www.redfin.com/MD/Eldersburg/6574-Kali-Dr-21784/home/14450582,BRIGHT MLS,MDCR2000714,N,Y,39.3933933,-76.9316488
PAST SALE,September-2-2020,Single Family Residential,6212 E Hemlock Dr,Sykesville,MD,21784,430000,4,3.0,THE HEMLOCKS,2368,19994,1971,459,182,,Sold,,,https://www.redfin.com/MD/Sykesville/6212-E-Hemlock-Dr-21784/home/14426177,BRIGHT MLS,MDCR198230,N,Y,39.4032954,-76.933464
PAST SALE,July-30-2021,Single Family Residential,6634 Monroe Ave,Sykesville,MD,21784,485000,4,3.0,FREEDOM ELECTION DISTRIC,2900,17859,1967,128,167,,Sold,,,https://www.redfin.com/MD/Sykesville/6634-Monroe-Ave-21784/home/14449058,BRIGHT MLS,MDCR2000090,N,Y,39.3907705,-76.9286867
PAST SALE,August-28-2020,Single Family Residential,2123 Winton Ct,Eldersburg,MD,21784,775879,4,3.5,MORGAN CREEK,3850,52712,2020,464,202,,Sold,,,https://www.redfin.com/MD/Eldersburg/2123-Winton-Ct-21784/home/143433247,BRIGHT MLS,MDCR193190,N,Y,39.416102,-76.924975
PAST SALE,October-28-2020,Single Family Residential,2354 Erin Rd,Sykesville,MD,21784,555000,4,2.5,MERRYMAN MANOR,2835,60548,1968,403,196,,Sold,,,https://www.redfin.com/MD/Sykesville/2354-Erin-Rd-21784/home/14447930,BRIGHT MLS,MDCR199866,N,Y,39.424416,-76.911252
PAST SALE,March-6-2019,Single Family Residential,2310 Lake Circle Dr,Sykesville,MD,21784,364000,5,3.0,SWEET AIR ESTATES,2842,49658,1964,1005,128,,Sold,,,https://www.redfin.com/MD/Sykesville/2310-Lake-Cir-Dr-21784/home/14455589,BRIGHT MLS,MDCR153882,N,Y,39.391039,-76.912692
PAST SALE,January-29-2021,Vacant Land,1939 Sykesville Rd,Sykesville,MD,21784,230000,,,Sykesville,,108900,,310,,,Sold,,,https://www.redfin.com/MD/Sykesville/1939-Maryland-32-21784/home/146841214,BRIGHT MLS,MDHW288128,N,Y,39.3167082,-76.9488387
PAST SALE,,Single Family Residential,5908 Lawrence Dr,Eldersburg,MD,21784,436500,,2.5,,1932,18588,1994,,226,,,,,https://www.redfin.com/MD/Eldersburg/5908-Lawrence-Dr-21784/home/15157225,,,N,Y,39.4120533,-76.9550116
PAST SALE,July-2-2020,Single Family Residential,6270 Oakland Mills Rd,Sykesville,MD,21784,281000,4,1.0,FREEDOM ELECTION DISTRIC,1540,13075,1975,521,182,,Sold,,,https://www.redfin.com/MD/Sykesville/6270-Oakland-Mills-Rd-21784/home/14455461,BRIGHT MLS,MDCR195096,N,Y,39.4015533,-76.8973188
PAST SALE,April-29-2021,Single Family Residential,5502 Strawbridge Ter,Sykesville,MD,21784,340000,3,1.5,FREEDOM ELECTION DISTRIC,2283,55321,1967,220,149,,Sold,,,https://www.redfin.com/MD/Sykesville/5502-Strawbridge-Ter-21784/home/14479982,BRIGHT MLS,MDCR203262,N,Y,39.4236556,-76.9474946
PAST SALE,,Single Family Residential,262 Klees Mill Rd,Sykesville,MD,21784,250000,,1.0,,1102,54624,1959,,227,,,,,https://www.redfin.com/MD/Sykesville/262-Klees-Mill-Rd-21784/home/14478483,,,N,Y,39.4547883,-76.9867461
PAST SALE,June-25-2019,Single Family Residential,6351 Barnett Ave,Sykesville,MD,21784,290000,3,3.0,LEES ADDITION,1784,10125,1971,894,163,,Sold,,,https://www.redfin.com/MD/Sykesville/6351-Barnett-Ave-21784/home/14453330,BRIGHT MLS,MDCR188768,N,Y,39.3997317,-76.9502788
PAST SALE,,Single Family Residential,6810 Autumn View Dr,Sykesville,MD,21784,445000,,2.5,,2170,34438,1965,,205,,,,,https://www.redfin.com/MD/Sykesville/6810-Autumn-View-Dr-21784/home/14475398,,,N,Y,39.3852175,-76.9170404
PAST SALE,July-8-2021,Single Family Residential,5401 Emerald Dr,Sykesville,MD,21784,620000,4,3.0,FREEDOM ELECTION DISTRIC,3810,133294,1966,150,163,,Sold,,,https://www.redfin.com/MD/Sykesville/5401-Emerald-Dr-21784/home/14475462,BRIGHT MLS,MDCR205204,N,Y,39.4283631,-76.9128833
PAST SALE,April-30-2021,Single Family Residential,6433 Tamarack Cir,Eldersburg,MD,21784,355000,3,1.5,FREEDOM ELECTION DISTRIC,1416,4500,1984,219,251,35,Sold,,,https://www.redfin.com/MD/Eldersburg/6433-Tamarack-Cir-21784/home/14451752,BRIGHT MLS,MDCR202828,N,Y,39.400583,-76.959052
PAST SALE,July-17-2019,Single Family Residential,1669 Brimfield Cir,Sykesville,MD,21784,320000,3,1.5,BRIMFIELD,1684,5040,1986,872,190,10,Sold,,,https://www.redfin.com/MD/Sykesville/1669-Brimfield-Cir-21784/home/14444493,BRIGHT MLS,MDCR188246,N,Y,39.3886385,-76.937096
PAST SALE,November-19-2021,Single Family Residential,4220 Home Dl,Sykesville,MD,21784,585000,5,3.5,BERRETT ELECTION DISTRIC,2800,39368,1973,16,209,,Sold,,,https://www.redfin.com/MD/Sykesville/4220-Home-Dale-Rd-21784/home/14462844,BRIGHT MLS,MDCR2003028,N,Y,39.4609305,-76.9744656
PAST SALE,November-29-2021,Single Family Residential,7314 Springfield Ave,Sykesville,MD,21784,325000,3,2.0,FREEDOM ELECTION DISTRIC,1344,7800,1970,6,242,,Sold,,,https://www.redfin.com/MD/Sykesville/7314-Springfield-Ave-21784/home/14462319,BRIGHT MLS,MDCR203768,N,Y,39.3725641,-76.9680502
PAST SALE,May-22-2020,Single Family Residential,1014 Johnsville Rd,Sykesville,MD,21784,328000,3,2.0,CARROLL SQUARE,2038,21424,1971,562,161,,Sold,,,https://www.redfin.com/MD/Sykesville/1014-Johnsville-Rd-21784/home/15157691,BRIGHT MLS,MDCR195462,N,Y,39.4089664,-76.9607729
PAST SALE,March-12-2020,Single Family Residential,6302 W Hemlock Dr,Sykesville,MD,21784,305000,3,2.0,FREEDOM ELECTION DISTRIC,1643,13262,1961,633,186,,Sold,,,https://www.redfin.com/MD/Sykesville/6302-W-Hemlock-Dr-21784/home/15157611,BRIGHT MLS,MDCR193952,N,Y,39.4014629,-76.9353399
PAST SALE,,Vacant Land,301 Neale Ct,Eldersburg,MD,21784,160000,,,,,44431,,,,,,,,https://www.redfin.com/MD/Eldersburg/301-Neale-Ct-21784/home/23056582,,,N,Y,39.384429,-76.986717
PAST SALE,August-25-2021,Single Family Residential,6418 Church St,Sykesville,MD,21784,315000,3,1.0,FREEDOM ELECTION DISTRIC,1170,24000,1963,102,269,,Sold,,,https://www.redfin.com/MD/Sykesville/6418-Church-St-21784/home/14431191,BRIGHT MLS,MDCR2000940,N,Y,39.3955897,-76.966056
PAST SALE,August-24-2020,Single Family Residential,535 Martz Rd,Sykesville,MD,21784,460000,3,2.5,PINEY RUN PARK AREA,1872,97139,1880,468,246,,Sold,,,https://www.redfin.com/MD/Sykesville/535-Martz-Rd-21784/home/14455964,BRIGHT MLS,MDCR198018,N,Y,39.399646,-76.97523
PAST SALE,,Multi-Family (5+ Unit),7071 Jennifer Way,Sykesville,MD,21784,1020000,,,,8217,45607,1964,,124,,,,,https://www.redfin.com/MD/Sykesville/7071-Jennifer-Way-21784/home/22194153,,,N,Y,39.3739943,-76.9750437
PAST SALE,September-10-2020,Single Family Residential,1305 Brockton Dr,Eldersburg,MD,21784,665000,4,3.5,HAMMONDS ESTATES,4305,146405,1994,451,154,,Sold,,,https://www.redfin.com/MD/Eldersburg/1305-Brockton-Dr-21784/home/15157302,BRIGHT MLS,MDCR197996,N,Y,39.4286401,-76.9507355
PAST SALE,April-30-2021,Single Family Residential,6500 Church St,Sykesville,MD,21784,215000,3,1.0,FREEDOM ELECTION DISTRIC,764,20037,1948,219,281,,Sold,,,https://www.redfin.com/MD/Sykesville/6500-Church-St-21784/home/15157613,BRIGHT MLS,MDCR201818,N,Y,39.394653,-76.966295
PAST SALE,October-23-2020,Single Family Residential,6647 Ridge Rd,Sykesville,MD,21784,475000,5,3.0,RIDGELY PARK,2248,23391,1966,408,211,,Sold,,,https://www.redfin.com/MD/Sykesville/6647-Ridge-Rd-21784/home/14461536,BRIGHT MLS,MDCR198210,N,Y,39.3908739,-76.929464
PAST SALE,August-12-2019,Single Family Residential,5410 Corinth Dr,Eldersburg,MD,21784,495000,4,2.0,HAMMONDS ESTATES,2600,83635,1993,846,190,,Sold,,,https://www.redfin.com/MD/Eldersburg/5410-Corinth-Dr-21784/home/14463400,BRIGHT MLS,MDCR188326,N,Y,39.4274699,-76.9540806
PAST SALE,May-6-2021,Single Family Residential,6113 Oak Hill Dr,Sykesville,MD,21784,500000,4,3.0,FREEDOM ELECTION DISTRIC,2620,19166,1968,213,191,,Sold,,,https://www.redfin.com/MD/Sykesville/6113-Oak-Hill-Dr-21784/home/14436641,BRIGHT MLS,MDCR203276,N,Y,39.402364,-76.917717
PAST SALE,May-29-2020,Single Family Residential,6522 Sunset Dr,Sykesville,MD,21784,335000,3,2.0,SWEET AIR ESTATES,2248,20000,1957,555,149,,Sold,,,https://www.redfin.com/MD/Sykesville/6522-Sunset-Dr-21784/home/14444242,BRIGHT MLS,MDCR194912,N,Y,39.3928846,-76.9194929
PAST SALE,October-16-2020,Single Family Residential,6908 Spring Hill Dr,Sykesville,MD,21784,330000,3,2.0,CARROLL HIGHLANDS,2110,34848,1966,415,156,,Sold,,,https://www.redfin.com/MD/Sykesville/6908-Spring-Hill-Dr-21784/home/14429174,BRIGHT MLS,MDCR199352,N,Y,39.384878,-76.9212038
PAST SALE,February-21-2020,Single Family Residential,912 Central Ave,Sykesville,MD,21784,205000,2,1.0,SYKESVILLE,1196,11000,1912,653,171,,Sold,,,https://www.redfin.com/MD/Sykesville/912-Central-Ave-21784/home/14444879,BRIGHT MLS,MDCR192528,N,Y,39.3912949,-76.9642472
PAST SALE,November-19-2021,Single Family Residential,757 John Lawrence Dr,Sykesville,MD,21784,850000,5,3.5,BERRETT ELECTION DISTRIC,3765,83200,2005,16,226,,Sold,,,https://www.redfin.com/MD/Gaither/757-John-Lawrence-Dr-21784/home/14472763,BRIGHT MLS,MDCR2000291,N,Y,39.3974344,-77.0241829
PAST SALE,May-21-2020,Single Family Residential,5362 Thames Ct,Eldersburg,MD,21784,505000,4,3.0,FREEDOM ELECTION DISTRIC,3110,25308,1992,563,162,,Sold,,,https://www.redfin.com/MD/Eldersburg/5362-Thames-Ct-21784/home/14452087,BRIGHT MLS,MDCR195138,N,Y,39.4240793,-76.9571985
PAST SALE,,Condo/Co-op,1599 Homeland Dr Unit 3C,Eldersburg,MD,21784,100000,,,,,,,,,,,,,https://www.redfin.com/MD/Eldersburg/1599-Homeland-Dr-21784/unit-3C/home/15155915,,,N,Y,39.398377,-76.942478
PAST SALE,December-26-2018,Single Family Residential,5915 Melville Rd,Sykesville,MD,21784,330000,3,2.0,OAKLAND HILLS,2212,20255,1963,1075,149,,Sold,,,https://www.redfin.com/MD/Sykesville/5915-Melville-Rd-21784/home/15157523,BRIGHT MLS,1008357808,N,Y,39.4120011,-76.902905
PAST SALE,June-18-2021,Single Family Residential,5804 Mineral Hill Rd,Sykesville,MD,21784,347007,3,2.0,FREEDOM ELECTION DISTRIC,1934,15787,1965,170,179,,Sold,,,https://www.redfin.com/MD/Sykesville/5804-Mineral-Hill-Rd-21784/home/14434586,BRIGHT MLS,MDCR204512,N,Y,39.4142691,-76.9120822
PAST SALE,May-1-2020,Single Family Residential,6523 Sunset Dr,Sykesville,MD,21784,390000,5,3.0,FREEDOM ELECTION DISTRIC,2668,18295,1956,583,146,,Sold,,,https://www.redfin.com/MD/Sykesville/6523-Sunset-Dr-21784/home/14447604,BRIGHT MLS,MDCR194904,N,Y,39.3932263,-76.9189976
PAST SALE,November-16-2021,Single Family Residential,6506 Sunset Dr,Sykesville,MD,21784,455000,3,3.0,FREEDOM ELECTION DISTRIC,2944,15708,1960,19,155,,Sold,,,https://www.redfin.com/MD/Sykesville/6506-Sunset-Dr-21784/home/14433087,BRIGHT MLS,MDCR2002960,N,Y,39.3945281,-76.9198508
PAST SALE,September-22-2021,Single Family Residential,5319 Wendy Rd,Sykesville,MD,21784,355000,3,2.0,FREEDOM ELECTION DISTRIC,2070,28875,1967,74,171,,Sold,,,https://www.redfin.com/MD/Sykesville/5319-Wendy-Rd-21784/home/14427485,BRIGHT MLS,MDCR2001896,N,Y,39.4293499,-76.9158676
PAST SALE,April-26-2019,Townhouse,6515 Dundee Dr #231,Eldersburg,MD,21784,269900,3,2.0,RESERVOIR RIDGE,,,2015,954,,227,Sold,,,https://www.redfin.com/MD/Eldersburg/6515-Dundee-Dr-21784/unit-231/home/64327455,BRIGHT MLS,MDCR181928,N,Y,39.3974389,-76.9306269
PAST SALE,August-1-2019,Single Family Residential,5907 Dale Dr,Sykesville,MD,21784,350000,4,2.0,CARROLL SQUARE,2280,23908,1970,857,154,,Sold,,,https://www.redfin.com/MD/Sykesville/5907-Dale-Dr-21784/home/14479026,BRIGHT MLS,MDCR100414,N,Y,39.4115053,-76.9603029
PAST SALE,July-19-2019,Single Family Residential,6548 Church St,Sykesville,MD,21784,340000,3,2.0,FLOHRVILLE,2172,9147,1951,870,157,,Sold,,,https://www.redfin.com/MD/Sykesville/6548-Church-St-21784/home/14474085,BRIGHT MLS,MDCR188804,N,Y,39.392147,-76.965784
PAST SALE,,Single Family Residential,1014 Grandview Ave,Sykesville,MD,21784,430000,,1.0,,1350,14374,1954,,319,,,,,https://www.redfin.com/MD/Sykesville/1014-Grandview-Ave-21784/home/14478690,,,N,Y,39.396664,-76.9594989
PAST SALE,February-26-2020,Single Family Residential,1233 Pouder Rd,Sykesville,MD,21784,438000,3,2.0,FREEDOM ELECTION DISTRIC,1936,43560,1977,648,226,,Sold,,,https://www.redfin.com/MD/Sykesville/1233-Pouder-Rd-21784/home/14428854,BRIGHT MLS,MDCR194236,N,Y,39.4416366,-76.9511119
PAST SALE,May-16-2019,Single Family Residential,6608 Sweet Air Ln,Sykesville,MD,21784,275000,3,2.0,SWEET AIR ESTATES,1574,24500,1960,934,175,,Sold,,,https://www.redfin.com/MD/Sykesville/6608-Sweet-Air-Ln-21784/home/15157357,BRIGHT MLS,MDCR182434,N,Y,39.3911025,-76.918385
PAST SALE,February-2-2021,Single Family Residential,1502 Elm Ave,Eldersburg,MD,21784,272000,4,1.0,FREEDOM ELECTION DISTRIC,1180,11325,1954,306,231,,Sold,,,https://www.redfin.com/MD/Sykesville/1502-Elm-Ave-21784/home/14469649,BRIGHT MLS,MDCR201548,N,Y,39.4047279,-76.9416089
PAST SALE,December-2-2020,Single Family Residential,1304 Judges Ct,Sykesville,MD,21784,400000,3,3.0,STRAWBRIDGE ESTATES,3219,31798,1968,368,124,,Sold,,,https://www.redfin.com/MD/Sykesville/1304-Judges-Ct-21784/home/14444268,BRIGHT MLS,MDCR200588,N,Y,39.4231301,-76.9484199
PAST SALE,August-30-2019,Single Family Residential,6336 Sykesville Rd,Eldersburg,MD,21784,263000,3,2.0,Eldersburg,1318,15127,1954,828,200,,Sold,,,https://www.redfin.com/MD/Sykesville/6336-Sykesville-Rd-21784/home/14428877,BRIGHT MLS,MDCR188580,N,Y,39.3996548,-76.9537963
PAST SALE,,Single Family Residential,898 Gibbons Rd,Sykesville,MD,21784,30000,,3.5,,3180,21039,2019,,9,,,,,https://www.redfin.com/MD/Sykesville/898-Gibbons-Rd-21784/home/14444931,,,N,Y,39.4196784,-76.9640898
PAST SALE,October-6-2020,Single Family Residential,1709 Blue Spruce Dr,Sykesville,MD,21784,370000,3,2.5,LONG MEADOWS,2180,24611,1961,425,170,,Sold,,,https://www.redfin.com/MD/Sykesville/1709-Blue-Spruce-Dr-21784/home/14425806,BRIGHT MLS,MDCR196690,N,Y,39.402575,-76.935429
PAST SALE,September-24-2019,Single Family Residential,6603 Marvin Ave,Sykesville,MD,21784,336000,3,2.0,RIDGELY PARK,1944,16762,1959,803,173,,Sold,,,https://www.redfin.com/MD/Sykesville/6603-Marvin-Ave-21784/home/14438123,BRIGHT MLS,MDCR191112,N,Y,39.3941609,-76.92741
PAST SALE,August-28-2020,Single Family Residential,2535 Arthur Ave,Sykesville,MD,21784,320000,3,2.0,CARROLL COUNTY,1232,20037,1968,464,260,,Sold,,,https://www.redfin.com/MD/Sykesville/2535-Arthur-Ave-21784/home/14450982,BRIGHT MLS,MDCR198410,N,Y,39.4053861,-76.9049172
PAST SALE,September-30-2021,Single Family Residential,6619 Marvin Ave,Eldersburg,MD,21784,370000,4,2.0,FREEDOM ELECTION DISTRIC,1585,26136,1962,66,233,,Sold,,,https://www.redfin.com/MD/Eldersburg/6619-Marvin-Ave-21784/home/14454335,BRIGHT MLS,MDCR2002078,N,Y,39.3920624,-76.9280021
PAST SALE,,Single Family Residential,2616 Barnes Ln,Sykesville,MD,21784,219000,,1.0,,672,26320,1954,,326,,,,,https://www.redfin.com/MD/Sykesville/2616-Barnes-Ln-21784/home/14451042,,,N,Y,39.4039449,-76.9009416
PAST SALE,July-12-2019,Single Family Residential,5823 Melville Rd,Sykesville,MD,21784,420000,3,2.5,OAKLAND HILLS,2324,22651,1969,877,181,,Sold,,,https://www.redfin.com/MD/Sykesville/5823-Melville-Rd-21784/home/14461848,BRIGHT MLS,MDCR187560,N,Y,39.4144767,-76.9018652
PAST SALE,August-15-2019,Single Family Residential,6236 Oakland Mills Rd,Sykesville,MD,21784,435000,4,3.0,SHERVETTES CORNER,2310,41382,1953,843,188,,Sold,,,https://www.redfin.com/MD/Sykesville/6236-Oakland-Mills-Rd-21784/home/14453490,BRIGHT MLS,MDCR189380,N,Y,39.4033322,-76.8978777
PAST SALE,April-10-2020,Single Family Residential,2605 Bomek Cir,Sykesville,MD,21784,385000,4,3.0,FREEDOM ELECTION DISTRIC,2292,17859,1963,604,168,,Sold,,,https://www.redfin.com/MD/Sykesville/2605-Bomek-Cir-21784/home/15157354,BRIGHT MLS,MDCR195030,N,Y,39.4043366,-76.9019323
PAST SALE,November-17-2020,Single Family Residential,2707 Old Liberty Rd,Sykesville,MD,21784,320000,3,1.0,SYKESVILLE,1580,43000,1932,383,203,,Sold,,,https://www.redfin.com/MD/Sykesville/2707-Old-Liberty-Rd-21784/home/14475646,BRIGHT MLS,MDCR200308,N,Y,39.395923,-76.8989239
PAST SALE,October-2-2019,Single Family Residential,6405 Hickory Ln,Sykesville,MD,21784,340000,3,3.0,FREEDOM FOREST,1726,21780,1976,795,197,,Sold,,,https://www.redfin.com/MD/Sykesville/6405-Hickory-Ln-21784/home/14474610,BRIGHT MLS,MDCR190878,N,Y,39.3988103,-76.9172263
PAST SALE,May-15-2020,Single Family Residential,5931 Snowdens Run Rd,Sykesville,MD,21784,325000,3,2.0,ACORN VILLAGE,1841,17188,1972,569,177,,Sold,,,https://www.redfin.com/MD/Sykesville/5931-Snowdens-Run-Rd-21784/home/14472175,BRIGHT MLS,MDCR195750,N,Y,39.4099211,-76.9130318
PAST SALE,,Single Family Residential,7614 Patapsco Dr,Sykesville,MD,21784,475000,,2.5,,1092,25000,1972,,435,,,,,https://www.redfin.com/MD/Sykesville/7614-Patapsco-Dr-21784/home/14474173,,,N,Y,39.364033,-76.988719
PAST SALE,January-31-2020,Single Family Residential,7513 Gaither Rd,Sykesville,MD,21784,380000,4,1.5,PATAPSCO ESTATES,2892,28488,1972,674,131,,Sold,,,https://www.redfin.com/MD/Sykesville/7513-Gaither-Rd-21784/home/14425398,BRIGHT MLS,MDCR189636,N,Y,39.366904,-76.9938339
PAST SALE,November-22-2021,Single Family Residential,1019 Courtland Dr,Sykesville,MD,21784,359000,3,3.0,FREEDOM ELECTION DISTRIC,2116,20000,1971,13,170,,Sold,,,https://www.redfin.com/MD/Sykesville/1019-Courtland-Dr-21784/home/14460154,BRIGHT MLS,MDCR2000271,N,Y,39.4105591,-76.9604845
PAST SALE,June-7-2021,Single Family Residential,1013 Courtland Dr,Sykesville,MD,21784,470000,4,2.0,FREEDOM ELECTION DISTRIC,1700,20473,1972,181,276,,Sold,,,https://www.redfin.com/MD/Sykesville/1013-Courtland-Dr-21784/home/14454886,BRIGHT MLS,MDCR203354,N,Y,39.4098844,-76.9610928
PAST SALE,October-23-2020,Single Family Residential,5905 Dale Dr,Sykesville,MD,21784,390000,4,2.0,CARROLL SQUARE,1132,20647,1970,408,345,,Sold,,,https://www.redfin.com/MD/Sykesville/5905-Dale-Dr-21784/home/14449847,BRIGHT MLS,MDCR198778,N,Y,39.4116444,-76.9605719
PAST SALE,July-30-2019,Single Family Residential,6043 Oakland Mills Rd,Sykesville,MD,21784,320000,3,2.0,SYKESVILLE,1984,21736,1947,859,161,,Sold,,,https://www.redfin.com/MD/Sykesville/6043-Oakland-Mills-Rd-21784/home/15157615,BRIGHT MLS,MDCR187538,N,Y,39.407253,-76.900369
PAST SALE,January-10-2020,Single Family Residential,7517 Gaither Rd,Sykesville,MD,21784,499000,4,3.0,PATAPSCO ESTATES,2566,28226,1973,695,194,,Sold,,,https://www.redfin.com/MD/Sykesville/7517-Gaither-Rd-21784/home/14456111,BRIGHT MLS,MDCR190688,N,Y,39.3662186,-76.994195
PAST SALE,April-30-2019,Single Family Residential,6407 Glasgow Cir,Sykesville,MD,21784,400100,5,3.5,HEATHER HEIGHTS,2692,23960,1973,950,149,,Sold,,,https://www.redfin.com/MD/Sykesville/6407-Glasgow-Cir-21784/home/14480934,BRIGHT MLS,MDCR182280,N,Y,39.396943,-76.939229
PAST SALE,May-13-2020,Single Family Residential,6408 Glasgow Cir,Sykesville,MD,21784,450000,5,3.5,BONNIE BRAE,2790,21377,1973,571,161,,Sold,,,https://www.redfin.com/MD/Sykesville/6408-Glasgow-Cir-21784/home/14441154,BRIGHT MLS,MDCR195596,N,Y,39.3971484,-76.9401572
PAST SALE,July-14-2021,Single Family Residential,5822 Melville Rd,Sykesville,MD,21784,385000,3,1.5,FREEDOM ELECTION DISTRIC,1944,42253,1968,144,198,,Sold,,,https://www.redfin.com/MD/Sykesville/5822-Melville-Rd-21784/home/14427651,BRIGHT MLS,MDCR204856,N,Y,39.414406,-76.902871
PAST SALE,September-11-2019,Single Family Residential,1408 Woodridge Ln,Sykesville,MD,21784,399900,4,2.5,STRAWBRIDGE ESTATES,2280,39988,1973,816,175,,Sold,,,https://www.redfin.com/MD/Sykesville/1408-Woodridge-Ln-21784/home/14448730,BRIGHT MLS,MDCR190596,N,Y,39.4287937,-76.9440852
PAST SALE,July-1-2019,Single Family Residential,5704 Oak View Dr,Sykesville,MD,21784,485000,4,2.5,CARROLL DALE,3696,50530,2004,888,131,,Sold,,,https://www.redfin.com/MD/Sykesville/5704-Oakview-Dr-21784/home/14456293,BRIGHT MLS,MDCR187520,N,Y,39.4160315,-76.9195072
PAST SALE,July-15-2020,Single Family Residential,2121 Carroll Dale Rd,Sykesville,MD,21784,325000,4,2.0,CARROLL DALE,2092,25164,1973,508,155,,Sold,,,https://www.redfin.com/MD/Sykesville/2121-Carroll-Dale-Rd-21784/home/14442459,BRIGHT MLS,MDCR195888,N,Y,39.4174455,-76.9185705
PAST SALE,October-18-2021,Single Family Residential,6209 Oakland Mills Rd,Sykesville,MD,21784,500000,5,5.5,FREEDOM ELECTION DISTRIC,4961,21780,1956,48,101,,Sold,,,https://www.redfin.com/MD/Sykesville/6209-Oakland-Mills-Rd-21784/home/14474434,BRIGHT MLS,MDCR2002470,N,Y,39.404117,-76.898567
PAST SALE,,Single Family Residential,1112 Johnsville Rd,Sykesville,MD,21784,435000,,2.0,,1844,16800,1973,,236,,,,,https://www.redfin.com/MD/Sykesville/1112-Johnsville-Rd-21784/home/14437189,,,N,Y,39.4122487,-76.9577003
PAST SALE,March-31-2020,Single Family Residential,1415 Woodridge Ln,Sykesville,MD,21784,375000,4,3.0,FREEDOM ELECTION DISTRIC,2518,40675,1975,614,149,,Sold,,,https://www.redfin.com/MD/Sykesville/1415-Woodridge-Ln-21784/home/14444098,BRIGHT MLS,MDCR193558,N,Y,39.42745,-76.94559
PAST SALE,September-18-2020,Single Family Residential,5822 Westchester Hills Ct,Sykesville,MD,21784,366500,4,2.5,WESTCHESTER HILLS,2532,20000,1973,443,145,,Sold,,,https://www.redfin.com/MD/Sykesville/5822-Westchester-Hills-Ct-21784/home/14461155,BRIGHT MLS,MDCR194090,N,Y,39.412322,-76.918455
PAST SALE,January-17-2020,Single Family Residential,1405 Woodridge Ln,Sykesville,MD,21784,359000,5,3.5,STRAWBRIDGE ESTATES,2150,66647,1974,688,167,,Sold,,,https://www.redfin.com/MD/Sykesville/1405-Woodridge-Ln-21784/home/14435359,BRIGHT MLS,MDCR192610,N,Y,39.4298969,-76.944616
PAST SALE,August-31-2021,Single Family Residential,1323 Woodridge Ln,Sykesville,MD,21784,452000,3,3.0,FREEDOM ELECTION DISTRIC,2405,71438,1974,96,188,,Sold,,,https://www.redfin.com/MD/Sykesville/1323-Woodridge-Ln-21784/home/14434611,BRIGHT MLS,MDCR2000956,N,Y,39.427785,-76.942438
PAST SALE,May-27-2020,Single Family Residential,5308 Emerald Dr,Sykesville,MD,21784,354000,4,4.0,FREEDOM ELECTION DISTRIC,3206,33541,1956,557,110,,Sold,,,https://www.redfin.com/MD/Sykesville/5308-Emerald-Dr-21784/home/15157621,BRIGHT MLS,MDCR193804,N,Y,39.429649,-76.9124719
PAST SALE,January-25-2019,Vacant Land,Howard Lodge Dr,Sykesville,MD,21784,208000,,,HOWARD LODGE,,60548,,1045,,,Sold,,,https://www.redfin.com/MD/SYKESVILLE/HOWARD-LODGE-DR-21784/home/10086535,BRIGHT MLS,1000099297,N,Y,39.34015,-76.945644
