SALE TYPE,SOLD DATE,PROPERTY TYPE,ADDRESS,CITY,STATE OR PROVINCE,ZIP OR POSTAL CODE,PRICE,BEDS,BATHS,LOCATION,SQUARE FEET,LOT SIZE,YEAR BUILT,DAYS ON MARKET,$/SQUARE FEET,HOA/MONTH,STATUS,NEXT OPEN HOUSE START TIME,NEXT OPEN HOUSE END TIME,URL (SEE https://www.redfin.com/buy-a-home/comparative-market-analysis FOR INFO ON PRICING),SOURCE,MLS#,FAVORITE,INTERESTED,LATITUDE,LONGITUDE
MLS Listing,,Single Family Residential,8015 St. Peters Ln,New Kent,VA,23124,319900,2,2.5,,1763,294030,2005,4,181,,Active,,,https://www.redfin.com/VA/New-Kent/8015-St-Peters-Ln-23124/home/130022413,CVRMLS,2135051,N,Y,37.534759,-77.063029
MLS Listing,,Townhouse,7740 Leeds Castle Ln Unit B106,New Kent,VA,23124,332365,4,3.5,MAIDSTONE VILLAGE,2446,,2021,18,136,100,Active,,,https://www.redfin.com/VA/New-Kent/7740-Leeds-Castle-Ln-23124/unit-B106/home/177218486,REINMLS,10411460,N,Y,37.513087,-76.9872037
MLS Listing,,Townhouse,7740 Leeds Castle Ln,New Kent,VA,23124,332365,4,3.5,Maidstone Village,2446,,2021,18,136,100,Active,,,https://www.redfin.com/VA/New-Kent/7740-Leeds-Castle-Ln-23124/home/177218217,CVRMLS,2134729,N,Y,37.513087,-76.9872037
MLS Listing,,Townhouse,7736 Leeds Castle Ln Unit B107,New Kent,VA,23124,327005,4,3.5,MAIDSTONE VILLAGE,2225,,2021,18,147,100,Active,,,https://www.redfin.com/VA/New-Kent/7736-Leeds-Castle-Ln-23124/unit-B107/home/177218184,REINMLS,10411446,N,Y,37.513087,-76.9872037
MLS Listing,,Townhouse,7736 Leeds Castle Ln,New Kent,VA,23124,327005,4,3.5,Maidstone Village,2225,,2021,18,147,100,Active,,,https://www.redfin.com/VA/New-Kent/7736-Leeds-Castle-Ln-23124/home/177217976,CVRMLS,2134720,N,Y,37.513087,-76.9872037
MLS Listing,,Single Family Residential,7571 Southhamptonshire Way,New Kent,VA,23124,359990,3,2.0,Lifestyle at Four Seasons,1694,,2021,20,213,232,Active,,,https://www.redfin.com/VA/New-Kent/7571-Southhamptonshire-Way-23124/home/177192917,CVRMLS,2134495,N,Y,37.5148241,-77.0734471
MLS Listing,,Single Family Residential,7875 Lovegrass Ter,New Kent,VA,23124,447990,5,3.0,NEW KENT,3026,,2021,22,148,77,Active,December-5-2021 12:00 PM,December-5-2021 05:00 PM,https://www.redfin.com/VA/New-Kent/7875-Lovegrass-23124/home/176727890,REINMLS,10410966,N,Y,37.512981,-77.085443
MLS Listing,,Townhouse,7732 Leeds Castle Ln,New Kent,VA,23124,315485,3,2.5,MAIDSTONE VILLAGE,1914,,2021,23,165,100,Active,,,https://www.redfin.com/VA/New-Kent/7732-Leeds-Castle-Ln-23124/home/177173109,REINMLS,10410873,N,Y,37.513087,-76.9872037
MLS Listing,,Townhouse,7744 Leeds Castle Ln,New Kent,VA,23124,317175,3,2.5,MAIDSTONE VILLAGE,1667,,2021,23,190,100,Active,,,https://www.redfin.com/VA/New-Kent/7744-Leeds-Castle-Ln-23124/home/177172862,REINMLS,10410859,N,Y,37.513087,-76.9872037
MLS Listing,,Single Family Residential,7809 Faisan Ln,New Kent,VA,23124,379990,4,2.5,NEW KENT,1906,,2021,28,199,77,Active,December-5-2021 12:00 PM,December-5-2021 05:00 PM,https://www.redfin.com/VA/New-Kent/7809-Faisan-LN-23124/home/177079862,REINMLS,10410029,N,Y,37.5360052,-77.0334179
MLS Listing,,Single Family Residential,9278 Angel's Share Dr,New Kent,VA,23124,980000,5,5.5,Viniterra,4495,52272,2021,43,218,104,Active,,,https://www.redfin.com/VA/New-Kent/9278-Angel-s-Share-Dr-23124/home/162462476,CVRMLS,2132385,N,Y,37.535835,-77.083774
MLS Listing,,Vacant Land,7340 Crush Ct,New Kent,VA,23124,120000,,,Farms Of New Kent,,47480,,51,,104,Active,,,https://www.redfin.com/VA/New-Kent/7340-Crush-Ct-23124/home/112191556,CVRMLS,2131149,N,Y,37.530371,-77.082273
MLS Listing,,Vacant Land,0 Clarke Rd,New Kent,VA,23089,60000,,,,,106286,,53,,,Active,,,https://www.redfin.com/VA/LANEXA/CLARKE-RD-23089/home/162467745,CVRMLS,2131470,N,Y,37.497565,-76.968896
MLS Listing,,Vacant Land,00 Poindexter Rd,New Kent,VA,23124,99000,,,New Kent Colony Estates,,157251,,56,,,Active,,,https://www.redfin.com/VA/NEW-KENT/POINDEXTER-RD-23124/home/162466467,CVRMLS,2131108,N,Y,37.512297,-77.032825
MLS Listing,,Single Family Residential,,New Kent,VA,23124,357990,3,2.0,,1696,,2021,58,211,232,Active,,,https://www.redfin.com/VA/New-Kent/Undisclosed-address-23124/home/176685331,CVRMLS,2131002,N,Y,37.5149037,-76.9848327
MLS Listing,,Single Family Residential,,New Kent,VA,23124,345990,3,2.0,,1694,,2021,58,204,232,Active,,,https://www.redfin.com/VA/New-Kent/Undisclosed-address-23124/home/176685274,CVRMLS,2130998,N,Y,37.5149037,-76.9848327
MLS Listing,,Single Family Residential,,New Kent,VA,23124,339990,3,2.0,,1533,,2021,58,222,232,Active,,,https://www.redfin.com/VA/New-Kent/Undisclosed-address-23124/home/176685157,CVRMLS,2130993,N,Y,37.5149037,-76.9848327
MLS Listing,,Single Family Residential,,New Kent,VA,23124,304990,3,2.0,,1338,,2021,58,228,232,Active,,,https://www.redfin.com/VA/New-Kent/Undisclosed-address-23124/home/176684963,CVRMLS,2130992,N,Y,37.5149037,-76.9848327
MLS Listing,,Townhouse,MM Riverdale Leeds Castle Ln,New Kent,VA,23124,286950,3,2.5,MAIDSTONE VILLAGE,1667,,2021,74,172,100,Active,,,https://www.redfin.com/VA/New-Kent/MM-Leeds-Castle-Ln-23124/home/176494410,REINMLS,10402257,N,Y,37.513178,-76.987338
MLS Listing,,Single Family Residential,9204 Angel's Share Dr,New Kent,VA,23124,799000,4,4.5,Viniterra,3286,47916,2020,101,243,104,Active,,,https://www.redfin.com/VA/New-Kent/9204-Angel-s-Share-Dr-23124/home/162466403,CVRMLS,2126623,N,Y,37.534554,-77.083727
MLS Listing,,Single Family Residential,7425 Tempranillo Ct,New Kent,VA,23124,650000,4,3.5,Viniterra,2911,13939,2020,104,223,104,Active,,,https://www.redfin.com/VA/Unknown/7425-Tempranillo-Ct-23124/home/162472776,CVRMLS,2126217,N,Y,37.5305151,-77.0787996
MLS Listing,,Vacant Land,8715 Barrique Rd,New Kent,VA,23124,140000,,,Viniterra,,48787,,104,,104,Active,,,https://www.redfin.com/VA/New-Kent/8715-Barrique-Rd-23124/home/162462507,CVRMLS,2126214,N,Y,37.529308,-77.081068
MLS Listing,,Vacant Land,7237 Canopy Cir,New Kent,VA,23124,170000,,,Viniterra,,57499,,104,,104,Active,,,https://www.redfin.com/VA/New-Kent/7237-Canopy-Cir-23124/home/176712121,CVRMLS,2126213,N,Y,37.538205,-77.084905
MLS Listing,,Vacant Land,9007 Angels Share Dr,New Kent,VA,23124,215000,,,Viniterra,,53578,,104,,104,Active,,,https://www.redfin.com/VA/New-Kent/9007-Angel-s-Share-Dr-23124/home/162466383,CVRMLS,2126203,N,Y,37.531937,-77.081209
MLS Listing,,Single Family Residential,7960 Uplands Dr,New Kent,VA,23124,351990,4,2.5,NEW KENT,1649,,2021,105,213,77,Active,December-5-2021 12:00 PM,December-5-2021 05:00 PM,https://www.redfin.com/VA/New-Kent/7960-Uplands-DR-23124/home/176103331,REINMLS,10397624,N,Y,37.5149037,-76.9848327
MLS Listing,,Single Family Residential,7879 Faisan Ln,New Kent,VA,23124,388990,4,2.5,NEW KENT,1906,,2021,107,204,77,Active,December-5-2021 12:00 PM,December-5-2021 05:00 PM,https://www.redfin.com/VA/New-Kent/7879-Faisan-LN-23124/home/176164589,REINMLS,10397584,N,Y,37.5149037,-76.9848327
MLS Listing,,Single Family Residential,7873 Faisan Ln,New Kent,VA,23124,352990,4,2.5,NEW KENT,1649,,2021,107,214,77,Active,December-5-2021 12:00 PM,December-5-2021 05:00 PM,https://www.redfin.com/VA/New-Kent/7873-Faisan-23124/home/176164393,REINMLS,10397582,N,Y,37.5360052,-77.0334179
MLS Listing,,Single Family Residential,9550 Essex Hills Rd,New Kent,VA,23124,625000,4,3.5,Essex Hills,3336,224334,2000,111,187,33,Active,,,https://www.redfin.com/VA/New-Kent/9550-Essex-Hills-Rd-23124/home/130022214,CVRMLS,2125520,N,Y,37.547247,-77.1062819
MLS Listing,,Townhouse,7737 Leeds Castle Ln,New Kent,VA,23124,300070,3,2.5,MAIDSTONE VILLAGE,1801,,2021,142,167,100,Active,,,https://www.redfin.com/VA/New-Kent/7737-Leeds-Castle-Ln-23124/home/175707275,REINMLS,10389730,N,Y,37.513087,-76.9872037
MLS Listing,,Townhouse,7760 Leeds Castle Ln,New Kent,VA,23124,309625,3,2.5,MAIDSTONE VILLAGE,1667,,2021,143,186,100,Active,,,https://www.redfin.com/VA/New-Kent/7760-Leeds-Castle-Ln-23124/home/175687440,REINMLS,10389913,N,Y,37.513087,-76.9872037
MLS Listing,,Townhouse,7750 Leeds Castle Ln,New Kent,VA,23124,315185,3,2.5,MAIDSTONE VILLAGE,1667,,2021,143,189,100,Active,,,https://www.redfin.com/VA/New-Kent/7750-Leeds-Castle-Ln-23124/home/175687142,REINMLS,10389927,N,Y,37.513087,-76.9872037
MLS Listing,,Single Family Residential,7280 Amarone Way,New Kent,VA,23124,648690,3,2.0,Viniterra,2667,45738,2021,144,243,100,Active,,,https://www.redfin.com/VA/NEW-KENT/7280-AMARONE-WAY-23124/home/162472735,CVRMLS,2121597,N,Y,37.536795,-77.084331
MLS Listing,,Single Family Residential,8852 Porto Ct,New Kent,VA,23124,819105,4,3.5,Viniterra,4070,57063,2021,148,201,100,Active,,,https://www.redfin.com/VA/New-Kent/8852-Porto-Ct-23124/home/162472746,CVRMLS,2121039,N,Y,37.533126,-77.085279
MLS Listing,,Vacant Land,0 Greenwood Blvd,New Kent,VA,23124,63000,,,Greenwood Estates,,22651,,248,,,Active,,,https://www.redfin.com/VA/NEW-KENT/GREENWOOD-BLVD-23124/home/108495903,CVRMLS,2107607,N,Y,37.536249,-77.118045
MLS Listing,,Townhouse,MM Riverdale Leeds Castle Ln,New Kent,VA,23124,286950,3,2.5,Maidstone Village,1667,,2021,7292,172,100,Active,,,https://www.redfin.com/VA/New-Kent/MM-Riverdale-Leeds-Castle-Ln-23124/home/176494829,CVRMLS,2129270,N,Y,37.5130332,-76.9871557
MLS Listing,,Vacant Land,8633 Barrique Rd,New Kent,VA,23124,125000,,,Viniterra,,50093,,7341,,104,Active,,,https://www.redfin.com/VA/New-Kent/8633-Barrique-Rd-23124/home/108495621,CVRMLS,2126209,N,Y,37.527858,-77.082218
New Construction Home,,Single Family Residential,7571 Southamptonshire Way,New Kent,VA,23124,365055,3,2.0,The Groves at New Kent 55 Plus,1700,,2021,34,215,,Active,,,https://www.redfin.com/VA/New-Kent/7571-Southamptonshire-WAY-23124/home/177322173,NewHomeSource.com,2101210,N,Y,37.512906,-77.07471
New Construction Plan,,Single Family Residential,Dominica Spring,New Kent,VA,23124,345990,3,2.0,The Groves at New Kent 55 Plus,1694,,,,204,,Active,,,https://www.redfin.com/VA/New-Kent/The-Groves-at-New-Kent-55-Plus/Dominica-Spring/home/176851513,NewHomeSource.com,Plan-171928590,N,Y,37.5127395,-77.0747635
New Construction Plan,,Single Family Residential,Eden Cay,New Kent,VA,23124,357990,3,2.0,The Groves at New Kent 55 Plus,1696,,,,211,,Active,,,https://www.redfin.com/VA/New-Kent/The-Groves-at-New-Kent-55-Plus/Eden-Cay/home/176851511,NewHomeSource.com,Plan-171928591,N,Y,37.5127395,-77.0747635
New Construction Plan,,Single Family Residential,Grand Bahama,New Kent,VA,23124,304990,3,2.0,The Groves at New Kent 55 Plus,1338,,,,228,,Active,,,https://www.redfin.com/VA/New-Kent/The-Groves-at-New-Kent-55-Plus/Grand-Bahama/home/176851510,NewHomeSource.com,Plan-171928592,N,Y,37.5127395,-77.0747635
New Construction Plan,,Single Family Residential,Grand Cayman,New Kent,VA,23124,339990,3,2.0,The Groves at New Kent 55 Plus,1533,,,,222,,Active,,,https://www.redfin.com/VA/New-Kent/The-Groves-at-New-Kent-55-Plus/Grand-Cayman/home/176851509,NewHomeSource.com,Plan-171928593,N,Y,37.5127395,-77.0747635
New Construction Plan,,Single Family Residential,Cedar,New Kent,VA,23124,344990,4,2.5,The Oaks,1903,,,,181,,Active,,,https://www.redfin.com/VA/New-Kent/The-Oaks/Cedar/home/177212655,NewHomeSource.com,Plan-171841934,N,Y,37.49825,-76.99106
PAST SALE,,Single Family Residential,11121 New Town Rd,New Kent,VA,23124,249900,3,2.0,,1527,189922,2005,,164,,,,,https://www.redfin.com/VA/New-Kent/11121-New-Town-Rd-23124/home/130022016,,,N,Y,37.5747578,-77.1209432
PAST SALE,February-28-2019,Vacant Land,Lot 3 Mystic Oak Trl,New Kent,VA,23124,98000,,,The Oaks,,174240,,1011,,,Sold,,,https://www.redfin.com/VA/New-Kent/Lot-3-Mystic-Oak-Trl-23124/home/174952456,CVRMLS,1840940,N,Y,37.5186954,-77.000492
PAST SALE,,Single Family Residential,10021 Tunstall Rd,New Kent,VA,23124,249950,3,2.0,,1512,283140,1973,,165,,,,,https://www.redfin.com/VA/New-Kent/10021-Tunstall-Rd-23124/home/129908934,,,N,Y,37.5554429,-77.104602
PAST SALE,,Other,10211 Talleysville Rd,New Kent,VA,23124,265000,3,2.0,,1418,24394,2008,,187,,,,,https://www.redfin.com/VA/New-Kent/10211-Talleysville-Rd-23124/home/130061067,,,N,Y,37.559326,-77.056289
PAST SALE,June-8-2021,Single Family Residential,5753 Deerpath Dr,New Kent,VA,23124,364000,4,2.0,Deerlake,2060,47480,2008,180,177,14,Sold,,,https://www.redfin.com/VA/New-Kent/5753-Deerpath-Dr-23124/home/130025677,CVRMLS,2108791,N,Y,37.549005,-77.113481
PAST SALE,March-2-2021,Single Family Residential,11330 New Town Rd,New Kent,VA,23124,302000,3,2.0,,1527,119790,2006,278,198,,Sold,,,https://www.redfin.com/VA/New-Kent/11330-New-Town-Rd-23124/home/162468510,CVRMLS,2100433,N,Y,37.578794,-77.125405
PAST SALE,,Single Family Residential,9521 Old Church Rd,New Kent,VA,23124,185500,3,2.0,,1080,63598,2013,,172,,,,,https://www.redfin.com/VA/New-Kent/9521-Old-Church-Rd-23124/home/130009954,,,N,Y,37.5477628,-77.0716239
PAST SALE,July-6-2021,Single Family Residential,TBD Hopewell Rd,New Kent,VA,23124,377300,3,2.0,,1594,202989,2020,152,237,,Sold,,,https://www.redfin.com/VA/New-Kent/5300-Hopewell-Rd-23124/home/175848765,CVRMLS,2000979,N,Y,37.58458,-77.122694
PAST SALE,,Single Family Residential,6019 Pontefract Dr,New Kent,VA,23124,269950,4,2.5,,2329,29185,1981,,116,,,,,https://www.redfin.com/VA/New-Kent/6019-Pontefract-Dr-23124/home/130025978,,,N,Y,37.537106,-77.1092559
PAST SALE,,Single Family Residential,10437 Talleysville Rd,New Kent,VA,23124,304950,3,2.5,,2310,219107,2000,,132,,,,,https://www.redfin.com/VA/New-Kent/10437-Talleysville-Rd-23124/home/130037835,,,N,Y,37.5641419,-77.05511
PAST SALE,December-21-2018,Single Family Residential,Lot 17 Rock Cedar Rd,New Kent,VA,23124,278000,3,2.5,,1850,,2018,1080,150,15,Sold,,,https://www.redfin.com/VA/District-4/Lot-17-Rock-Cedar-Rd-23124/home/174953276,CVRMLS,1827202,N,Y,37.5292641,-77.0371136
PAST SALE,August-6-2021,Single Family Residential,7970 Uplands Dr,New Kent,VA,23124,354990,4,2.5,Arbors,1906,,2021,121,186,77,Sold,,,https://www.redfin.com/VA/New-Kent/7970-Uplands-DR-23124/home/175049495,CVRMLS,2112632,N,Y,37.5149037,-76.9848327
PAST SALE,June-17-2021,Single Family Residential,7211 Cress Ter,New Kent,VA,23124,355705,5,3.0,Arbors,2511,,2021,171,142,77,Sold,,,https://www.redfin.com/VA/New-Kent/7211-Cress-TER-23124/home/174852552,CVRMLS,2103607,N,Y,37.5149037,-76.9848327
PAST SALE,October-20-2021,Single Family Residential,7450 Sedge Dr,New Kent,VA,23124,401020,4,2.5,NEW KENT,2340,,2021,46,171,77,Sold,,,https://www.redfin.com/VA/New-Kent/7450-Sedge-DR-23124/home/175334695,REINMLS,10383456,N,Y,37.51441,-77.08504
PAST SALE,October-25-2021,Single Family Residential,7839 Faisan Ln,New Kent,VA,23124,341990,4,2.5,NEW KENT,1649,,2021,41,207,77,Sold,,,https://www.redfin.com/VA/New-Kent/7839-Faisan-LN-23124/home/175181552,REINMLS,10378923,N,Y,37.5149037,-76.9848327
PAST SALE,August-27-2021,Single Family Residential,7872 Faisan Ln,New Kent,VA,23124,359990,4,2.0,NEW KENT,1906,,2021,100,189,77,Sold,,,https://www.redfin.com/VA/New-Kent/7872-Faisan-LN-23124/home/175328838,REINMLS,10383176,N,Y,37.5360052,-77.0334179
PAST SALE,October-29-2021,Single Family Residential,6270 Bushnell Dr,New Kent,VA,23124,426200,4,3.5,Rochambeau Estates,3184,22651,2020,37,134,8,Sold,,,https://www.redfin.com/VA/New-Kent/6270-Bushnell-Dr-23124/home/174852684,CVRMLS,2037758,N,Y,37.5437915,-77.1101853
PAST SALE,July-22-2021,Single Family Residential,7216 Cress Ter,New Kent,VA,23124,398250,4,1.5,Arbors,2340,,2021,136,170,77,Sold,,,https://www.redfin.com/VA/New-Kent/7216-Cress-TER-23124/home/175105972,CVRMLS,2113546,N,Y,37.5149037,-76.9848327
PAST SALE,June-10-2021,Single Family Residential,7231 Cress Ter,New Kent,VA,23124,338560,4,2.0,Arbors,1826,,2021,178,185,77,Sold,,,https://www.redfin.com/VA/New-Kent/7231-Cress-TER-23124/home/174852479,CVRMLS,2104043,N,Y,37.5149037,-76.9848327
PAST SALE,July-16-2021,Single Family Residential,7240 Cress Ter,New Kent,VA,23124,419820,5,3.0,NEW KENT,2511,,2020,142,167,77,Sold,,,https://www.redfin.com/VA/New-Kent/7240-Cress-TER-23124/home/175006993,REINMLS,10373760,N,Y,37.512912,-77.084842
PAST SALE,August-19-2021,Single Family Residential,8020 Uplands Dr,New Kent,VA,23124,388990,3,2.5,NEW KENT,2527,,2021,108,154,77,Sold,,,https://www.redfin.com/VA/New-Kent/8020-Uplands-DR-23124/home/175045357,REINMLS,10374996,N,Y,37.5149037,-76.9848327
PAST SALE,July-30-2021,Single Family Residential,6299 Bushnell Dr,New Kent,VA,23124,497082,5,3.5,Rochambeau Estates,3351,,2020,128,148,33,Sold,,,https://www.redfin.com/VA/New-Kent/6299-Bushnell-Dr-23124/home/174852710,CVRMLS,2034741,N,Y,37.5437915,-77.1101853
PAST SALE,November-18-2021,Single Family Residential,9858 Snipe Ln,New Kent,VA,23124,415000,4,2.5,DEERLAKE,2253,26136,2016,17,184,14,Sold,,,https://www.redfin.com/VA/New-Kent/9858-Snipe-Ln-23124/home/130071425,REINMLS,10403415,N,Y,37.5497631,-77.1117653
PAST SALE,November-1-2021,Single Family Residential,7161 Cress Ct,New Kent,VA,23124,479990,5,3.5,NEW KENT,3059,,2021,34,157,77,Sold,,,https://www.redfin.com/VA/New-Kent/7161-Cress-CT-23124/home/174783644,REINMLS,10387048,N,Y,37.51447,-77.08504
PAST SALE,September-29-2021,Single Family Residential,6980 Oakfork Loop,New Kent,VA,23124,359955,4,2.5,The Oaks,2203,,2021,67,163,15,Sold,,,https://www.redfin.com/VA/New-Kent/6980-Oakfork-Loop-23124/home/174964452,CVRMLS,2110755,N,Y,37.499665,-76.9935814
PAST SALE,October-1-2021,Single Family Residential,7912 Uplands Dr,New Kent,VA,23124,340990,4,2.5,NEW KENT,1649,,2021,65,207,77,Sold,,,https://www.redfin.com/VA/New-Kent/7912-Uplands-DR-23124/home/175750961,REINMLS,10390967,N,Y,37.5149037,-76.9848327
PAST SALE,September-2-2021,Single Family Residential,5700 Gentry Dr,New Kent,VA,23124,343000,3,2.0,Greenwood Estates,1806,21780,1999,94,190,,Sold,,,https://www.redfin.com/VA/New-Kent/5700-Gentry-Dr-23124/home/129902937,CVRMLS,2123560,N,Y,37.5389932,-77.1159538
PAST SALE,September-24-2021,Single Family Residential,7430 Sedge Dr,New Kent,VA,23124,412226,3,2.5,NEW KENT,2340,,2021,72,176,77,Sold,,,https://www.redfin.com/VA/New-Kent/7430-Sedge-DR-23124/home/175482432,REINMLS,10388978,N,Y,37.51429,-77.08489
PAST SALE,August-17-2021,Single Family Residential,11353 Oakrise Rd,New Kent,VA,23124,340250,4,2.5,The Oaks,1903,,2021,110,179,15,Sold,,,https://www.redfin.com/VA/New-Kent/11353-Oakrise-Rd-23124/home/162469914,CVRMLS,2101172,N,Y,37.495522,-76.99641
PAST SALE,May-11-2021,Single Family Residential,10050 Deerlake Dr,New Kent,VA,23124,336200,4,2.5,Deerlake,2320,25264,2009,208,145,14,Sold,,,https://www.redfin.com/VA/New-Kent/10050-Deer-Lake-Dr-23124/home/130054475,CVRMLS,2109655,N,Y,37.5486727,-77.1147232
PAST SALE,September-24-2021,Single Family Residential,8006 Uplands Dr,New Kent,VA,23124,407580,3,2.5,NEW KENT,2527,,2021,72,161,77,Sold,,,https://www.redfin.com/VA/New-Kent/8006-Uplands-DR-23124/home/175045366,REINMLS,10374997,N,Y,37.5149037,-76.9848327
PAST SALE,August-16-2021,Single Family Residential,5770 Longbow Ln,New Kent,VA,23124,363900,4,3.0,Deerlake,2468,34412,2010,111,147,11,Sold,,,https://www.redfin.com/VA/New-Kent/5770-Longbow-Ln-23124/home/130008993,CVRMLS,2118424,N,Y,37.5479054,-77.1134692
PAST SALE,November-19-2021,Single Family Residential,9252 Ordinary Ln,New Kent,VA,23124,375000,3,2.0,ALL OTHERS AREA 140,1596,164961,2001,16,235,17,Sold,,,https://www.redfin.com/VA/New-Kent/9252-Ordinary-Ln-23124/home/129910125,REINMLS,10405760,N,Y,37.5177502,-77.0359353
PAST SALE,June-21-2019,Single Family Residential,6062 Antler Hill Ct,New Kent,VA,23124,302000,3,2.5,Deerlake,2300,25264,2018,898,131,14,Sold,,,https://www.redfin.com/VA/New-Kent/6062-Antler-Hill-Ct-23124/home/162472373,CVRMLS,1900653,N,Y,37.551386,-77.109689
PAST SALE,,Single Family Residential,10331 Criss Cross Rd,New Kent,VA,23124,346000,4,2.5,,2528,101930,2000,,137,,,,,https://www.redfin.com/VA/New-Kent/10331-Criss-Cross-Rd-23124/home/162469250,,,N,Y,37.5117701,-77.0160311
PAST SALE,September-14-2021,Single Family Residential,9970 Deerlake Dr,New Kent,VA,23124,338000,4,3.0,Deerlake,2043,26136,2008,82,165,14,Sold,,,https://www.redfin.com/VA/New-Kent/9970-Deer-Lake-Dr-23124/home/108495760,CVRMLS,2124177,N,Y,37.5481782,-77.1152266
PAST SALE,March-11-2021,Single Family Residential,8961 Old River Rd,New Kent,VA,23124,245000,2,2.0,,1332,218671,2009,269,184,,Sold,,,https://www.redfin.com/VA/New-Kent/8961-Old-River-Rd-23124/home/130037806,CVRMLS,2101801,N,Y,37.572718,-77.047831
PAST SALE,,Single Family Residential,10371 Old Towne Ln,New Kent,VA,23124,395000,4,3.0,,2766,148975,1999,,143,,,,,https://www.redfin.com/VA/New-Kent/10371-Old-Towne-Ln-23124/home/130007272,,,N,Y,37.5095658,-77.0149964
PAST SALE,,Single Family Residential,5900 Buck Hunt Ln,New Kent,VA,23124,268000,3,2.0,,1796,27443,2003,,149,,,,,https://www.redfin.com/VA/New-Kent/5900-Buck-Hunt-Ln-23124/home/108966371,,,N,Y,37.5439059,-77.1128541
PAST SALE,July-29-2021,Single Family Residential,6077 Fawnlake Ct,New Kent,VA,23124,355000,3,3.5,Deerlake,2867,25264,2016,129,124,11,Sold,,,https://www.redfin.com/VA/New-Kent/6077-Fawnlake-Ct-23124/home/130122700,CVRMLS,2113875,N,Y,37.5522418,-77.1097018
PAST SALE,July-1-2021,Single Family Residential,5781 Bushnell Dr,New Kent,VA,23124,610000,5,5.5,Rochambeau Estates,4393,23086,2017,157,139,42,Sold,,,https://www.redfin.com/VA/New-Kent/5781-Bushnell-Dr-23124/home/147610397,CVRMLS,2106200,N,Y,37.5420352,-77.1117957
PAST SALE,June-19-2019,Single Family Residential,6120 Hingham Dr,New Kent,VA,23124,235000,4,2.0,Kenwood Farms,1986,36590,1987,900,118,,Sold,,,https://www.redfin.com/VA/New-Kent/6120-Hingham-Dr-23124/home/130020574,CVRMLS,1900172,N,Y,37.5399905,-77.1062286
PAST SALE,August-27-2021,Single Family Residential,7827 Faisan Ln,New Kent,VA,23124,339990,4,2.5,NEW KENT,1649,,2021,100,206,77,Sold,,,https://www.redfin.com/VA/New-Kent/7827-Faisan-LN-23124/home/175171988,REINMLS,10378922,N,Y,37.5149037,-76.9848327
PAST SALE,August-27-2021,Single Family Residential,7980 Uplands Dr,New Kent,VA,23124,420990,5,3.0,NEW KENT,3026,,2020,100,139,77,Sold,,,https://www.redfin.com/VA/New-Kent/7980-Uplands-DR-23124/home/175100127,REINMLS,10376272,N,Y,37.5149037,-76.9848327
PAST SALE,,Vacant Land,7650 SEDGE DR,NEW KENT,VA,23124,369480,,,,,8059,,,,,,,,https://www.redfin.com/VA/NEW-KENT/7650-SEDGE-DR-23124/home/172527520,,,N,Y,37.5155,-77.0829
PAST SALE,,Single Family Residential,7544 SEDGE DR,NEW KENT,VA,23124,317672,3,2.5,,2382,7492,2020,,133,,,,,https://www.redfin.com/VA/NEW-KENT/7544-SEDGE-DR-23124/home/172527522,,,N,Y,37.5155,-77.0829
PAST SALE,,Single Family Residential,5670 Gentry Dr,New Kent,VA,23124,345000,4,2.5,,2448,29185,2006,,141,,,,,https://www.redfin.com/VA/New-Kent/5670-Gentry-Dr-23124/home/129912646,,,N,Y,37.5389072,-77.1154499
PAST SALE,March-18-2021,Single Family Residential,11442 Oakbow Ct,New Kent,VA,23124,307045,4,2.5,The Oaks,1903,,2020,262,161,8,Sold,,,https://www.redfin.com/VA/NEW-KENT/11442-OAKBOW-CT-23124/home/174946107,CVRMLS,2031055,N,Y,37.5152,-76.9829
PAST SALE,June-28-2021,Single Family Residential,11429 Oakbow Ct,New Kent,VA,23124,319250,4,2.5,The Oaks,1903,,2021,160,168,15,Sold,,,https://www.redfin.com/VA/NEW-KENT/11429-OAKBOW-CT-23124/home/174852653,CVRMLS,2104490,N,Y,37.5152,-76.9829
PAST SALE,,Single Family Residential,8022 Arbor Ponds Ter,New Kent,VA,23124,291000,3,2.0,,2002,7841,2012,,145,,,,,https://www.redfin.com/VA/New-Kent/8022-Arbor-Ponds-Ter-23124/home/130061366,,,N,Y,37.516518,-77.080775
PAST SALE,November-3-2021,Single Family Residential,6265 Bushnell Dr,New Kent,VA,23124,419869,4,3.5,Rochambeau Estates,2767,27007,2020,32,152,33,Sold,,,https://www.redfin.com/VA/New-Kent/6265-Bushnell-Dr-23124/home/174852592,CVRMLS,2100551,N,Y,37.5437915,-77.1101853
PAST SALE,October-1-2021,Single Family Residential,6254 Bushnell Dr,New Kent,VA,23124,390055,3,3.5,Rochambeau Estates,2838,23958,2020,65,137,33,Sold,,,https://www.redfin.com/VA/New-Kent/6254-Bushnell-Dr-23124/home/174852764,CVRMLS,2037745,N,Y,37.5437915,-77.1101853
PAST SALE,,Single Family Residential,4429 Hopewell Rd,New Kent,VA,23124,292900,3,2.5,,1561,231304,1988,,188,,,,,https://www.redfin.com/VA/New-Kent/4429-Hopewell-Rd-23124/home/162465623,,,N,Y,37.589792,-77.1434419
PAST SALE,,Single Family Residential,7715 Rockbridge Run,New Kent,VA,23124,275000,2,2.0,,2256,10890,2018,,122,,,,,https://www.redfin.com/VA/New-Kent/7715-Rockbridge-Run-23124/home/162472678,,,N,Y,37.514031,-77.072529
PAST SALE,September-27-2021,Single Family Residential,8058 Arbor Ponds Ter,New Kent,VA,23124,319000,3,2.0,The Arbors At New Kent Winery,1768,10018,2018,69,180,77,Sold,,,https://www.redfin.com/VA/New-Kent/8058-Arbor-Ponds-Ter-23124/home/147609946,CVRMLS,2120880,N,Y,37.515954,-77.080777
PAST SALE,October-1-2021,Single Family Residential,7731 Sedge Dr,New Kent,VA,23124,520000,4,3.5,ALL OTHERS AREA 140,4518,12196,2018,65,115,78,Sold,,,https://www.redfin.com/VA/New-Kent/7731-Sedge-Dr-23124/home/162466258,REINMLS,10393087,N,Y,37.512138,-77.083512
PAST SALE,September-30-2021,Single Family Residential,7811 N Courthouse Rd,New Kent,VA,23124,302000,3,2.0,ALL OTHERS AREA 140,1728,87120,1948,66,175,,Sold,,,https://www.redfin.com/VA/New-Kent/7811-N-Courthouse-Rd-23124/home/130022533,REINMLS,10389203,N,Y,37.5180803,-77.0108008
PAST SALE,August-20-2019,Single Family Residential,8070 Arbor Ponds Ter,New Kent,VA,23124,285000,3,2.0,The Arbors At New Kent Winery,2216,10890,2013,838,129,73,Sold,,,https://www.redfin.com/VA/New-Kent/8070-Arbor-Ponds-Ter-23124/home/130030648,CVRMLS,1916957,N,Y,37.5157529,-77.08084
PAST SALE,May-31-2019,Vacant Land,TBD New Kent Hwy,New Kent,VA,23141,65000,,,,,108900,,919,,,Sold,,,https://www.redfin.com/VA/New-Kent/7911-N-Courthouse-Way-23124/home/162472658,CVRMLS,1902075,N,Y,37.5220466,-77.0085432
PAST SALE,July-19-2019,Single Family Residential,TBD Poindexter Rd,New Kent,VA,23124,317000,3,2.0,,1594,217800,2018,870,199,,Sold,,,https://www.redfin.com/VA/New-Kent/7051-Poindexter-Rd-23124/home/174952153,CVRMLS,1830825,N,Y,37.505161,-77.02009
PAST SALE,July-20-2021,Single Family Residential,7221 Cress Ter,New Kent,VA,23124,327490,3,2.5,ALL OTHERS AREA 140,2200,,2021,138,149,77,Sold,,,https://www.redfin.com/VA/New-Kent/7221-Cress-TER-23124/home/174852562,REINMLS,10390938,N,Y,37.512949,-77.084151
PAST SALE,,Other,11505 Oakfork Dr,New Kent,VA,23124,308000,3,2.5,,1948,22651,2019,,158,,,,,https://www.redfin.com/VA/New-Kent/11505-Oakfork-Dr-23124/home/167740928,,,N,Y,37.498203,-76.9929854
PAST SALE,,Single Family Residential,5700 Wensleydale Dr,New Kent,VA,23124,351000,3,3.0,,2746,64469,1986,,128,,,,,https://www.redfin.com/VA/New-Kent/5700-Wensleydale-Dr-23124/home/129915781,,,N,Y,37.535423,-77.1142232
PAST SALE,,Single Family Residential,5601 Gentry Dr,New Kent,VA,23124,239000,3,2.5,,1763,27007,1999,,136,,,,,https://www.redfin.com/VA/New-Kent/5601-Gentry-Dr-23124/home/129916477,,,N,Y,37.538316,-77.117293
PAST SALE,November-17-2021,Single Family Residential,7551 Shooter Run Rd,New Kent,VA,23124,650000,6,3.5,ALL OTHERS AREA 140,6500,836352,1990,18,100,,Sold,,,https://www.redfin.com/VA/New-Kent/7551-Shooter-Run-Rd-23124/home/130061464,REINMLS,10378119,N,Y,37.5113053,-76.9653995
PAST SALE,December-14-2018,Single Family Residential,6066 Fawnlake Ct,New Kent,VA,23124,298500,4,2.5,Deerlake,2350,34848,2013,1087,127,14,Sold,,,https://www.redfin.com/VA/New-Kent/6066-Fawnlake-Ct-23124/home/130022360,CVRMLS,1822334,N,Y,37.5527853,-77.1093095
PAST SALE,,Vacant Land,11110 New Town Rd,New Kent,VA,23124,28000,,1.0,,,277913,1960,,,,,,,https://www.redfin.com/VA/New-Kent/11110-New-Town-Rd-23124/home/162461495,,,N,Y,37.572949,-77.120543
PAST SALE,,Other,6200 Hopewell Rd,New Kent,VA,23124,409000,3,2.5,,1752,435600,1973,,233,,,,,https://www.redfin.com/VA/New-Kent/6200-Hopewell-Rd-23124/home/130046887,,,N,Y,37.581765,-77.103317
PAST SALE,,Other,11050 N Tunstall Station Rd,New Kent,VA,23124,75650,2,3.5,,2208,56628,1870,,34,,,,,https://www.redfin.com/VA/New-Kent/11050-N-Tunstall-Station-Rd-23124/home/162470524,,,N,Y,37.573328,-77.094083
PAST SALE,,Single Family Residential,7119 Gum Ball Ln,Mechanicsville,VA,23111,230000,3,2.0,,1653,571333,1974,,139,,,,,https://www.redfin.com/VA/Mechanicsville/7119-Gum-Ball-Ln-23111/home/130060835,,,N,Y,37.5918595,-77.1744338
PAST SALE,August-23-2021,Vacant Land,0 New Town Rd,New Kent,VA,23124,100000,,,,,239580,,104,,,Sold,,,https://www.redfin.com/VA/NEW-KENT/NEW-TOWN-RD-23124/home/162465069,CVRMLS,2123711,N,Y,37.578067,-77.121978
PAST SALE,April-1-2019,Single Family Residential,6001 Hopewell Rd,New Kent,VA,23124,265000,3,3.0,,1820,91040,1976,979,146,,Sold,,,https://www.redfin.com/VA/New-Kent/6001-Hopewell-Rd-23124/home/130011226,CVRMLS,1841597,N,Y,37.5830766,-77.1093807
PAST SALE,,Other,11237 New Town Rd,New Kent,VA,23124,350000,3,2.0,,1844,245678,2019,,190,,,,,https://www.redfin.com/VA/New-Kent/11237-New-Town-Rd-23124/home/162470533,,,N,Y,37.5768751,-77.1218469
PAST SALE,,Single Family Residential,9660 Windamere Dr,New Kent,VA,23124,330000,4,2.5,,2402,219978,2007,,137,,,,,https://www.redfin.com/VA/New-Kent/9660-Windamere-Dr-23124/home/130008949,,,N,Y,37.549392,-77.102042
PAST SALE,,Single Family Residential,11360 McLaughlin Ln,New Kent,VA,23124,220000,3,2.0,,1188,46609,2012,,185,,,,,https://www.redfin.com/VA/New-Kent/11360-McLaughlin-Ln-23124/home/130026196,,,N,Y,37.577256,-77.102343
PAST SALE,,Single Family Residential,9890 Essex Hills Rd,New Kent,VA,23124,292500,4,2.5,,2008,235224,1999,,146,,,,,https://www.redfin.com/VA/New-Kent/9890-Essex-Hills-Rd-23124/home/130025624,,,N,Y,37.552999,-77.101189
PAST SALE,,Single Family Residential,10335 Tunstall Rd,New Kent,VA,23124,386000,3,2.5,,1804,815879,2008,,214,,,,,https://www.redfin.com/VA/New-Kent/10335-Tunstall-Rd-23124/home/129917882,,,N,Y,37.561081,-77.092454
PAST SALE,March-31-2021,Single Family Residential,5748 Longbow Ln,Quinton,VA,23124,310500,3,3.0,Deerlake,2017,29620,2011,249,154,14,Sold,,,https://www.redfin.com/VA/New-Kent/5748-Longbow-Ln-23124/home/130043954,CVRMLS,2033026,N,Y,37.5478011,-77.1139407
PAST SALE,March-15-2019,Single Family Residential,5775 Deerpath Dr,New Kent,VA,23124,389000,4,4.5,Deerlake,4530,31363,2009,996,86,14,Sold,,,https://www.redfin.com/VA/New-Kent/5775-Deerpath-Dr-23124/home/130037737,CVRMLS,1903792,N,Y,37.5487263,-77.1129706
PAST SALE,,Single Family Residential,5871 Big Buck Ct,New Kent,VA,23124,269000,4,2.5,,1800,30492,2010,,149,,,,,https://www.redfin.com/VA/New-Kent/5871-Big-Buck-Ct-23124/home/130030856,,,N,Y,37.546589,-77.1116834
PAST SALE,,Single Family Residential,5631 Buck Hunt Ln,New Kent,VA,23124,290000,4,2.5,,2182,25265,2010,,133,,,,,https://www.redfin.com/VA/New-Kent/5631-Buck-Hunt-Ln-23124/home/130043971,,,N,Y,37.5450808,-77.1107672
PAST SALE,,Single Family Residential,6122 Antler Hill Ct,New Kent,VA,23124,354400,4,3.5,,2695,24394,2016,,132,,,,,https://www.redfin.com/VA/New-Kent/6122-Antler-Hill-Ct-23124/home/130122673,,,N,Y,37.5509608,-77.1087504
PAST SALE,July-17-2019,Single Family Residential,5822 Deerpath Dr,New Kent,VA,23124,325000,3,3.5,Deerlake,2500,27007,2014,872,130,14,Sold,,,https://www.redfin.com/VA/New-Kent/5822-Deerpath-Dr-23124/home/130013887,CVRMLS,1915051,N,Y,37.549311,-77.1118632
PAST SALE,May-21-2021,Single Family Residential,9883 Snipe Ln,New Kent,VA,23124,387000,4,2.5,Deerlake,2585,24829,2015,198,150,14,Sold,,,https://www.redfin.com/VA/New-Kent/9883-Snipe-Ln-23124/home/130071514,CVRMLS,2106655,N,Y,37.549655,-77.1105649
PAST SALE,October-18-2021,Single Family Residential,6156 Fawnlake Ct,New Kent,VA,23124,380000,4,3.5,Deerlake,2385,38768,2017,48,159,14,Sold,,,https://www.redfin.com/VA/New-Kent/6156-Fawnlake-Ct-23124/home/109450018,CVRMLS,2126347,N,Y,37.552943,-77.107874
PAST SALE,March-24-2021,Single Family Residential,10416 Deerlake Dr,New Kent,VA,23124,350000,4,2.0,Deerlake,2194,24829,2016,256,160,14,Sold,,,https://www.redfin.com/VA/New-Kent/10416-Deer-Lake-Dr-23124/home/130071756,CVRMLS,2103589,N,Y,37.552415,-77.1109343
PAST SALE,August-27-2019,Single Family Residential,9090 Deerlake Dr,New Kent,VA,23124,373765,4,3.5,Rochambeau Estates,2767,24829,2018,831,135,33,Sold,,,https://www.redfin.com/VA/New-Kent/9090-Deer-Lake-Dr-23124/home/167736395,CVRMLS,1841322,N,Y,37.5406283,-77.1107378
PAST SALE,August-29-2019,Single Family Residential,9180 Buckden Dr,New Kent,VA,23124,508441,5,5.5,Rochambeau Estates,4393,39204,2018,829,116,33,Sold,,,https://www.redfin.com/VA/Quinton/9180-Buckden-Dr-23124/home/130066267,CVRMLS,1841314,N,Y,37.5406542,-77.1091902
PAST SALE,December-21-2018,Single Family Residential,9020 Deerlake Dr,New Kent,VA,23124,345265,4,2.5,Rochambeau Estates,2373,25700,2018,1080,145,33,Sold,,,https://www.redfin.com/VA/New-Kent/9020-Deer-Lake-Dr-23124/home/167736406,CVRMLS,1810625,N,Y,37.5410962,-77.1083517
PAST SALE,December-20-2018,Single Family Residential,9010 Deerlake Dr,New Kent,VA,23124,419399,4,3.5,Rochambeau Estates,3184,,2018,1081,132,33,Sold,,,https://www.redfin.com/VA/New-Kent/9010-Deer-Lake-Dr-23124/home/167736407,CVRMLS,1810657,N,Y,37.5412017,-77.1079904
PAST SALE,April-25-2019,Single Family Residential,9081 Deerlake Dr,New Kent,VA,23124,381150,4,3.5,Rochambeau Estates,2767,20473,2018,955,138,33,Sold,,,https://www.redfin.com/VA/New-Kent/9081-Deer-Lake-Dr-23124/home/167736414,CVRMLS,1820489,N,Y,37.5410508,-77.110353
PAST SALE,January-8-2019,Single Family Residential,9091 Deerlake Dr,New Kent,VA,23124,329326,4,2.5,Rochambeau Estates,2373,26571,2018,1062,139,33,Sold,,,https://www.redfin.com/VA/New-Kent/9091-Deer-Lake-Dr-23124/home/167736415,CVRMLS,1816414,N,Y,37.5410558,-77.1107841
PAST SALE,April-26-2019,Single Family Residential,5931 Bushnell Ct,New Kent,VA,23124,381150,4,3.5,Rochambeau Estates,3184,,2018,954,120,33,Sold,,,https://www.redfin.com/VA/Quinton/5931-Bushnell-Ct-23124/home/167736418,CVRMLS,1827242,N,Y,37.5423071,-77.110864
PAST SALE,March-1-2019,Single Family Residential,5900 Bushnell Ct,New Kent,VA,23124,326835,4,2.5,Rochambeau Estates,2373,,2018,1010,138,33,Sold,,,https://www.redfin.com/VA/New-Kent/5900-Bushnell-Dr-23124/home/167736426,CVRMLS,1819561,N,Y,37.5428797,-77.1107714
PAST SALE,April-10-2019,Single Family Residential,5780 Bushnell Dr,New Kent,VA,23124,364900,4,2.5,Rochambeau Estates,2412,25700,2018,970,151,33,Sold,,,https://www.redfin.com/VA/New-Kent/5780-Bushnell-Dr-23124/home/167736429,CVRMLS,1820555,N,Y,37.5424471,-77.1120058
PAST SALE,March-31-2021,Single Family Residential,5830 Bushnell Dr,New Kent,VA,23124,414553,3,3.5,Rochambeau Estates,2667,20037,2020,249,155,33,Sold,,,https://www.redfin.com/VA/New-Kent/5830-Bushnell-Dr-23124/home/167736431,CVRMLS,2031066,N,Y,37.5429599,-77.1116259
PAST SALE,,Single Family Residential,10001 Old Quarter Ln,New Kent,VA,23124,255000,3,2.5,,1602,24829,2002,,159,,,,,https://www.redfin.com/VA/New-Kent/10001-Old-Quarter-Ln-23124/home/130051351,,,N,Y,37.5551909,-77.0569172
PAST SALE,August-18-2021,Single Family Residential,10240 Old Quarter Ln,New Kent,VA,23124,300000,3,2.0,Whitehouse Farms,1470,19602,2019,109,204,,Sold,,,https://www.redfin.com/VA/New-Kent/10240-Old-Quarter-Ln-23124/home/59884631,CVRMLS,2120501,N,Y,37.55959,-77.0555613
PAST SALE,April-9-2021,Single Family Residential,9831 Talleysville Rd,New Kent,VA,23124,222000,4,2.5,Whitehouse Farms,1728,,1977,240,128,,Sold,,,https://www.redfin.com/VA/New-Kent/9831-Talleysville-Rd-23124/home/130013968,CVRMLS,2101511,N,Y,37.554466,-77.0586919
PAST SALE,,Single Family Residential,10010 Old Quarter Ln,New Kent,VA,23124,230000,3,2.0,,1641,23087,1978,,140,,,,,https://www.redfin.com/VA/New-Kent/10010-Old-Quarter-Ln-23124/home/130016209,,,N,Y,37.5561468,-77.0567837
PAST SALE,,Single Family Residential,10141 Old Quarter Ln,New Kent,VA,23124,257500,3,2.0,,1540,25700,2003,,167,,,,,https://www.redfin.com/VA/New-Kent/10141-Old-Quarter-Ln-23124/home/130027716,,,N,Y,37.557953,-77.0549847
PAST SALE,,Single Family Residential,4653 Hopewell Rd,New Kent,VA,23124,410000,3,3.5,,2886,262667,2008,,142,,,,,https://www.redfin.com/VA/New-Kent/4653-Hopewell-Rd-23124/home/162470887,,,N,Y,37.591088,-77.13879
PAST SALE,,Single Family Residential,5230 Hopewell Rd,New Kent,VA,23124,355700,3,2.0,,2742,209959,2002,,130,,,,,https://www.redfin.com/VA/New-Kent/5230-Hopewell-Rd-23124/home/130035737,,,N,Y,37.588328,-77.126668
PAST SALE,June-10-2021,Single Family Residential,6901 Pine Fork Rd,Quinton,VA,23141,210000,2,2.0,,936,97574,1942,178,224,,Sold,,,https://www.redfin.com/VA/Quinton/6901-Pine-Fork-Rd-23141/home/130061345,CVRMLS,2112015,N,Y,37.5177797,-77.0896995
PAST SALE,,Single Family Residential,7620 WILLIAMS GROVE TRL,QUINTON,VA,23141,330000,3,3.5,,2128,197762,2003,,155,,,,,https://www.redfin.com/VA/QUINTON/7620-WILLIAMS-GROVE-TRL-23141/home/130020531,,,N,Y,37.515316,-77.089886
PAST SALE,July-16-2021,Single Family Residential,6220 Orchard Rd,New Kent,VA,23124,311200,5,3.0,Groves Browing,2420,223027,1988,142,129,,Sold,,,https://www.redfin.com/VA/New-Kent/6220-Orchard-Rd-23124/home/130033021,CVRMLS,2116317,N,Y,37.5841638,-77.1057805
PAST SALE,May-9-2019,Single Family Residential,6343 Cagwin Rd,Quinton,VA,23141,252500,3,2.0,,1708,158122,2002,941,148,,Sold,,,https://www.redfin.com/VA/Quinton/6343-Cagwin-Rd-23141/home/130031973,CVRMLS,1903454,N,Y,37.507525,-77.097959
PAST SALE,August-6-2019,Single Family Residential,5920 Hingham Dr,New Kent,VA,23124,280000,4,2.5,Kenwood Farms,2250,31363,1979,852,124,,Sold,,,https://www.redfin.com/VA/New-Kent/5920-Hingham-Dr-23124/home/130020563,CVRMLS,1917932,N,Y,37.5396486,-77.110645
PAST SALE,,Single Family Residential,5940 Hingham Dr,New Kent,VA,23124,345000,3,2.5,,2590,31363,1989,,133,,,,,https://www.redfin.com/VA/New-Kent/5940-Hingham-Dr-23124/home/130040778,,,N,Y,37.5396416,-77.1097924
PAST SALE,,Other,5809 Wensleydale Dr,New Kent,VA,23124,326950,3,2.5,,2506,32234,1997,,130,,,,,https://www.redfin.com/VA/New-Kent/5809-Wensleydale-Dr-23124/home/129927468,,,N,Y,37.5345866,-77.1121365
PAST SALE,,Single Family Residential,8812 Shewsbury Dr,New Kent,VA,23124,256000,3,2.5,,1952,34412,1978,,131,,,,,https://www.redfin.com/VA/New-Kent/8812-Shewsbury-Dr-23124/home/129900990,,,N,Y,37.535944,-77.113264
PAST SALE,July-2-2021,Single Family Residential,8836 Shewsbury Dr,New Kent,VA,23124,299900,3,2.0,Kenwood Farms,1792,30927,1979,156,167,,Sold,,,https://www.redfin.com/VA/New-Kent/8836-Shewsbury-Dr-23124/home/130023892,CVRMLS,2111871,N,Y,37.5362849,-77.1131577
PAST SALE,July-25-2019,Single Family Residential,5837 Stingray Point Blvd,New Kent,VA,23124,313490,3,2.5,Greenwood Estates,2236,20908,2018,864,140,8,Sold,,,https://www.redfin.com/VA/NEW-KENT/5837-STINGRAY-POINT-BLVD-23124/home/147610400,CVRMLS,1841602,N,Y,37.540603,-77.115638
PAST SALE,,Single Family Residential,8844 Greenwood Blvd,New Kent,VA,23124,265000,3,2.5,,1840,22216,1996,,144,,,,,https://www.redfin.com/VA/New-Kent/8844-Greenwood-Blvd-23124/home/129907913,,,N,Y,37.535654,-77.118029
PAST SALE,,Other,9285 STINGRAY POINT CT,NEW KENT,VA,23124,393000,4,3.5,,2695,27878,2018,,146,,,,,https://www.redfin.com/VA/NEW-KENT/9285-STINGRAY-POINT-CT-23124/home/167737851,,,N,Y,37.5418,-77.113994
PAST SALE,,Other,5771 Mako Rd,New Kent,VA,23124,269950,3,2.5,,2198,19602,2014,,123,,,,,https://www.redfin.com/VA/New-Kent/5771-Mako-Rd-23124/home/130027606,,,N,Y,37.540715,-77.115296
PAST SALE,,Other,5753 Mako Rd,New Kent,VA,23124,310000,3,2.0,,1803,19602,2014,,172,,,,,https://www.redfin.com/VA/New-Kent/5753-Mako-Rd-23124/home/130050059,,,N,Y,37.540715,-77.115296
PAST SALE,April-2-2021,Single Family Residential,9308 Stingray Point Ct,New Kent,VA,23124,353635,4,2.5,Greenwood Estates,2255,,2020,247,157,8,Sold,,,https://www.redfin.com/VA/NEW-KENT/9308-STINGRAY-POINT-CT-23124/home/167737862,CVRMLS,2019727,N,Y,37.542071,-77.115096
PAST SALE,May-17-2019,Single Family Residential,9191 Greenwood Blvd,New Kent,VA,23124,319537,4,2.0,Greenwood Estates,2043,23522,2018,933,156,8,Sold,,,https://www.redfin.com/VA/NEW-KENT/9191-GREENWOOD-BLVD-23124/home/167737840,CVRMLS,1841606,N,Y,37.540664,-77.116843
PAST SALE,April-5-2021,Single Family Residential,8840 Tunstall Rd,New Kent,VA,23124,289950,3,2.5,Greenwood Estates,1816,43560,1997,244,160,,Sold,,,https://www.redfin.com/VA/New-Kent/8840-Tunstall-Rd-23124/home/130038289,CVRMLS,2105007,N,Y,37.5359481,-77.1152647
PAST SALE,May-6-2021,Single Family Residential,8847 Greenwood Blvd,New Kent,VA,23124,362635,3,2.5,Greenwood Estates,3002,26136,1993,213,121,,Sold,,,https://www.redfin.com/VA/New-Kent/8847-Greenwood-Blvd-23124/home/129902891,CVRMLS,2108953,N,Y,37.535224,-77.118842
PAST SALE,June-14-2021,Single Family Residential,7911 New Kent Hwy,New Kent,VA,23124,267000,3,1.0,ALL OTHERS AREA 140,1224,67518,1958,174,218,,Sold,,,https://www.redfin.com/VA/New-Kent/7911-New-Kent-Hwy-23124/home/130026136,REINMLS,10373933,N,Y,37.52302,-77.067169
PAST SALE,October-15-2021,Single Family Residential,8021 New Kent Hwy,New Kent,VA,23124,185000,3,1.5,,1152,98445,1975,51,161,,Sold,,,https://www.redfin.com/VA/New-Kent/8021-New-Kent-Hwy-23124/home/130032286,CVRMLS,2125950,N,Y,37.5229924,-77.0642939
PAST SALE,,Single Family Residential,7698 Olivet Church Rd,New Kent,VA,23124,299000,3,2.0,,1614,228690,2003,,185,,,,,https://www.redfin.com/VA/New-Kent/7698-Olivet-Church-Rd-23124/home/130040938,,,N,Y,37.515563,-77.064384
PAST SALE,September-30-2021,Single Family Residential,9301 Stingray Point Ct,New Kent,VA,23124,359000,4,3.0,Greenwood Estates,2115,28314,2018,66,170,8,Sold,,,https://www.redfin.com/VA/NEW-KENT/9301-STINGRAY-POINT-CT-23124/home/148600002,CVRMLS,2123215,N,Y,37.542146,-77.114067
PAST SALE,June-17-2021,Single Family Residential,8623 Historical Path Rd,New Kent,VA,23124,380000,3,2.0,,1775,298386,1989,171,214,,Sold,,,https://www.redfin.com/VA/New-Kent/8623-Historical-Path-Rd-23124/home/130012888,CVRMLS,2112201,N,Y,37.532273,-77.053364
PAST SALE,March-17-2021,Single Family Residential,8647 St Peters Ln,Quinton,VA,23124,475000,4,3.5,,2839,224769,1996,263,167,,Sold,,,https://www.redfin.com/VA/New-Kent/8647-St-Peters-Ln-23124/home/129908028,CVRMLS,2101171,N,Y,37.535277,-77.0508739
PAST SALE,,Mobile/Manufactured Home,7375 Olivet Church Rd,New Kent,VA,23124,181000,3,2.5,,1512,247421,1997,,120,,,,,https://www.redfin.com/VA/New-Kent/7375-Olivet-Church-Rd-23124/home/130022452,,,N,Y,37.5105699,-77.0581491
PAST SALE,May-1-2021,Single Family Residential,8030 W Lord Botetourt Loop,New Kent,VA,23124,350000,3,2.0,Farms Of New Kent,2256,6534,2016,218,155,,Sold,,,https://www.redfin.com/VA/NEW-KENT/8030-W-LORD-BOTETOURT-LOOP-23124/home/130085673,CVRMLS,2109453,N,Y,37.517127,-77.075352
PAST SALE,January-16-2019,Single Family Residential,8213 E Lord Botetourt Loop,New Kent,VA,23124,285000,3,2.0,Four Seasons At New Kent,2250,6534,2012,1054,127,216,Sold,,,https://www.redfin.com/VA/New-Kent/8213-E-Lord-Botetourt-Loop-23124/home/130022509,CVRMLS,1840889,N,Y,37.5156269,-77.0721185
PAST SALE,,Single Family Residential,8408 E Lord Botetourt Loop,New Kent,VA,23124,347500,3,2.0,,2582,7841,2012,,135,,,,,https://www.redfin.com/VA/New-Kent/8408-E-Lord-Botetourt-Loop-23124/home/130015203,,,N,Y,37.513995,-77.0732877
PAST SALE,March-29-2021,Single Family Residential,8191 E Lord Botetourt Loop,New Kent,VA,23124,304900,2,2.0,Four Seasons At New Kent,1675,8712,2011,251,182,210,Sold,,,https://www.redfin.com/VA/New-Kent/8191-E-Lord-Botetourt-Loop-23124/home/130059736,CVRMLS,2105029,N,Y,37.5158567,-77.0723434
PAST SALE,,Single Family Residential,8008 W LORD BOTETOURT LOOP,NEW KENT,VA,23124,350000,3,2.0,,2304,9583,2015,,152,,,,,https://www.redfin.com/VA/NEW-KENT/8008-W-LORD-BOTETOURT-LOOP-23124/home/130085648,,,N,Y,37.517144,-77.075989
PAST SALE,,Single Family Residential,8014 W LORD BOTETOURT LOOP,NEW KENT,VA,23124,348000,3,2.0,,2588,8276,2015,,134,,,,,https://www.redfin.com/VA/NEW-KENT/8014-W-LORD-BOTETOURT-LOOP-23124/home/130085656,,,N,Y,37.517188,-77.075735
PAST SALE,,Single Family Residential,7806 JAMES BLAIR LN,NEW KENT,VA,23124,268960,3,2.0,,2000,6098,2019,,134,,,,,https://www.redfin.com/VA/NEW-KENT/7806-JAMES-BLAIR-LN-23124/home/162472691,,,N,Y,37.515912,-77.075582
PAST SALE,March-31-2021,Single Family Residential,8283 E Lord Botetourt Loop,New Kent,VA,23124,389900,3,3.0,Four Seasons At New Kent,2068,6969,2013,249,189,232,Sold,,,https://www.redfin.com/VA/New-Kent/8283-E-Lord-Botetourt-Loop-23124/home/130061356,CVRMLS,2100212,N,Y,37.5146498,-77.0718038
PAST SALE,,Single Family Residential,8315 E Lord Botetourt Loop,New Kent,VA,23124,345000,3,2.0,,2262,6970,2016,,153,,,,,https://www.redfin.com/VA/New-Kent/8315-E-Lord-Botetourt-Loop-23124/home/130085785,,,N,Y,37.514173,-77.071927
PAST SALE,,Single Family Residential,8355 E Lord Botetourt Loop,New Kent,VA,23124,372500,3,3.0,,3690,12197,2013,,101,,,,,https://www.redfin.com/VA/New-Kent/8355-E-Lord-Botetourt-Loop-23124/home/129909863,,,N,Y,37.5138754,-77.0722085
PAST SALE,,Single Family Residential,7738 Southamptonshire Way,New Kent,VA,23124,319950,3,2.0,,2316,6534,2013,,138,,,,,https://www.redfin.com/VA/New-Kent/7738-Southamptonshire-Way-23124/home/130012959,,,N,Y,37.5152099,-77.0736544
PAST SALE,March-8-2019,Single Family Residential,7846 Robert Dinwiddie Ter,New Kent,VA,23124,315000,2,2.0,Four Seasons At New Kent,2068,8276,2016,1003,152,218,Sold,,,https://www.redfin.com/VA/NEW-KENT/7846-ROBERT-DINWIDDIE-TER-23124/home/130137253,CVRMLS,1838499,N,Y,37.516547,-77.074357
PAST SALE,,Single Family Residential,7836 ROBERT DINWIDDIE TER,NEW KENT,VA,23124,278438,2,2.0,,2068,6098,2019,,135,,,,,https://www.redfin.com/VA/NEW-KENT/7836-ROBERT-DINWIDDIE-TER-23124/home/162466027,,,N,Y,37.516391,-77.074396
PAST SALE,,Single Family Residential,7804 ROBERT DINWIDDIE TER,NEW KENT,VA,23124,314459,2,2.0,,2086,6098,2019,,151,,,,,https://www.redfin.com/VA/NEW-KENT/7804-ROBERT-DINWIDDIE-TER-23124/home/162472685,,,N,Y,37.515838,-77.074544
PAST SALE,,Single Family Residential,7788 ROBERT DINWIDDIE TER,NEW KENT,VA,23124,264364,2,2.0,,2068,6098,2019,,128,,,,,https://www.redfin.com/VA/NEW-KENT/7788-ROBERT-DINWIDDIE-TER-23124/home/162466028,,,N,Y,37.515562,-77.074618
PAST SALE,July-12-2021,Single Family Residential,7780 Robert Dinwiddie Ter,New Kent,VA,23124,392000,3,2.0,Four Seasons At New Kent,2588,6534,2018,146,151,232,Sold,,,https://www.redfin.com/VA/NEW-KENT/7780-ROBERT-DINWIDDIE-TER-23124/home/162466029,CVRMLS,2111430,N,Y,37.515423,-77.074655
PAST SALE,March-29-2021,Single Family Residential,8027 Arbor Ponds Ter,New Kent,VA,23124,330000,4,2.0,Arbors,2054,7405,2018,251,161,73,Sold,,,https://www.redfin.com/VA/New-Kent/8027-Arbor-Ponds-Ter-23124/home/147609944,CVRMLS,2104220,N,Y,37.5165719,-77.081351
PAST SALE,,Single Family Residential,7806 Arbor Ponds Ter,New Kent,VA,23124,305000,3,2.5,,2112,7841,2018,,144,,,,,https://www.redfin.com/VA/New-Kent/7806-Arbor-Ponds-Ter-23124/home/147609961,,,N,Y,37.515898,-77.079549
PAST SALE,,Single Family Residential,7833 Arbor Ponds Ct,New Kent,VA,23124,320000,3,2.5,,2112,10890,2017,,152,,,,,https://www.redfin.com/VA/New-Kent/7833-Arbor-Ponds-Ct-23124/home/147609962,,,N,Y,37.516112,-77.079849
PAST SALE,February-11-2019,Single Family Residential,7866 Eagle Cir,New Kent,VA,23124,299065,5,3.5,The Arbors At New Kent Winery,2763,,2018,1028,108,73,Sold,,,https://www.redfin.com/VA/New-Kent/7866-Eagle-Cir-23124/home/162462438,CVRMLS,1833063,N,Y,37.516794,-77.0827259
PAST SALE,March-1-2019,Single Family Residential,7907 Eagle Cir,New Kent,VA,23124,278480,3,2.5,The Arbors At New Kent Winery,2113,,2018,1010,132,73,Sold,,,https://www.redfin.com/VA/New-Kent/7907-Eagle-Cir-23124/home/162462432,CVRMLS,1832355,N,Y,37.516775,-77.0818369
PAST SALE,April-2-2021,Single Family Residential,7967 Eagle Cir,New Kent,VA,23124,360000,3,2.5,Farms Of New Kent,2608,10454,2018,247,138,77,Sold,,,https://www.redfin.com/VA/New-Kent/7967-Eagle-Cir-23124/home/162462434,CVRMLS,2102615,N,Y,37.517843,-77.082656
PAST SALE,June-25-2021,Single Family Residential,7983 W Lord Botetourt Loop,New Kent,VA,23124,340000,2,2.0,Four Seasons At New Kent,2033,,2016,163,167,232,Sold,,,https://www.redfin.com/VA/NEW-KENT/7983-W-LORD-BOTETOURT-LOOP-23124/home/130137364,CVRMLS,2115134,N,Y,37.516517,-77.07586
PAST SALE,April-9-2019,Single Family Residential,7856 Uplands Dr,New Kent,VA,23124,316260,4,2.5,The Arbors At New Kent Winery,3060,,2018,971,103,73,Sold,,,https://www.redfin.com/VA/New-Kent/7856-Uplands-Dr-23124/home/162462437,CVRMLS,1835871,N,Y,37.516249,-77.083438
PAST SALE,May-6-2019,Single Family Residential,7831 Arbor Ponds Ter,New Kent,VA,23124,268000,3,2.5,Arbors,2113,6534,2018,944,127,73,Sold,,,https://www.redfin.com/VA/New-Kent/7831-Arbor-Ponds-Ter-23124/home/147609979,CVRMLS,1902851,N,Y,37.516129,-77.0788369
PAST SALE,,Single Family Residential,7877 Arbor Ponds Ter,New Kent,VA,23124,267500,4,2.5,,2112,7841,2017,,127,,,,,https://www.redfin.com/VA/New-Kent/7877-Arbor-Ponds-Ter-23124/home/147609927,,,N,Y,37.516962,-77.07853
PAST SALE,,Other,7891 Arbor Ponds Ter,New Kent,VA,23124,305000,3,2.0,,1854,7841,2017,,165,,,,,https://www.redfin.com/VA/New-Kent/7891-Arbor-Ponds-Ter-23124/home/147609929,,,N,Y,37.517322,-77.078698
PAST SALE,May-3-2021,Single Family Residential,7907 Arbor Ponds Ter,New Kent,VA,23124,380000,4,2.5,ALL OTHERS AREA 140,2706,8276,2017,216,140,73,Sold,,,https://www.redfin.com/VA/New-Kent/7907-Arbor-Ponds-Ter-23124/home/147609931,REINMLS,10368593,N,Y,37.51757,-77.079069
PAST SALE,March-20-2019,Single Family Residential,7720 Sedge Dr,New Kent,VA,23124,370000,4,2.5,The Arbors At New Kent Winery,3220,,2018,991,115,73,Sold,,,https://www.redfin.com/VA/New-Kent/7720-Sedge-Dr-23124/home/162462454,CVRMLS,1832356,N,Y,37.51214,-77.084203
PAST SALE,March-15-2021,Single Family Residential,7191 Marecage Ct,New Kent,VA,23124,369990,4,2.5,Arbors,2890,13068,2020,265,128,77,Sold,,,https://www.redfin.com/VA/NEW-KENT/7191-MARECAGE-CT-23124/home/172527493,CVRMLS,2036629,N,Y,37.6032,-77.119
PAST SALE,,Other,7232 CRESS TER,NEW KENT,VA,23124,311440,4,2.5,,2382,13678,2020,,131,,,,,https://www.redfin.com/VA/NEW-KENT/7232-CRESS-TER-23124/home/172527513,,,N,Y,37.513174,-77.08448
PAST SALE,March-29-2021,Single Family Residential,7490 Sedge Dr,New Kent,VA,23124,307075,3,2.5,Arbors,2200,,2020,251,140,77,Sold,,,https://www.redfin.com/VA/NEW-KENT/7490-SEDGE-DR-23124/home/172527528,CVRMLS,2030367,N,Y,37.5155,-77.0829
PAST SALE,,Other,7904 Eagle Cir,New Kent,VA,23124,286910,3,2.5,,2122,13068,2019,,135,,,,,https://www.redfin.com/VA/New-Kent/7904-Eagle-Cir-23124/home/162466237,,,N,Y,37.516917,-77.082345
PAST SALE,May-31-2021,Single Family Residential,8931 Angel's Share Dr,New Kent,VA,23124,815000,4,3.5,Viniterra,2875,48351,2019,188,283,104,Sold,,,https://www.redfin.com/VA/New-Kent/8931-Angel-s-Share-Dr-23124/home/162462491,CVRMLS,2109462,N,Y,37.531157,-77.080016
PAST SALE,January-31-2019,Single Family Residential,7790 Sedge Dr,New Kent,VA,23124,347845,3,2.5,The Arbors At New Kent Winery,2852,,2018,1039,122,73,Sold,,,https://www.redfin.com/VA/New-Kent/7790-Sedge-Dr-23124/home/162466243,CVRMLS,1831741,N,Y,37.514074,-77.083468
PAST SALE,December-14-2018,Single Family Residential,7828 Sedge Dr,New Kent,VA,23124,294075,3,2.5,The Arbors At New Kent Winery,2407,,2018,1087,122,73,Sold,,,https://www.redfin.com/VA/New-Kent/7828-Sedge-Dr-23124/home/162462450,CVRMLS,1820779,N,Y,37.515332,-77.083278
PAST SALE,December-11-2018,Single Family Residential,7739 Sedge Dr,New Kent,VA,23124,336015,4,3.5,The Arbors At New Kent Winery,2861,,2018,1090,117,73,Sold,,,https://www.redfin.com/VA/New-Kent/7739-Sedge-Dr-23124/home/162471256,CVRMLS,1822460,N,Y,37.512368,-77.0833339
PAST SALE,,Single Family Residential,7748 Sedge Dr,New Kent,VA,23124,260265,4,2.5,,2224,14375,2019,,117,,,,,https://www.redfin.com/VA/New-Kent/7748-Sedge-Dr-23124/home/162466264,,,N,Y,37.512898,-77.083626
PAST SALE,January-22-2019,Single Family Residential,7284 Cress Ter,New Kent,VA,23124,407560,5,3.5,Arbors,4309,,2018,1048,95,73,Sold,,,https://www.redfin.com/VA/New-Kent/7284-Cress-Ter-23124/home/162471304,CVRMLS,1831082,N,Y,37.513204,-77.084618
PAST SALE,April-21-2021,Single Family Residential,7386 Crush Ct,New Kent,VA,23124,817000,5,3.5,Viniterra,3598,43995,2011,228,227,97,Sold,,,https://www.redfin.com/VA/New-Kent/7386-Crush-Ct-23124/home/130015181,CVRMLS,2103484,N,Y,37.5300088,-77.0815838
PAST SALE,June-28-2019,Single Family Residential,8751 Barrique Rd,New Kent,VA,23124,645000,3,3.5,Viniterra,3210,51400,2012,891,201,104,Sold,,,https://www.redfin.com/VA/New-Kent/8751-Barrique-Rd-23124/home/130023483,CVRMLS,1904978,N,Y,37.5296405,-77.080662
PAST SALE,September-15-2021,Single Family Residential,7283 Cress Ter,New Kent,VA,23124,369999,4,2.5,The Arbors At New Kent Winery,2410,13503,2019,81,154,78,Sold,,,https://www.redfin.com/VA/New-Kent/7283-Cress-Ter-23124/home/162469246,CVRMLS,2120852,N,Y,37.512959,-77.084098
PAST SALE,June-26-2019,Single Family Residential,7309 Cress Ter,New Kent,VA,23124,374970,4,2.5,The Arbors At New Kent Winery,3263,,2018,893,115,73,Sold,,,https://www.redfin.com/VA/New-Kent/7309-Cress-Ter-23124/home/162462515,CVRMLS,1832190,N,Y,37.513215,-77.08384
PAST SALE,,Single Family Residential,7541 SEDGE DR,NEW KENT,VA,23124,305891,3,3.0,,2192,7492,2020,,140,,,,,https://www.redfin.com/VA/NEW-KENT/7541-SEDGE-DR-23124/home/172527650,,,N,Y,37.5155,-77.0829
PAST SALE,June-24-2021,Single Family Residential,9301 New Kent Hwy,New Kent,VA,23124,230000,2,2.0,,1646,53143,1962,164,140,,Sold,,,https://www.redfin.com/VA/New-Kent/9301-New-Kent-Hwy-23124/home/129921606,CVRMLS,2110244,N,Y,37.525233,-77.037233
PAST SALE,,Single Family Residential,8200 Poindexter Rd,New Kent,VA,23124,256000,3,1.5,,1674,188615,1957,,153,,,,,https://www.redfin.com/VA/New-Kent/8200-Poindexter-Rd-23124/home/162466458,,,N,Y,37.524391,-77.038959
PAST SALE,August-6-2021,Single Family Residential,9435 Marie Rd,New Kent,VA,23124,435000,4,3.5,Chestnut Hill,2470,222155,2007,121,176,10,Sold,,,https://www.redfin.com/VA/New-Kent/9435-Marie-Rd-23124/home/130039143,CVRMLS,2119470,N,Y,37.5320093,-77.0331379
PAST SALE,,Other,8615 Rock Cedar Rd,New Kent,VA,23124,270000,3,2.5,,1790,117046,2018,,151,,,,,https://www.redfin.com/VA/New-Kent/8615-Rock-Cedar-Rd-23124/home/162472802,,,N,Y,37.528848,-77.0366644
PAST SALE,May-14-2021,Single Family Residential,9150 Deer Trace Ln,New Kent,VA,23124,700000,4,3.5,,4319,435600,1999,205,162,,Sold,,,https://www.redfin.com/VA/New-Kent/9150-Deer-Trace-Ln-23124/home/129904134,CVRMLS,2106433,N,Y,37.5218209,-77.038391
PAST SALE,,Other,9280 Ordinary Ln,New Kent,VA,23124,297000,3,2.5,,2001,153331,1999,,148,,,,,https://www.redfin.com/VA/New-Kent/9280-Ordinary-Ln-23124/home/129892920,,,N,Y,37.518912,-77.036157
PAST SALE,,Single Family Residential,9254 Ordinary Ln,New Kent,VA,23124,580000,5,4.5,,4712,392258,2002,,123,,,,,https://www.redfin.com/VA/New-Kent/9254-Ordinary-Ln-23124/home/129903153,,,N,Y,37.51724,-77.034117
PAST SALE,,Single Family Residential,8828 SAWARA WAY,NEW KENT,VA,23124,301000,3,2.5,,1780,119616,2018,,169,,,,,https://www.redfin.com/VA/NEW-KENT/8828-SAWARA-WAY-23124/home/147610256,,,N,Y,37.533142,-77.038758
PAST SALE,May-13-2019,Single Family Residential,8687 Rock Cedar Rd,New Kent,VA,23124,272000,3,2.0,,1655,106722,2018,937,164,15,Sold,,,https://www.redfin.com/VA/New-Kent/8687-Rock-Cedar-Rd-23124/home/162466541,CVRMLS,1910007,N,Y,37.5299526,-77.036273
PAST SALE,October-21-2021,Single Family Residential,9121 Rock Cedar Rd,New Kent,VA,23124,330000,3,2.0,Cedar Lane Farm,1560,87991,2020,45,212,15,Sold,,,https://www.redfin.com/VA/New-Kent/9121-Rock-Cedar-Rd-23124/home/162466545,CVRMLS,2127367,N,Y,37.527978,-77.037075
PAST SALE,May-31-2019,Single Family Residential,8940 Rock Cedar Rd,New Kent,VA,23124,285000,3,2.0,,1694,24829,2018,919,168,15,Sold,,,https://www.redfin.com/VA/New-Kent/8940-Rock-Cedar-Rd-23124/home/162462574,CVRMLS,1839605,N,Y,37.5302841,-77.0376981
PAST SALE,October-18-2021,Single Family Residential,8950 Rock Cedar Rd,New Kent,VA,23124,305000,3,2.0,Cedar Lane Farm,1560,24393,2019,48,196,15,Sold,,,https://www.redfin.com/VA/New-Kent/8950-Rock-Cedar-Rd-23124/home/162462575,CVRMLS,2127699,N,Y,37.5299552,-77.0378402
PAST SALE,June-9-2021,Single Family Residential,9018 Rock Cedar Rd,New Kent,VA,23124,390000,3,2.0,Cedar Lane Farm,1761,50093,2019,179,221,15,Sold,,,https://www.redfin.com/VA/New-Kent/9018-Rock-Cedar-Rd-23124/home/162471343,CVRMLS,2105847,N,Y,37.5291793,-77.0382349
PAST SALE,,Other,11681 Creeks Edge Rd,New Kent,VA,23124,422000,4,3.0,,2975,217800,2016,,142,,,,,https://www.redfin.com/VA/New-Kent/11681-Creeks-Edge-Rd-23124/home/130166191,,,N,Y,37.5038027,-76.9902152
PAST SALE,,Other,11090 Creeks Edge Rd,New Kent,VA,23124,387000,4,2.5,,2517,217800,2017,,154,,,,,https://www.redfin.com/VA/New-Kent/11090-Creeks-Edge-Rd-23124/home/147610376,,,N,Y,37.5060758,-77.0019508
PAST SALE,,Other,11473 Creeks Edge Rd,New Kent,VA,23124,445000,5,3.0,,2836,217800,2017,,157,,,,,https://www.redfin.com/VA/New-Kent/11473-Creeks-Edge-Rd-23124/home/110281151,,,N,Y,37.5075499,-76.9932296
PAST SALE,January-17-2019,Single Family Residential,11676 Creeks Edge Rd,New Kent,VA,23124,380000,4,2.5,Diascund Creek,2706,217800,2015,1053,140,23,Sold,,,https://www.redfin.com/VA/New-Kent/11676-Creeks-Edge-Rd-23124/home/130120490,CVRMLS,1825695,N,Y,37.505771,-76.9894895
PAST SALE,,Other,7315 Diascund Creek Way,New Kent,VA,23124,372500,3,2.0,,2194,217844,2018,,170,,,,,https://www.redfin.com/VA/New-Kent/7315-Diascund-Creek-Way-23124/home/147610268,,,N,Y,37.508258,-76.99084
PAST SALE,June-3-2021,Single Family Residential,11001 Creeks Edge Rd,New Kent,VA,23124,540000,5,4.0,Diascund Creek,3330,217800,2017,185,162,23,Sold,,,https://www.redfin.com/VA/New-Kent/11001-Creeks-Edge-Rd-23124/home/147610379,CVRMLS,2110919,N,Y,37.5088835,-77.0012719
PAST SALE,,Other,9901 Snipe Ln,New Kent,VA,23124,330000,4,2.5,,2755,24829,2013,,120,,,,,https://www.redfin.com/VA/New-Kent/9901-Snipe-Ln-23124/home/129900631,,,N,Y,37.549872,-77.110355
PAST SALE,,Single Family Residential,11569 New Town Rd,New Kent,VA,23124,290000,3,2.0,,1843,87120,2007,,157,,,,,https://www.redfin.com/VA/New-Kent/11569-New-Town-Rd-23124/home/129906714,,,N,Y,37.5832073,-77.1257302
PAST SALE,,Single Family Residential,11861 Steel Trap Rd,New Kent,VA,23124,381000,3,3.5,,2322,687812,2013,,164,,,,,https://www.redfin.com/VA/New-Kent/11861-Steel-Trap-Rd-23124/home/130024733,,,N,Y,37.5879951,-77.1100162
PAST SALE,,Other,4010 STONE ACRES CT,NEW KENT,VA,23124,295000,3,2.0,,1595,70132,2020,,185,,,,,https://www.redfin.com/VA/NEW-KENT/4010-STONE-ACRES-CT-23124/home/168673103,,,N,Y,37.579686,-77.151428
PAST SALE,November-22-2021,Single Family Residential,7631 Sedge Dr,New Kent,VA,23124,458155,4,3.5,NEW KENT,2700,,2021,13,170,77,Sold,,,https://www.redfin.com/VA/New-Kent/7631-Sedge-DR-23124/home/174783613,REINMLS,10372089,N,Y,37.51443,-77.08503
PAST SALE,June-18-2021,Single Family Residential,11625 Oakrise Rd,New Kent,VA,23124,311135,4,2.5,The Oaks,1903,,2021,170,163,8,Sold,,,https://www.redfin.com/VA/New-Kent/11625-Oakrise-Rd-23124/home/162471852,CVRMLS,2035176,N,Y,37.497817,-76.991071
PAST SALE,,Other,11508 Oakrise Rd,New Kent,VA,23124,291000,3,2.5,,2164,19602,2010,,134,,,,,https://www.redfin.com/VA/New-Kent/11508-Oakrise-Rd-23124/home/130036329,,,N,Y,37.497282,-76.993706
PAST SALE,August-27-2021,Single Family Residential,11540 Oakrise Rd,New Kent,VA,23124,260000,3,2.0,ALL OTHERS AREA 140,1400,21780,2010,100,186,,Sold,,,https://www.redfin.com/VA/New-Kent/11540-Oakrise-Rd-23124/home/130060264,REINMLS,10391953,N,Y,37.4974458,-76.9929949
PAST SALE,August-12-2021,Single Family Residential,11700 Oakrise Rd,New Kent,VA,23124,259000,3,2.0,NEW KENT,1400,19602,2009,115,185,,Sold,,,https://www.redfin.com/VA/New-Kent/11700-Oakrise-Rd-23124/home/130036347,REINMLS,10388699,N,Y,37.499029,-76.9902951
PAST SALE,April-12-2019,Single Family Residential,6974 Oakrise Ln,New Kent,VA,23124,268900,4,2.5,The Oaks,1946,27007,2015,968,138,,Sold,,,https://www.redfin.com/VA/New-Kent/6974-Oakrise-Ln-23124/home/129908759,CVRMLS,1900716,N,Y,37.4998846,-76.9888244
PAST SALE,May-3-2021,Single Family Residential,7020 Oakfork Loop,New Kent,VA,23124,310000,3,2.5,The Oaks,1820,27007,2017,216,170,,Sold,,,https://www.redfin.com/VA/New-Kent/7020-Oakfork-Loop-23124/home/147610313,CVRMLS,2106764,N,Y,37.4999521,-76.9932967
PAST SALE,April-26-2019,Single Family Residential,6894 Oakrise Ln,New Kent,VA,23124,252000,3,2.5,The Oaks,1788,20037,2015,954,141,,Sold,,,https://www.redfin.com/VA/New-Kent/6894-Oakrise-Ln-23124/home/130120283,CVRMLS,1904688,N,Y,37.5009011,-76.9895223
PAST SALE,June-29-2021,Single Family Residential,11691 Oakrise Ct,New Kent,VA,23124,308000,4,2.5,The Oaks,1920,20908,2014,159,160,,Sold,,,https://www.redfin.com/VA/New-Kent/11691-Oakrise-Ct-23124/home/129920949,CVRMLS,2111667,N,Y,37.500024,-76.990271
PAST SALE,September-20-2019,Single Family Residential,11465 Oakfork Dr,New Kent,VA,23124,288000,4,2.5,The Oaks,2130,21780,2018,807,135,8,Sold,,,https://www.redfin.com/VA/New-Kent/11465-Oakfork-Dr-23124/home/167740931,CVRMLS,1922983,N,Y,37.4978645,-76.9939668
PAST SALE,May-21-2019,Single Family Residential,6941 Oakrise Ln,New Kent,VA,23124,268000,3,2.5,The Oaks,1950,27007,2015,929,137,,Sold,,,https://www.redfin.com/VA/New-Kent/6941-Oakrise-Ln-23124/home/130120247,CVRMLS,1904727,N,Y,37.500274,-76.9896063
PAST SALE,January-16-2019,Single Family Residential,11515 Oakfork Dr,New Kent,VA,23124,291570,4,2.5,The Oaks,2130,21780,2018,1054,137,8,Sold,,,https://www.redfin.com/VA/New-Kent/11515-Oakfork-Dr-23124/home/145257964,CVRMLS,1837020,N,Y,37.4985079,-76.9928315
PAST SALE,March-27-2019,Single Family Residential,11487 Oakfork Dr,New Kent,VA,23124,283580,4,2.5,The Oaks,2180,21780,2018,984,130,8,Sold,,,https://www.redfin.com/VA/New-Kent/11487-Oakfork-Dr-23124/home/167740929,CVRMLS,1838196,N,Y,37.4980991,-76.9934038
PAST SALE,,Other,11520 Oakrise Pl,New Kent,VA,23124,320000,4,2.5,,1868,26484,2017,,171,,,,,https://www.redfin.com/VA/New-Kent/11520-Oakrise-Pl-23124/home/110034663,,,N,Y,37.5003789,-76.9929817
PAST SALE,March-13-2019,Single Family Residential,11471 Oakfork Dr,New Kent,VA,23124,269500,4,2.5,The Oaks,1963,21780,2018,998,137,8,Sold,,,https://www.redfin.com/VA/New-Kent/11471-Oakfork-Dr-23124/home/167740930,CVRMLS,1835960,N,Y,37.497956,-76.993679
PAST SALE,April-21-2021,Single Family Residential,7040 Oakfork Loop,New Kent,VA,23124,325000,5,2.5,ALL OTHERS AREA 140,2224,27442,2018,228,146,,Sold,,,https://www.redfin.com/VA/New-Kent/7040-Oakfork-Loop-23124/home/147610310,REINMLS,10363324,N,Y,37.4994813,-76.9929312
PAST SALE,May-7-2021,Single Family Residential,11585 Oakrise Pl,New Kent,VA,23124,302000,3,2.5,ALL OTHERS AREA 140,1974,20473,2016,212,153,,Sold,,,https://www.redfin.com/VA/New-Kent/11585-Oakrise-Pl-23124/home/108495819,REINMLS,10370840,N,Y,37.5004094,-76.991555
PAST SALE,April-8-2019,Single Family Residential,6876 Oakfork Ct,New Kent,VA,23124,264880,3,2.5,The Oaks,1810,21780,2018,972,146,8,Sold,,,https://www.redfin.com/VA/New-Kent/6876-Oakfork-Ct-23124/home/147610404,CVRMLS,1828787,N,Y,37.4987161,-76.9941861
PAST SALE,December-13-2018,Single Family Residential,11520 Oakfork Dr,New Kent,VA,23124,273625,4,2.5,The Oaks,1963,21780,2018,1088,139,8,Sold,,,https://www.redfin.com/VA/New-Kent/11520-Oakfork-Dr-23124/home/167740937,CVRMLS,1826800,N,Y,37.4987381,-76.9934731
PAST SALE,March-23-2021,Single Family Residential,6720 Oakfork Loop,New Kent,VA,23124,303870,4,2.5,The Oaks,2203,,2021,257,138,8,Sold,,,https://www.redfin.com/VA/New-Kent/6720-Oakfork-Loop-23124/home/174946097,CVRMLS,2031034,N,Y,37.4999519,-76.9932969
PAST SALE,April-15-2021,Single Family Residential,6750 Oakfork Loop,New Kent,VA,23124,298365,4,2.5,The Oaks,1903,,2021,234,157,8,Sold,,,https://www.redfin.com/VA/New-Kent/6750-Oakfork-Loop-23124/home/174852547,CVRMLS,2032957,N,Y,37.496234,-76.9965859
PAST SALE,April-13-2021,Single Family Residential,6760 Oakfork Loop,New Kent,VA,23124,305950,4,2.5,The Oaks,1903,,2021,236,161,8,Sold,,,https://www.redfin.com/VA/New-Kent/6760-Oakfork-Loop-23124/home/174852565,CVRMLS,2034004,N,Y,37.4999519,-76.9932969
PAST SALE,June-25-2021,Single Family Residential,6776 Oakfork Loop,New Kent,VA,23124,294160,4,2.5,The Oaks,1680,,2021,163,175,15,Sold,,,https://www.redfin.com/VA/New-Kent/6776-Oakfork-Loop-23124/home/174852638,CVRMLS,2037355,N,Y,37.4999519,-76.9932969
PAST SALE,May-7-2021,Single Family Residential,6910 Oakfork Loop,New Kent,VA,23124,310075,4,2.5,The Oaks,2203,,2021,212,141,8,Sold,,,https://www.redfin.com/VA/New-Kent/6910-Oakfork-Loop-23124/home/174852602,CVRMLS,2035166,N,Y,37.4999519,-76.9932969
PAST SALE,May-14-2021,Single Family Residential,6990 Oakfork Loop,New Kent,VA,23124,266465,4,2.5,The Oaks,1680,,2020,205,159,8,Sold,,,https://www.redfin.com/VA/New-Kent/6990-Oakfork-Loop-23124/home/174852629,CVRMLS,2029158,N,Y,37.4999519,-76.9932969
PAST SALE,May-17-2021,Single Family Residential,6991 Oakfork Loop,New Kent,VA,23124,296755,4,2.5,The Oaks,2203,,2020,202,135,8,Sold,,,https://www.redfin.com/VA/New-Kent/6991-Oakfork-Loop-23124/home/174852461,CVRMLS,2029181,N,Y,37.4994999,-76.993649
PAST SALE,March-30-2021,Single Family Residential,6849 Oakfork Loop,New Kent,VA,23124,270575,4,2.5,The Oaks,1680,,2021,250,161,8,Sold,,,https://www.redfin.com/VA/New-Kent/6849-Oakfork-Loop-23124/home/174805482,CVRMLS,2032923,N,Y,37.4994999,-76.993649
PAST SALE,March-18-2021,Single Family Residential,6825 Oakfork Loop,New Kent,VA,23124,275955,4,2.5,The Oaks,1680,,2020,262,164,8,Sold,,,https://www.redfin.com/VA/New-Kent/6825-Oakfork-Loop-23124/home/174946120,CVRMLS,2031550,N,Y,37.4994999,-76.993649
PAST SALE,March-18-2021,Single Family Residential,6801 Oakfork Loop,New Kent,VA,23124,275170,4,2.5,The Oaks,1680,,2020,262,164,8,Sold,,,https://www.redfin.com/VA/New-Kent/6801-Oakfork-Loop-23124/home/174946128,CVRMLS,2032922,N,Y,37.4994999,-76.993649
PAST SALE,March-19-2021,Single Family Residential,11440 Oakbow Ct,New Kent,VA,23124,310750,4,2.5,The Oaks,2203,,2020,261,141,8,Sold,,,https://www.redfin.com/VA/NEW-KENT/11440-OAKBOW-CT-23124/home/174946134,CVRMLS,2031031,N,Y,37.5152,-76.9829
PAST SALE,June-25-2021,Single Family Residential,11413 Oakbow Ct,New Kent,VA,23124,307665,4,2.5,The Oaks,1903,,2021,163,162,15,Sold,,,https://www.redfin.com/VA/NEW-KENT/11413-OAKBOW-CT-23124/home/174852723,CVRMLS,2037621,N,Y,37.5152,-76.9829
PAST SALE,May-10-2021,Single Family Residential,11399 Oakbow Ct,New Kent,VA,23124,284665,4,2.5,The Oaks,1680,,2021,209,169,8,Sold,,,https://www.redfin.com/VA/NEW-KENT/11399-OAKBOW-CT-23124/home/174852650,CVRMLS,2036199,N,Y,37.5152,-76.9829
PAST SALE,,Other,6051 Fawnlake Ct,New Kent,VA,23124,306475,4,2.5,,2380,27878,2014,,129,,,,,https://www.redfin.com/VA/New-Kent/6051-Fawnlake-Ct-23124/home/130025731,,,N,Y,37.5529753,-77.110535
PAST SALE,August-5-2019,Single Family Residential,12381 Steel Trap Rd,New Kent,VA,23124,235000,3,2.0,,1296,87120,1975,853,181,,Sold,,,https://www.redfin.com/VA/New-Kent/12381-Steel-Trap-Rd-23124/home/130063878,CVRMLS,1916821,N,Y,37.596536,-77.105919
PAST SALE,November-18-2021,Single Family Residential,6909 Oakfork Loop,New Kent,VA,23124,347755,4,2.5,The Oaks,2204,,2021,17,158,15,Sold,,,https://www.redfin.com/VA/New-Kent/6909-Oakfork-Loop-23124/home/174785166,CVRMLS,2107525,N,Y,37.499665,-76.9935814
PAST SALE,September-19-2019,Single Family Residential,11299 Eckels Ln,New Kent,VA,23124,386000,5,2.5,,3200,261795,1994,808,121,33,Sold,,,https://www.redfin.com/VA/New-Kent/11299-Eckels-Ln-23124/home/129894996,CVRMLS,1916948,N,Y,37.578715,-77.137375
PAST SALE,May-14-2021,Single Family Residential,11100 Cosby Mill Rd,Quinton,VA,23141,254000,2,2.0,,1536,175111,1965,205,165,,Sold,,,https://www.redfin.com/VA/Quinton/11100-Cosby-Mill-Rd-23141/home/129895444,CVRMLS,2029214,N,Y,37.5749992,-77.1542908
PAST SALE,June-29-2021,Single Family Residential,7832 Faisan Ln,New Kent,VA,23124,339990,4,2.5,NEW KENT,1649,,2021,159,206,77,Sold,,,https://www.redfin.com/VA/New-Kent/7832-Faisan-LN-23124/home/174901089,REINMLS,10370936,N,Y,37.511917,-77.084471
PAST SALE,June-29-2021,Single Family Residential,7852 Faisan Ln,New Kent,VA,23124,333990,4,2.5,NEW KENT,1649,,2021,159,203,77,Sold,,,https://www.redfin.com/VA/New-Kent/7852-Faisan-LN-23124/home/174901074,REINMLS,10370932,N,Y,37.511918,-77.084543
PAST SALE,June-28-2021,Single Family Residential,7842 Faisan Ln,New Kent,VA,23124,355000,4,2.5,NEW KENT,1906,,2021,160,186,77,Sold,,,https://www.redfin.com/VA/New-Kent/7842-Faisan-LN-23124/home/174901023,REINMLS,10370921,N,Y,37.511292,-77.084589
PAST SALE,,Single Family Residential,10103 Deer Lake Dr,New Kent,VA,23124,325000,4,2.5,,2530,24394,2011,,128,,,,,https://www.redfin.com/VA/New-Kent/10103-Deer-Lake-Dr-23124/home/130047061,,,N,Y,37.548553,-77.113811
PAST SALE,March-31-2021,Single Family Residential,9141 Deerlake Dr,New Kent,VA,23124,396958,4,3.5,Rochambeau Estates,2767,25700,2021,249,143,33,Sold,,,https://www.redfin.com/VA/New-Kent/9141-Deer-Lake-Dr-23124/home/167736417,CVRMLS,2101392,N,Y,37.5416667,-77.1116352
PAST SALE,June-10-2021,Single Family Residential,7156 Cress Ct,New Kent,VA,23124,432990,5,3.5,NEW KENT,3059,,2021,178,142,77,Sold,,,https://www.redfin.com/VA/New-Kent/7156-Cress-CT-23124/home/174783643,REINMLS,10362839,N,Y,37.512581,-77.084493
PAST SALE,December-1-2021,Single Family Residential,7417 E Danube Loop,New Kent,VA,23124,319990,3,2.0,Lifestyle at Four Seasons,1338,,2021,4,239,232,Sold,,,https://www.redfin.com/VA/New-Kent/7417-E-Danube-LOOP-23124/home/176651381,CVRMLS,2130721,N,Y,37.5149037,-76.9848327
PAST SALE,,Other,6025 Antler Hill Ct,New Kent,VA,23124,252500,3,2.0,,1611,23958,2013,,157,,,,,https://www.redfin.com/VA/New-Kent/6025-Antler-Hill-Ct-23124/home/129925236,,,N,Y,37.5512851,-77.1108111
PAST SALE,April-2-2021,Single Family Residential,10220 Old Quarter Ln,New Kent,VA,23124,270000,3,2.0,Whitehouse Farms,1612,22215,1977,247,167,,Sold,,,https://www.redfin.com/VA/New-Kent/10220-Old-Quarter-Ln-23124/home/130037861,CVRMLS,2104111,N,Y,37.5590519,-77.0556274
PAST SALE,,Single Family Residential,9768 Deer Lake Dr,New Kent,VA,23124,264950,3,2.5,,1772,24829,2002,,150,,,,,https://www.redfin.com/VA/New-Kent/9768-Deer-Lake-Dr-23124/home/130013849,,,N,Y,37.5463832,-77.1155219
PAST SALE,March-15-2021,Single Family Residential,7803 Sedge Dr,New Kent,VA,23124,375000,4,2.5,Farms Of New Kent,2804,15681,2018,265,134,73,Sold,,,https://www.redfin.com/VA/New-Kent/7803-Sedge-Dr-23124/home/147609935,CVRMLS,2034286,N,Y,37.514549,-77.082921
PAST SALE,,Single Family Residential,9506 Deer Lake Dr,New Kent,VA,23124,250000,3,2.5,,1568,25265,2003,,159,,,,,https://www.redfin.com/VA/New-Kent/9506-Deer-Lake-Dr-23124/home/108495858,,,N,Y,37.5446843,-77.1145109
PAST SALE,May-31-2019,Single Family Residential,5757 Longbow Ln,New Kent,VA,23124,282000,4,2.5,Deerlake,2214,27442,2008,919,127,14,Sold,,,https://www.redfin.com/VA/New-Kent/5757-Longbow-Ln-23124/home/130034185,CVRMLS,1901189,N,Y,37.5472483,-77.11397
PAST SALE,,Single Family Residential,11181 New Town Rd,New Kent,VA,23124,252250,3,2.0,,1381,76230,2015,,183,,,,,https://www.redfin.com/VA/New-Kent/11181-New-Town-Rd-23124/home/130055231,,,N,Y,37.5754824,-77.1230558
PAST SALE,,Single Family Residential,8641 St Peters Ln,New Kent,VA,23124,370000,4,2.0,,1918,225205,1985,,193,,,,,https://www.redfin.com/VA/New-Kent/8641-St-Peters-Ln-23124/home/129916552,,,N,Y,37.5354056,-77.0518535
PAST SALE,July-8-2021,Single Family Residential,8870 Greenwood Blvd,New Kent,VA,23124,345000,5,2.5,Greenwood Estates,2274,27007,1995,150,152,,Sold,,,https://www.redfin.com/VA/New-Kent/8870-Greenwood-Blvd-23124/home/129893982,CVRMLS,2113963,N,Y,37.5363914,-77.1172683
PAST SALE,August-13-2021,Single Family Residential,10150 Tunstall Rd,New Kent,VA,23124,424000,3,2.5,,2434,217800,1995,114,174,,Sold,,,https://www.redfin.com/VA/New-Kent/10150-Tunstall-Rd-23124/home/129917783,CVRMLS,2115968,N,Y,37.5590809,-77.1029131
PAST SALE,November-4-2021,Single Family Residential,6219 Hingham Dr,New Kent,VA,23124,259900,3,2.0,Kenwood Farms,1512,67082,1993,31,172,,Sold,,,https://www.redfin.com/VA/New-Kent/6219-Hingham-Dr-23124/home/130042695,CVRMLS,2127920,N,Y,37.5397279,-77.104184
PAST SALE,March-15-2021,Single Family Residential,5315 Mollie Schools Ln,New Kent,VA,23124,256501,3,2.0,,1513,206474,2005,265,170,,Sold,,,https://www.redfin.com/VA/New-Kent/5315-Mollie-Schools-Ln-23124/home/130026164,CVRMLS,2100030,N,Y,37.5756559,-77.1216624
PAST SALE,March-24-2021,Single Family Residential,11109 Laurel Rd,New Kent,VA,23124,282000,3,2.5,Black Creek Estates,1755,133293,2003,256,161,,Sold,,,https://www.redfin.com/VA/New-Kent/11109-Laurel-23124/home/129914289,CVRMLS,2104145,N,Y,37.57522,-77.1066869
PAST SALE,June-24-2021,Single Family Residential,7245 Cress Ter,New Kent,VA,23124,365650,3,2.5,Arbors,2200,,2021,164,166,77,Sold,,,https://www.redfin.com/VA/New-Kent/7245-Cress-TER-23124/home/175451869,CVRMLS,2118268,N,Y,37.5149037,-76.9848327
PAST SALE,,Single Family Residential,11850 Cattail Rd,New Kent,VA,23124,240000,3,2.0,,1559,217800,1981,,154,,,,,https://www.redfin.com/VA/New-Kent/11850-Cattail-Rd-23124/home/130023504,,,N,Y,37.5889275,-77.1728162
PAST SALE,,Single Family Residential,7630 WILLIAMS GROVE TRL,QUINTON,VA,23141,235000,3,2.0,,1144,102366,2003,,205,,,,,https://www.redfin.com/VA/QUINTON/7630-WILLIAMS-GROVE-TRL-23141/home/162471021,,,N,Y,37.516699,-77.090051
PAST SALE,,Single Family Residential,9910 Old Quarter Ln,New Kent,VA,23124,229950,3,2.0,,1512,23087,1998,,152,,,,,https://www.redfin.com/VA/New-Kent/9910-Old-Quarter-Ln-23124/home/129900708,,,N,Y,37.554775,-77.057713
PAST SALE,,Single Family Residential,6151 Hopewell Rd,New Kent,VA,23124,205000,3,1.0,,1215,45738,1992,,169,,,,,https://www.redfin.com/VA/New-Kent/6151-Hopewell-Rd-23124/home/130019488,,,N,Y,37.580675,-77.106234
PAST SALE,November-12-2021,Single Family Residential,7934 Uplands Dr,New Kent,VA,23124,371990,4,2.5,NEW KENT,1906,,2021,23,195,77,Sold,,,https://www.redfin.com/VA/New-Kent/7934-Uplands-DR-23124/home/176103226,REINMLS,10396184,N,Y,37.5149037,-76.9848327
PAST SALE,October-25-2021,Single Family Residential,7839 Faisan Ln,New Kent,VA,23124,341990,4,2.5,Arbors,1649,,2021,41,207,77,Sold,,,https://www.redfin.com/VA/New-Kent/7839-Faison-LN-23124/home/175172002,CVRMLS,2115268,N,Y,37.5149037,-76.9848327
PAST SALE,November-30-2021,Single Family Residential,7581 Southamptonshire Way,New Kent,VA,23124,349990,3,2.0,Lifestyle at Four Seasons,1533,,2021,5,228,232,Sold,,,https://www.redfin.com/VA/New-Kent/7581-Southamptonshire-WAY-23124/home/176627717,CVRMLS,2130548,N,Y,37.5149037,-76.9848327
PAST SALE,,Other,7729 Broadstairs Ln,New Kent,VA,23124,325000,3,3.5,,2180,4269,2019,,149,,,,,https://www.redfin.com/VA/New-Kent/7729-Broadstairs-Ln-23124/home/162472977,,,N,Y,37.5134262,-76.9866979
PAST SALE,August-27-2021,Single Family Residential,7857 Faison Ln,New Kent,VA,23124,378990,4,2.0,Arbors,2025,,2021,100,187,77,Sold,,,https://www.redfin.com/VA/New-Kent/7857-Faison-LN-23124/home/175171976,CVRMLS,2115263,N,Y,37.5149037,-76.9848327
PAST SALE,September-24-2021,Single Family Residential,7990 Uplands Dr,New Kent,VA,23124,407080,4,2.5,NEW KENT,2185,,2021,72,186,77,Sold,,,https://www.redfin.com/VA/New-Kent/7990-Uplands-DR-23124/home/175304773,REINMLS,10382723,N,Y,37.5149037,-76.9848327
PAST SALE,September-2-2021,Single Family Residential,10261 Talleysville Rd,New Kent,VA,23124,300000,3,2.0,,1470,20037,2019,94,204,,Sold,,,https://www.redfin.com/VA/New-Kent/10261-Talleysville-Rd-23124/home/162465180,CVRMLS,2122748,N,Y,37.559619,-77.056202
PAST SALE,September-20-2021,Single Family Residential,7411 Olivet Church Rd,New Kent,VA,23124,167900,2,1.0,,920,20908,1974,76,183,,Sold,,,https://www.redfin.com/VA/New-Kent/7411-Olivet-Church-Rd-23124/home/130055927,CVRMLS,2121032,N,Y,37.5108094,-77.0616088
PAST SALE,September-2-2021,Single Family Residential,7210 Cress Ter,New Kent,VA,23124,389985,3,2.5,NEW KENT,2200,,2021,94,177,77,Sold,,,https://www.redfin.com/VA/New-Kent/7210-Cress-TER-23124/home/175100211,REINMLS,10376269,N,Y,37.5146,-77.08507
PAST SALE,September-3-2021,Single Family Residential,7440 Sedge Dr,New Kent,VA,23124,429455,5,3.0,NEW KENT,2511,,2021,93,171,77,Sold,,,https://www.redfin.com/VA/New-Kent/7440-Sedge-DR-23124/home/175312503,REINMLS,10382911,N,Y,37.51447,-77.08506
PAST SALE,November-19-2021,Single Family Residential,6790 Oakfork Loop,New Kent,VA,23124,337255,4,2.5,The Oaks,1903,,2021,16,177,15,Sold,,,https://www.redfin.com/VA/New-Kent/6790-Oakfork-Loop-23124/home/174780744,CVRMLS,2104366,N,Y,37.4999519,-76.9932969
PAST SALE,July-20-2021,Single Family Residential,7181 Cress Ct,New Kent,VA,23124,482430,5,3.5,NEW KENT,3059,,2021,138,158,77,Sold,,,https://www.redfin.com/VA/New-Kent/7181-Cress-CT-23124/home/174903774,REINMLS,10371026,N,Y,37.51443,-77.08502
PAST SALE,October-1-2021,Single Family Residential,6240 Bushnell Dr,New Kent,VA,23124,448545,4,3.5,Rochambeau Estates,3184,26136,2020,65,141,33,Sold,,,https://www.redfin.com/VA/New-Kent/6240-Bushnell-Dr-23124/home/174852623,CVRMLS,2100079,N,Y,37.5437915,-77.1101853
PAST SALE,March-26-2019,Single Family Residential,7747 Sedge Dr,New Kent,VA,23124,393215,3,3.0,The Arbors At New Kent Winery,2879,,2018,985,137,73,Sold,,,https://www.redfin.com/VA/New-Kent/7747-Sedge-Dr-23124/home/162472719,CVRMLS,1828514,N,Y,37.5126009,-77.083152
PAST SALE,June-30-2021,Single Family Residential,5970 Bushnell Dr,New Kent,VA,23124,520000,4,3.5,Rochambeau Estates,3351,21344,2020,158,155,42,Sold,,,https://www.redfin.com/VA/New-Kent/5970-Bushnell-Dr-23124/home/174779791,CVRMLS,2108054,N,Y,37.5437915,-77.1101853
PAST SALE,April-30-2021,Single Family Residential,7171 Marecage Ct,New Kent,VA,23124,390062,5,3.0,Arbors,2511,8276,2020,219,155,77,Sold,,,https://www.redfin.com/VA/New-Kent/7171-Marecage-CT-23124/home/174783635,CVRMLS,2030333,N,Y,37.5149037,-76.9848327
PAST SALE,May-21-2021,Single Family Residential,7613 Sedge Dr,New Kent,VA,23124,407430,4,3.5,Arbors,3150,9583,2020,198,129,77,Sold,,,https://www.redfin.com/VA/New-Kent/7613-Sedge-DR-23124/home/174783636,CVRMLS,2030318,N,Y,37.5149037,-76.9848327
PAST SALE,May-7-2021,Single Family Residential,7165 Marecage Ct,New Kent,VA,23124,394775,4,3.5,Arbors,2700,7840,2020,212,146,77,Sold,,,https://www.redfin.com/VA/New-Kent/7165-Marecage-CT-23124/home/174783637,CVRMLS,2030352,N,Y,37.5149037,-76.9848327
PAST SALE,June-24-2021,Single Family Residential,7253 Cress Ter,New Kent,VA,23124,365650,4,2.5,NEW KENT,2200,,2021,164,166,77,Sold,,,https://www.redfin.com/VA/New-Kent/7253-Cress-TER-23124/home/174791216,REINMLS,10369042,N,Y,37.51447,-77.08502
PAST SALE,April-30-2021,Single Family Residential,7472 Sedge Dr,New Kent,VA,23124,374740,4,2.5,Arbors,2890,,2020,219,130,77,Sold,,,https://www.redfin.com/VA/New-Kent/7472-Sedge-DR-23124/home/174792000,CVRMLS,2036456,N,Y,37.5149037,-76.9848327
PAST SALE,July-23-2021,Single Family Residential,7155 Cress Ct,New Kent,VA,23124,429955,4,3.5,NEW KENT,2700,,2021,135,159,77,Sold,,,https://www.redfin.com/VA/New-Kent/7155-Cress-CT-23124/home/174795097,REINMLS,10366043,N,Y,37.512736,-77.085119
PAST SALE,April-30-2021,Single Family Residential,6220 Bushnell Dr,New Kent,VA,23124,430335,4,3.5,Rochambeau Estates,3200,31363,2020,219,134,33,Sold,,,https://www.redfin.com/VA/New-Kent/6220-Bushnell-Dr-23124/home/174852471,CVRMLS,2025686,N,Y,37.5437915,-77.1101853
PAST SALE,April-14-2021,Single Family Residential,6181 Bushnell Dr,New Kent,VA,23124,457307,4,3.5,Rochambeau Estates,3351,,2020,235,136,42,Sold,,,https://www.redfin.com/VA/New-Kent/6181-Bushnell-Dr-23124/home/174852497,CVRMLS,2023879,N,Y,37.5437915,-77.1101853
PAST SALE,April-12-2021,Single Family Residential,6881 Oakfork Loop,New Kent,VA,23124,269870,4,2.5,The Oaks,1680,,2021,237,161,8,Sold,,,https://www.redfin.com/VA/New-Kent/6881-Oakfork-Loop-23124/home/174852525,CVRMLS,2032640,N,Y,37.499665,-76.9935814
PAST SALE,May-27-2021,Single Family Residential,7623 Sedge Dr,New Kent,VA,23124,427990,6,4.0,Arbors,3295,,2021,192,130,77,Sold,,,https://www.redfin.com/VA/New-Kent/7623-Sedge-DR-23124/home/174852528,CVRMLS,2035617,N,Y,37.5149037,-76.9848327
PAST SALE,May-12-2021,Single Family Residential,6200 Bushnell Dr,New Kent,VA,23124,398709,4,3.5,Rochambeau Estates,2838,,2020,207,140,33,Sold,,,https://www.redfin.com/VA/New-Kent/6200-Bushnell-Dr-23124/home/174852586,CVRMLS,2028927,N,Y,37.5437915,-77.1101853
PAST SALE,April-6-2021,Single Family Residential,6895 Oakfork Loop,New Kent,VA,23124,295575,4,2.5,The Oaks,2203,,2021,243,134,8,Sold,,,https://www.redfin.com/VA/New-Kent/6895-Oakfork-Loop-23124/home/174852598,CVRMLS,2031043,N,Y,37.499665,-76.9935814
PAST SALE,November-15-2021,Single Family Residential,7891 Faisan Ln,New Kent,VA,23124,388990,4,2.0,NEW KENT,2090,,2021,20,186,77,Sold,,,https://www.redfin.com/VA/New-Kent/7891-Faisan-LN-23124/home/176163721,REINMLS,10397585,N,Y,37.5360052,-77.0334179
PAST SALE,,Single Family Residential,11210 Cosby Mill Rd,Quinton,VA,23141,105000,2,1.0,,896,43560,1968,,117,,,,,https://www.redfin.com/VA/Quinton/11210-Cosby-Mill-Rd-23141/home/129894975,,,N,Y,37.576505,-77.153861
PAST SALE,,Single Family Residential,4700 Huntsman Trl,Quinton,VA,23141,340000,3,2.0,,2377,291852,2004,,143,,,,,https://www.redfin.com/VA/Quinton/4700-Huntsman-Trl-23141/home/129895022,,,N,Y,37.57101,-77.1399519
PAST SALE,,Single Family Residential,10345 Tunstall Rd,New Kent,VA,23124,332000,3,2.0,,1807,437342,2006,,184,,,,,https://www.redfin.com/VA/New-Kent/10345-Tunstall-Rd-23124/home/129900539,,,N,Y,37.561469,-77.091891
PAST SALE,,Single Family Residential,6800 Egypt Rd,New Kent,VA,23124,277500,3,2.5,,1214,24394,1974,,229,,,,,https://www.redfin.com/VA/New-Kent/6800-Egypt-Rd-23124/home/129904311,,,N,Y,37.500492,-76.9884749
PAST SALE,April-16-2021,Single Family Residential,7634 Sedge Dr,New Kent,VA,23124,369990,5,3.0,Arbors,2511,,2021,233,147,77,Sold,,,https://www.redfin.com/VA/New-Kent/7634-Sedge-DR-23124/home/174852548,CVRMLS,2101359,N,Y,37.5158797,-77.0827925
PAST SALE,,Single Family Residential,10142 Old Quarter Ln,New Kent,VA,23124,232500,3,2.0,,1568,22216,1999,,148,,,,,https://www.redfin.com/VA/New-Kent/10142-Old-Quarter-Ln-23124/home/130025794,,,N,Y,37.5581267,-77.0557564
PAST SALE,,Single Family Residential,7395 Diascund Creek Way,New Kent,VA,23124,405000,4,3.0,,2836,217800,2015,,143,,,,,https://www.redfin.com/VA/New-Kent/7395-Diascund-Creek-Way-23124/home/130120391,,,N,Y,37.5101408,-76.9911048
PAST SALE,,Other,11375 Creeks Edge Rd,New Kent,VA,23124,460000,5,4.5,,3724,217800,2015,,124,,,,,https://www.redfin.com/VA/New-Kent/11375-Creeks-Edge-Rd-23124/home/130120463,,,N,Y,37.5065771,-76.9962817
PAST SALE,,Other,7219 AMARONE WAY,NEW KENT,VA,23124,716000,4,3.5,,3495,50530,2018,,205,,,,,https://www.redfin.com/VA/NEW-KENT/7219-AMARONE-WAY-23124/home/162471280,,,N,Y,37.535662,-77.085292
PAST SALE,,Single Family Residential,11749 Cumberland Estates Rd,New Kent,VA,23124,385000,4,3.5,,1760,270072,2004,,219,,,,,https://www.redfin.com/VA/New-Kent/11749-Cumberland-Estates-Rd-23124/home/130014449,,,N,Y,37.528749,-76.982763
PAST SALE,November-23-2021,Single Family Residential,6824 Oakfork Loop,New Kent,VA,23124,318280,4,2.5,The Oaks,1680,,2021,12,189,15,Sold,,,https://www.redfin.com/VA/New-Kent/6824-Oakfork-Loop-23124/home/174780772,CVRMLS,2103083,N,Y,37.4999519,-76.9932969
PAST SALE,November-22-2021,Single Family Residential,6870 Oakfork Loop,New Kent,VA,23124,358750,4,2.5,The Oaks,2203,,2021,13,163,15,Sold,,,https://www.redfin.com/VA/New-Kent/6870-Oakfork-Loop-23124/home/175017936,CVRMLS,2111930,N,Y,37.4999519,-76.9932969
PAST SALE,November-5-2021,Single Family Residential,7739 Broadstairs Ln,New Kent,VA,23124,320000,4,2.5,Maidstone Village,2240,4356,2015,30,143,100,Sold,,,https://www.redfin.com/VA/New-Kent/7739-Broadstairs-Ln-23124/home/130120372,CVRMLS,2130412,N,Y,37.5135441,-76.9867341
PAST SALE,November-30-2021,Single Family Residential,6854 Oakfork Loop,New Kent,VA,23124,285165,4,2.5,The Oaks,1680,,2021,5,170,8,Sold,,,https://www.redfin.com/VA/New-Kent/6854-Oakfork-Loop-23124/home/174852671,CVRMLS,2032925,N,Y,37.4999519,-76.9932969
PAST SALE,November-23-2021,Single Family Residential,6215 Bushnell Dr,New Kent,VA,23124,473832,4,4.5,Rochambeau Estates,3184,34848,2021,12,149,42,Sold,,,https://www.redfin.com/VA/New-Kent/6215-Bushnell-Dr-23124/home/174852508,CVRMLS,2102017,N,Y,37.5437915,-77.1101853
PAST SALE,March-17-2021,Single Family Residential,5838 Stingray Point Blvd,New Kent,VA,23124,345885,4,2.5,Greenwood Estates,2255,20908,2020,263,153,8,Sold,,,https://www.redfin.com/VA/NEW-KENT/5838-STINGRAY-POINT-BLVD-23124/home/167737866,CVRMLS,2013739,N,Y,37.541295,-77.115444
PAST SALE,,Other,8875 Porto Ct,New Kent,VA,23124,680000,3,2.5,,3355,56628,2012,,203,,,,,https://www.redfin.com/VA/New-Kent/8875-Porto-Ct-23124/home/108495622,,,N,Y,37.5338776,-77.0854506
PAST SALE,,Other,6105 Fawnlake Ct,New Kent,VA,23124,425000,4,3.5,,3592,35719,2016,,118,,,,,https://www.redfin.com/VA/New-Kent/6105-Fawnlake-Ct-23124/home/108495686,,,N,Y,37.551839,-77.108986
PAST SALE,,Single Family Residential,9295 Ordinary Ln,New Kent,VA,23124,339950,4,2.5,,2723,153767,1999,,125,,,,,https://www.redfin.com/VA/New-Kent/9295-Ordinary-Ln-23124/home/108514505,,,N,Y,37.5193582,-77.03416
PAST SALE,July-30-2021,Single Family Residential,6290 Bushnell Dr,New Kent,VA,23124,345250,4,2.5,Rochambeau Estates,2373,21780,2020,128,145,33,Sold,,,https://www.redfin.com/VA/New-Kent/6290-Bushnell-Dr-23124/home/174852568,CVRMLS,2036481,N,Y,37.5437915,-77.1101853
PAST SALE,,Single Family Residential,11501 Oakrise Rd,New Kent,VA,23124,279000,4,2.5,,1920,24829,2012,,145,,,,,https://www.redfin.com/VA/New-Kent/11501-Oakrise-Rd-23124/home/130028857,,,N,Y,37.496554,-76.993419
PAST SALE,,Single Family Residential,10990 Beaver Pl,New Kent,VA,23124,340000,3,2.0,,1952,217800,1994,,174,,,,,https://www.redfin.com/VA/New-Kent/10990-Beaver-Pl-23124/home/130048472,,,N,Y,37.5131709,-77.001769
PAST SALE,June-18-2021,Single Family Residential,10382 Old Towne Ln,New Kent,VA,23124,575000,4,3.5,ALL OTHERS AREA 140,3207,217800,2000,170,179,,Sold,,,https://www.redfin.com/VA/New-Kent/10382-Old-Towne-Ln-23124/home/129908183,REINMLS,10373945,N,Y,37.5086665,-77.0129245
