SALE TYPE,SOLD DATE,PROPERTY TYPE,ADDRESS,CITY,STATE OR PROVINCE,ZIP OR POSTAL CODE,PRICE,BEDS,BATHS,LOCATION,SQUARE FEET,LOT SIZE,YEAR BUILT,DAYS ON MARKET,$/SQUARE FEET,HOA/MONTH,STATUS,NEXT OPEN HOUSE START TIME,NEXT OPEN HOUSE END TIME,URL (SEE https://www.redfin.com/buy-a-home/comparative-market-analysis FOR INFO ON PRICING),SOURCE,MLS#,FAVORITE,INTERESTED,LATITUDE,LONGITUDE
MLS Listing,,Single Family Residential,13175 Glebe Pl,Newburg,MD,20664,569950,4,3.0,THE GLEBE,2091,136866,,138,273,,Active,,,https://www.redfin.com/MD/Newburg/13175-Glebe-Pl-20664/home/50257554,BRIGHT MLS,MDCH2001474,N,Y,38.3496016,-76.9085597
MLS Listing,,Vacant Land,11780 Mill Run Rd,Newburg,MD,20664,149900,,,Newburg,,605484,,221,,,Active,,,https://www.redfin.com/MD/Newburg/11780-Mill-Run-Rd-20664/home/175025915,BRIGHT MLS,MDCH223390,N,Y,38.3486355,-76.8983337
MLS Listing,,Vacant Land,11510 Mill Run Rd,Newburg,MD,20664,124900,,,THE GLEBE,,321342,,221,,,Active,,,https://www.redfin.com/MD/Newburg/11510-Mill-Run-Rd-20664/home/175025866,BRIGHT MLS,MDCH224168,N,Y,38.3486355,-76.8983337
MLS Listing,,Vacant Land,Thompson Farm Rd,Newburg,MD,20664,450000,,,Newburg,,322344,,2306,,,Active,,,https://www.redfin.com/MD/Newburg/Unknown-20664/home/169923649,BRIGHT MLS,1000076545,N,Y,38.33967041,-76.93450046
PAST SALE,April-1-2019,Single Family Residential,12660 Shiloh Church Rd,Newburg,MD,20664,209000,3,1.0,Newburg,1152,40510,1972,979,181,,Sold,,,https://www.redfin.com/MD/Newburg/12660-Shiloh-Church-Rd-20664/home/14388380,BRIGHT MLS,1009934552,N,Y,38.365227,-76.924014
PAST SALE,May-25-2021,Single Family Residential,10760 Morgantown Rd,Newburg,MD,20664,245000,3,2.0,Newburg,1446,42819,1935,194,169,,Sold,,,https://www.redfin.com/MD/Newburg/10760-Morgantown-Rd-20664/home/109828967,BRIGHT MLS,MDCH222786,N,Y,38.3530645,-76.9393466
PAST SALE,May-31-2019,Vacant Land,Mill Run Rd,Newburg,MD,20664,65000,,,LAND OF ELOISE M CRAIN,,409464,,919,,,Sold,,,https://www.redfin.com/MD/NEWBURG/MILL-RUN-RD-20664/home/14401082,BRIGHT MLS,MDCH195060,N,Y,38.353078,-76.906469
PAST SALE,December-31-2019,Single Family Residential,13050 Guy Washington Rd,Newburg,MD,20664,210000,3,1.0,Newburg,1056,43560,1983,705,199,,Sold,,,https://www.redfin.com/MD/Newburg/13050-Guy-Washington-Rd-20664/home/14418960,BRIGHT MLS,MDCH200262,N,Y,38.3527882,-76.9050394
PAST SALE,,Vacant Land,,,MD,,65000,,,,,409464,,,,,,,,https://www.redfin.com/MD/Unknown/Unknown-Unknown/home/14377453,,,N,Y,38.351213,-76.896992
PAST SALE,December-21-2018,Single Family Residential,13200 Guy Washington Rd,Newburg,MD,20664,315000,3,2.0,Newburg,1738,366775,2004,1080,181,,Sold,,,https://www.redfin.com/MD/Newburg/13200-Guy-Washington-Rd-20664/home/44628994,BRIGHT MLS,MDCH162800,N,Y,38.3508626,-76.903595
PAST SALE,,Vacant Land,ROCK POINT RD,NEWBURG,MD,20664,145000,,,,,821629,,,,,,,,https://www.redfin.com/MD/NEWBURG/ROCK-POINT-RD-20664/home/174614566,,,N,Y,38.3603,-76.9328
PAST SALE,,Single Family Residential,13340 Rock Point Rd,Newburg,MD,20664,585000,,5.0,,5146,230302,2004,,114,,,,,https://www.redfin.com/MD/Newburg/13340-Rock-Point-Rd-20664/home/14396560,,,N,Y,38.3503111,-76.928551
PAST SALE,April-24-2019,Vacant Land,10825 Butler Rd,Newburg,MD,20664,48000,,,BUTLER'S LANDING SUB,,264932,,956,,,Sold,,,https://www.redfin.com/MD/Newburg/10825-Butler-Rd-20664/home/52925286,BRIGHT MLS,MDCH149044,N,Y,38.3648224,-76.934399
PAST SALE,January-31-2020,Single Family Residential,13205 Glebe Pl,Newburg,MD,20664,430000,3,2.0,THE GLEBE,,149193,2019,674,,,Sold,,,https://www.redfin.com/MD/Newburg/13205-Glebe-Pl-20664/home/50257555,BRIGHT MLS,MDCH183950,N,Y,38.347881,-76.9082115
PAST SALE,December-13-2018,Single Family Residential,13165 Glebe Pl,Newburg,MD,20664,463550,5,3.0,THE GLEBE,,271509,2018,1088,,42,Sold,,,https://www.redfin.com/MD/NEWBURG/13165-GLEBE-PL-20664/home/64347737,BRIGHT MLS,1000310928,N,Y,38.35028,-76.908062
PAST SALE,October-14-2020,Single Family Residential,10887 Lloyd Point Rd,Newburg,MD,20664,493000,5,2.0,Newburg,3120,106286,1969,417,158,,Sold,,,https://www.redfin.com/MD/Newburg/10887-Lloyd-Point-Rd-20664/home/14404503,BRIGHT MLS,MDCH216344,N,Y,38.327915,-76.935123
PAST SALE,March-15-2019,Single Family Residential,13885 Lloyd Point Farm Rd,Newburg,MD,20664,530000,4,3.5,Newburg,4557,60548,1970,996,116,,Sold,,,https://www.redfin.com/MD/Newburg/13885-Lloyd-Point-Farm-Rd-20664/home/14409685,BRIGHT MLS,1000295796,N,Y,38.331216,-76.9392
PAST SALE,February-20-2019,Single Family Residential,11830 Mill Run Rd,Newburg,MD,20664,330000,3,2.0,Newburg,1738,690426,2004,1019,190,,Sold,,,https://www.redfin.com/MD/Newburg/11830-Mill-Run-Rd-20664/home/44628995,BRIGHT MLS,MDCH163438,N,Y,38.350721,-76.9019239
PAST SALE,July-29-2021,Single Family Residential,10745 Butler Rd,Newburg,MD,20664,225000,3,1.0,Newburg,940,329749,1963,129,239,,Sold,,,https://www.redfin.com/MD/Newburg/10745-Butler-Rd-20664/home/14401877,BRIGHT MLS,MDCH2000274,N,Y,38.364953,-76.93931
PAST SALE,September-15-2021,Vacant Land,13895 Waverly Point Rd,Newburg,MD,20664,385000,,,WAVERLY POINT SUB,,422532,,81,,,Sold,,,https://www.redfin.com/MD/Newburg/13895-Waverly-Point-Rd-20664/home/14411034,BRIGHT MLS,MDCH223394,N,Y,38.333543,-76.947583
PAST SALE,August-24-2020,Single Family Residential,12815 Shiloh Church Rd,Newburg,MD,20664,235000,3,2.0,NEWBURG,1176,32321,1999,468,200,,Sold,,,https://www.redfin.com/MD/Newburg/12815-Shiloh-Church-Rd-20664/home/14402478,BRIGHT MLS,MDCH214528,N,Y,38.360214,-76.9281372
PAST SALE,January-31-2020,Single Family Residential,13195 Glebe Pl,Newburg,MD,20664,430000,3,2.0,THE GLEBE,,133816,2019,674,,,Sold,,,https://www.redfin.com/MD/Newburg/13195-Glebe-Pl-20664/home/50257552,BRIGHT MLS,MDCH183944,N,Y,38.3485232,-76.9081915
PAST SALE,June-24-2019,Single Family Residential,11060 Milton Hill Pl,Newburg,MD,20664,585000,5,5.0,Newburg,5722,230302,2004,895,102,,Sold,,,https://www.redfin.com/MD/Newburg/11060-Milton-Hill-Pl-20664/home/175986221,BRIGHT MLS,MDCH194600,N,Y,38.3502821,-76.9285853
PAST SALE,,Single Family Residential,13645 Piccowaxen Creek Rd,Newburg,MD,20664,159000,,1.0,,510,3750,1930,,312,,,,,https://www.redfin.com/MD/Newburg/13645-Piccowaxen-Creek-Rd-20664/home/14395449,,,N,Y,38.3376495,-76.9379063
