SALE TYPE,SOLD DATE,PROPERTY TYPE,ADDRESS,CITY,STATE OR PROVINCE,ZIP OR POSTAL CODE,PRICE,BEDS,BATHS,LOCATION,SQUARE FEET,LOT SIZE,YEAR BUILT,DAYS ON MARKET,$/SQUARE FEET,HOA/MONTH,STATUS,NEXT OPEN HOUSE START TIME,NEXT OPEN HOUSE END TIME,URL (SEE https://www.redfin.com/buy-a-home/comparative-market-analysis FOR INFO ON PRICING),SOURCE,MLS#,FAVORITE,INTERESTED,LATITUDE,LONGITUDE
MLS Listing,,Condo/Co-op,4740 Connecticut Ave NW #904,Washington,DC,20008,335000,1,1.0,WAKEFIELD,823,,1956,15,407,618,Active,,,https://www.redfin.com/DC/Washington/4740-Connecticut-Ave-NW-20008/unit-904/home/9977103,BRIGHT MLS,DCDC2021266,N,Y,38.9517732,-77.0685436
MLS Listing,,Condo/Co-op,3001 Veazey Ter NW #918,Washington,DC,20008,338000,1,1.0,FOREST HILLS,1115,,1967,57,303,857,Active,,,https://www.redfin.com/DC/Washington/3001-Veazey-Ter-NW-20008/unit-918/home/40334379,BRIGHT MLS,DCDC2000111,N,Y,38.9444006,-77.0616705
MLS Listing,,Condo/Co-op,4515 Willard Ave Unit 1514S,Chevy Chase,MD,20815,319000,1,1.0,WILLOUGHBY OF CH CH CODM,883,,1968,221,361,650,Active,,,https://www.redfin.com/MD/Chevy-Chase/4515-Willard-Ave-20815/unit-1514S/home/143402718,BRIGHT MLS,MDMC755126,N,Y,38.9624844,-77.0898117
PAST SALE,February-28-2020,Condo/Co-op,3810 39th St NW Unit C123,Washington,DC,20016,374000,1,1.0,CLEVELAND PARK,746,,1942,645,501,343,Sold,,,https://www.redfin.com/DC/Washington/3810-39th-St-NW-20016/unit-C123/home/9963320,BRIGHT MLS,DCDC455364,N,Y,38.9394253,-77.0786126
PAST SALE,May-5-2020,Single Family Residential,5911 31st Pl NW,Washington,DC,20015,1070000,4,3.0,CHEVY CHASE,2084,4100,1941,578,513,,Sold,,,https://www.redfin.com/DC/Washington/5911-31st-Pl-NW-20015/home/9994238,BRIGHT MLS,DCDC459460,N,Y,38.9681107,-77.0628099
PAST SALE,March-6-2020,Condo/Co-op,5201 Wisconsin Ave NW #107,Washington,DC,20015,459000,1,1.0,CHEVY CHASE,760,,2010,638,604,603,Sold,,,https://www.redfin.com/DC/Washington/5201b-Wisconsin-Ave-NW-20015/unit-107/home/40501775,BRIGHT MLS,DCDC454818,N,Y,38.957192,-77.0832991
PAST SALE,May-6-2019,Condo/Co-op,4515 Willard Ave Unit 917S,Chevy Chase,MD,20815,250000,1,1.0,WILLOUGHBY OF CH CH CODM,658,,1968,943,380,551,Sold,,,https://www.redfin.com/MD/Chevy-Chase/4515-Willard-Ave-20815/unit-917S/home/10693384,BRIGHT MLS,MDMC624502,N,Y,38.9624844,-77.0898117
PAST SALE,July-12-2019,Townhouse,6731 Kenwood Forest Ln #42,Chevy Chase,MD,20815,710000,3,2.5,KENWOOD FOREST,1164,,1950,876,610,393,Sold,,,https://www.redfin.com/MD/Bethesda/6731-Kenwood-Forest-Ln-20815/unit-42/home/10687660,BRIGHT MLS,MDMC663472,N,Y,38.9768366,-77.0998602
PAST SALE,,Single Family Residential,5329 Massachusetts Ave,Bethesda,MD,20816,830000,,3.0,,2294,11750,1961,,362,,,,,https://www.redfin.com/MD/Bethesda/5329-Massachusetts-Ave-20816/home/10674874,,,N,Y,38.9566907,-77.1061541
PAST SALE,March-30-2021,Condo/Co-op,4301 Military Rd NW #202,Washington,DC,20015,1275000,2,2.5,CHEVY CHASE,1906,,2007,249,669,1200,Sold,,,https://www.redfin.com/DC/Washington/4301-Military-Rd-NW-20015/unit-202/home/12531052,BRIGHT MLS,DCDC492282,N,Y,38.9614788,-77.0842816
PAST SALE,August-13-2021,Single Family Residential,4814 Westway Dr,Bethesda,MD,20816,875000,3,2.0,CRESTVIEW,1300,5176,1949,113,673,,Sold,,,https://www.redfin.com/MD/Bethesda/4814-Westway-Dr-20816/home/10644749,BRIGHT MLS,MDMC2006832,N,Y,38.954867,-77.0976241
PAST SALE,October-5-2020,Single Family Residential,4800 Park Ave,Bethesda,MD,20816,1200000,4,3.5,AMERICAN UNIV PARK,3120,5462,1933,425,385,,Sold,,,https://www.redfin.com/MD/Bethesda/4800-Park-Ave-20816/home/10638376,BRIGHT MLS,MDMC723242,N,Y,38.9547578,-77.0945523
PAST SALE,November-13-2020,Condo/Co-op,4601 N Park Ave #921,Chevy Chase,MD,20815,330000,1,2.0,THE ELIZABETH,1050,,1975,386,314,1151,Sold,,,https://www.redfin.com/MD/Chevy-Chase/4601-N-Park-Ave-20815/unit-921/home/143648145,BRIGHT MLS,MDMC722670,N,Y,38.9636268,-77.0910012
PAST SALE,March-28-2019,Condo/Co-op,4515 Willard Ave Unit 1915S,Chevy Chase,MD,20815,262450,1,1.5,WILLOUGHBY OF CH CH CODM,892,,1968,982,294,620,Sold,,,https://www.redfin.com/MD/Chevy-Chase/4515-Willard-Ave-20815/unit-1915S/home/10693324,BRIGHT MLS,MDMC496388,N,Y,38.9624844,-77.0898117
PAST SALE,April-23-2021,Condo/Co-op,5431 Connecticut Ave NW #2,Washington,DC,20015,395000,2,1.0,CHEVY CHASE,821,,1956,225,481,574,Sold,,,https://www.redfin.com/DC/Washington/5431-Connecticut-Ave-NW-20015/unit-2/home/9970875,BRIGHT MLS,DCDC511354,N,Y,38.9626118,-77.0738273
PAST SALE,May-12-2020,Condo/Co-op,3001 Veazey Ter NW #903,Washington,DC,20008,300000,1,1.0,FOREST HILLS,1050,,1967,571,286,972,Sold,,,https://www.redfin.com/DC/Washington/3001-Veazey-Ter-NW-20008/unit-903/home/21681912,BRIGHT MLS,DCDC457216,N,Y,38.9444006,-77.0616705
PAST SALE,March-27-2020,Condo/Co-op,4025 Connecticut Ave NW #201,Washington,DC,20008,625000,2,2.0,FOREST HILLS,1080,,1999,617,579,570,Sold,,,https://www.redfin.com/DC/Washington/4025-Connecticut-Ave-NW-20008/unit-201/home/10178808,BRIGHT MLS,DCDC457542,N,Y,38.9416108,-77.0616182
PAST SALE,February-28-2020,Condo/Co-op,5500 Friendship Blvd Unit 1809N,Chevy Chase,MD,20815,500000,2,2.0,WILLOUGHBY OF CH CH CODM,1288,,1968,645,388,1089,Sold,,,https://www.redfin.com/MD/Chevy-Chase/5500-Friendship-Blvd-20815/unit-1809N/home/10692076,BRIGHT MLS,MDMC693562,N,Y,38.962996,-77.0899468
PAST SALE,December-2-2019,Condo/Co-op,5101 River Rd #1217,Bethesda,MD,20816,430000,2,2.0,THE KENWOOD,1467,,1969,733,293,1099,Sold,,,https://www.redfin.com/MD/Bethesda/5101-River-Rd-20816/unit-1217/home/10689670,BRIGHT MLS,MDMC680346,N,Y,38.9640697,-77.1013213
PAST SALE,April-15-2020,Condo/Co-op,4740 Connecticut Ave NW #108,Washington,DC,20008,500000,2,2.0,WAKEFIELD,1205,,1956,598,415,857,Sold,,,https://www.redfin.com/DC/Washington/4740-Connecticut-Ave-NW-20008/unit-108/home/9976819,BRIGHT MLS,DCDC459220,N,Y,38.9517732,-77.0685436
PAST SALE,October-11-2019,Condo/Co-op,4820 Chevy Chase Dr Unit B-2,Chevy Chase,MD,20815,540000,4,2.5,CHEVY CHASE PARK CODM,1528,,1947,785,353,626,Sold,,,https://www.redfin.com/MD/Bethesda/4820-Chevy-Chase-Dr-20815/unit-B2/home/10690636,BRIGHT MLS,MDMC665156,N,Y,38.9765632,-77.0955357
PAST SALE,May-17-2019,Condo/Co-op,4600 Connecticut Ave NW #603,Washington,DC,20008,280000,1,1.0,WAKEFIELD,533,136,1948,932,525,464,Sold,,,https://www.redfin.com/DC/Washington/4600-Connecticut-Ave-NW-20008/unit-603/home/10178401,BRIGHT MLS,DCDC403052,N,Y,38.9496102,-77.0668518
PAST SALE,April-23-2021,Single Family Residential,4509 Harrison St NW,Washington,DC,20015,1250000,4,2.0,AMERICAN UNIV. PARK,1800,2848,1936,225,694,,Sold,,,https://www.redfin.com/DC/Washington/4509-Harrison-St-NW-20015/home/9948968,BRIGHT MLS,DCDC514324,N,Y,38.9571767,-77.0890311
PAST SALE,February-17-2021,Single Family Residential,5321 Carvel Rd,Bethesda,MD,20816,1392512,5,3.0,WESTMORELAND HILLS,3062,6619,1938,290,455,,Sold,,,https://www.redfin.com/MD/Bethesda/5321-Carvel-Rd-20816/home/10655544,BRIGHT MLS,MDMC740406,N,Y,38.9503544,-77.107233
PAST SALE,April-6-2021,Townhouse,4837 Willett Pkwy #80,Chevy Chase,MD,20815,652000,2,2.5,KENWOOD FOREST II,981,,1951,242,665,297,Sold,,,https://www.redfin.com/MD/Bethesda/4837-Willett-Pkwy-20815/unit-80/home/10690321,BRIGHT MLS,MDMC745026,N,Y,38.9747522,-77.0993837
PAST SALE,August-7-2020,Condo/Co-op,6689 Fairfax Rd #81,Chevy Chase,MD,20815,699000,3,2.5,KENWOOD FOREST,1154,,1950,484,606,402,Sold,,,https://www.redfin.com/MD/Bethesda/6689-Fairfax-Rd-20815/unit-81/home/10687939,BRIGHT MLS,MDMC712966,N,Y,38.975965,-77.10098
PAST SALE,April-30-2021,Condo/Co-op,4600 Connecticut Ave NW #302,Washington,DC,20008,318000,2,1.0,WAKEFIELD,800,,1948,218,398,667,Sold,,,https://www.redfin.com/DC/Washington/4600-Connecticut-Ave-NW-20008/unit-302/home/9976249,BRIGHT MLS,DCDC504666,N,Y,38.9502608,-77.0674492
PAST SALE,April-24-2020,Single Family Residential,3236 Livingston St NW,Washington,DC,20015,1170000,4,4.0,CHEVY CHASE,2573,4857,1935,589,455,,Sold,,,https://www.redfin.com/DC/Washington/3236-Livingston-St-NW-20015/home/9980706,BRIGHT MLS,DCDC461958,N,Y,38.9629108,-77.0654182
PAST SALE,April-26-2019,Single Family Residential,4411 Davenport St NW,Washington,DC,20016,1150000,4,2.5,AMERICAN UNIVERSITY PARK,2028,7169,1937,953,567,,Sold,,,https://www.redfin.com/DC/Washington/4411-Davenport-St-NW-20016/home/9949310,BRIGHT MLS,DCDC403778,N,Y,38.9523761,-77.0868782
PAST SALE,June-28-2019,Single Family Residential,4406 Fessenden St NW,Washington,DC,20016,891500,3,2.0,AMERICAN UNIVERSITY PARK,1430,4375,1922,890,623,,Sold,,,https://www.redfin.com/DC/Washington/4406-Fessenden-St-NW-20016/home/9949294,BRIGHT MLS,DCDC428422,N,Y,38.9544479,-77.0868824
PAST SALE,October-30-2020,Condo/Co-op,5431 Connecticut Ave NW #204,Washington,DC,20015,425000,2,1.0,CHEVY CHASE,988,,1956,400,430,575,Sold,,,https://www.redfin.com/DC/Washington/5431-Connecticut-Ave-NW-20015/unit-204/home/9970889,BRIGHT MLS,DCDC481542,N,Y,38.9626118,-77.0738273
PAST SALE,December-21-2020,Condo/Co-op,4740 Connecticut Ave NW #617,Washington,DC,20008,335000,1,1.0,WAKEFIELD,743,,1956,348,451,575,Sold,,,https://www.redfin.com/DC/Washington/4740-Connecticut-Ave-NW-20008/unit-617/home/9977012,BRIGHT MLS,DCDC494692,N,Y,38.9517732,-77.0685436
PAST SALE,February-12-2020,Townhouse,3719 Jenifer St NW,Washington,DC,20015,872490,3,2.0,CHEVY CHASE,1488,2621,1939,661,586,,Sold,,,https://www.redfin.com/DC/Washington/3719-Jenifer-St-NW-20015/home/9971261,BRIGHT MLS,DCDC453508,N,Y,38.9592132,-77.0710919
PAST SALE,June-11-2019,Single Family Residential,3710 Harrison St NW,Washington,DC,20015,1288000,4,3.5,CHEVY CHASE,2304,5313,1936,907,559,,Sold,,,https://www.redfin.com/DC/Washington/3710-Harrison-St-NW-20015/home/9971818,BRIGHT MLS,DCDC423782,N,Y,38.9568166,-77.0725682
PAST SALE,October-9-2019,Condo/Co-op,4740 NW Connecticut Ave NW #611,Washington,DC,20008,475000,2,2.0,WAKEFIELD,1128,244,1956,787,421,850,Sold,,,https://www.redfin.com/DC/Washington/4740-Connecticut-Ave-NW-20008/unit-611/home/9976997,BRIGHT MLS,DCDC439322,N,Y,38.9517732,-77.0685436
PAST SALE,December-8-2020,Condo/Co-op,3900 Connecticut Ave NW Unit 303F,Washington,DC,20008,470000,2,1.0,N. CLEVELAND PARK,1100,,1928,361,427,1059,Sold,,,https://www.redfin.com/DC/Washington/3900-Connecticut-Ave-NW-20008/unit-303F/home/21963524,BRIGHT MLS,DCDC489368,N,Y,38.9397456,-77.0614383
PAST SALE,July-1-2021,Condo/Co-op,4620 N Park Ave Unit 701E,Chevy Chase,MD,20815,295000,1,1.0,4620 NORTH PARK AVE,799,,1973,156,369,749,Sold,,,https://www.redfin.com/MD/Chevy-Chase/4620-N-Park-Ave-20815/unit-701E/home/10682927,BRIGHT MLS,MDMC756908,N,Y,38.9631178,-77.0924646
PAST SALE,July-20-2021,Condo/Co-op,3930 Connecticut Ave NW Unit 302-H,Washington,DC,20008,590000,2,2.0,N. CLEVELAND PARK,1450,,1928,137,407,1400,Sold,,,https://www.redfin.com/DC/Washington/3930-Connecticut-Ave-NW-20008/unit-302-H/home/143365079,BRIGHT MLS,DCDC519948,N,Y,38.9403922,-77.0617825
PAST SALE,January-7-2020,Condo/Co-op,4620 N Park Ave Unit 909E,Chevy Chase,MD,20815,507500,2,2.0,4620 NORTH PARK AVE,1373,,1973,697,370,1200,Sold,,,https://www.redfin.com/MD/Chevy-Chase/4620-N-Park-Ave-20815/unit-909E/home/167405376,BRIGHT MLS,MDMC669666,N,Y,38.9630812,-77.0926644
PAST SALE,January-10-2020,Single Family Residential,3812 Brandywine St NW,Washington,DC,20016,1000000,3,2.0,WAKEFIELD,1958,3387,1890,694,511,,Sold,,,https://www.redfin.com/DC/Washington/3812-Brandywine-St-NW-20016/home/9968947,BRIGHT MLS,DCDC447740,N,Y,38.9494947,-77.0752214
PAST SALE,September-11-2020,Single Family Residential,4815 47th St NW,Washington,DC,20016,1035000,3,2.0,AMERICAN UNIV. PARK,1884,4000,1932,449,549,,Sold,,,https://www.redfin.com/DC/Washington/4815-47th-St-NW-20016/home/9947760,BRIGHT MLS,DCDC479324,N,Y,38.9526988,-77.0923522
PAST SALE,July-1-2020,Condo/Co-op,4601 N Park Ave Unit 1217S,Chevy Chase,MD,20815,485000,2,2.0,THE ELIZABETH,1353,,1975,521,358,1397,Sold,,,https://www.redfin.com/MD/Chevy-Chase/4601-N-Park-Ave-20815/unit-1217S/home/10684673,BRIGHT MLS,MDMC711214,N,Y,38.963879,-77.0913855
PAST SALE,August-25-2020,Condo/Co-op,4701 Connecticut Ave NW Unit LL5,Washington,DC,20008,575000,2,1.5,FOREST HILLS,1161,,1977,466,495,781,Sold,,,https://www.redfin.com/DC/Washington/4701-Connecticut-Ave-NW-20008/unit-LL5/home/9981463,BRIGHT MLS,DCDC480162,N,Y,38.9510218,-77.0671038
PAST SALE,October-7-2019,Single Family Residential,3820 Military Rd NW,Washington,DC,20015,1060000,5,4.0,CHEVY CHASE,2597,4825,1925,789,408,,Sold,,,https://www.redfin.com/DC/Washington/3820-Military-Rd-NW-20015/home/9969325,BRIGHT MLS,DCDC441622,N,Y,38.9607946,-77.07693
PAST SALE,February-24-2020,Single Family Residential,4420 Faraday Pl NW,Washington,DC,20016,1006650,4,2.0,AMERICAN UNIV. PARK,1818,2850,1939,649,554,,Sold,,,https://www.redfin.com/DC/Washington/4420-Faraday-Pl-NW-20016/home/9949216,BRIGHT MLS,DCDC457200,N,Y,38.9551977,-77.0870985
PAST SALE,September-1-2020,Condo/Co-op,3821 39th St NW Unit B92,Washington,DC,20016,623000,2,2.5,CLEVELAND PARK,1322,,1942,459,471,742,Sold,,,https://www.redfin.com/DC/Washington/3821-39th-St-NW-20016/unit-B92/home/9968436,BRIGHT MLS,DCDC479098,N,Y,38.9390428,-77.0778755
PAST SALE,May-26-2021,Condo/Co-op,3831 Rodman St NW Unit F30,Washington,DC,20016,512500,2,1.0,CLEVELAND PARK,1001,,1942,192,512,533,Sold,,,https://www.redfin.com/DC/Washington/3831-Rodman-St-NW-20016/unit-F30/home/9968363,BRIGHT MLS,DCDC519292,N,Y,38.9393627,-77.0761883
PAST SALE,March-17-2020,Single Family Residential,5015 Warren St NW,Washington,DC,20016,1600000,6,6.5,SPRING VALLEY,6410,11816,1993,627,250,133,Sold,,,https://www.redfin.com/DC/Washington/5015-Warren-St-NW-20016/home/9945240,BRIGHT MLS,DCDC449438,N,Y,38.9440218,-77.1002873
PAST SALE,August-27-2020,Condo/Co-op,5301 Westbard Cir #318,Bethesda,MD,20816,390000,2,2.0,KENWOOD PLACE CODM,1326,,1960,464,294,804,Sold,,,https://www.redfin.com/MD/Bethesda/5301-Westbard-Cir-20816/unit-318/home/10691210,BRIGHT MLS,MDMC711930,N,Y,38.9638326,-77.1092334
PAST SALE,February-7-2020,Townhouse,4418 Harrison St NW,Washington,DC,20015,880000,3,3.0,AMERICAN UNIV. PARK,1696,4239,1927,666,519,,Sold,,,https://www.redfin.com/DC/Washington/4418-Harrison-St-NW-20015/home/9949100,BRIGHT MLS,DCDC454786,N,Y,38.9568807,-77.0874965
PAST SALE,July-30-2020,Single Family Residential,3920 Ingomar St NW,Washington,DC,20015,1400000,4,3.5,CHEVY CHASE,2867,5140,1923,492,488,,Sold,,,https://www.redfin.com/DC/Washington/3920-Ingomar-St-NW-20015/home/9962463,BRIGHT MLS,DCDC473704,N,Y,38.9581599,-77.0795379
PAST SALE,October-22-2021,Townhouse,3717 Jenifer St NW,Washington,DC,20015,935000,4,2.0,CHEVY CHASE,1624,1480,1939,43,576,,Sold,,,https://www.redfin.com/DC/Washington/3717-Jenifer-St-NW-20015/home/9971255,BRIGHT MLS,DCDC2013448,N,Y,38.959247,-77.0710285
PAST SALE,June-18-2021,Condo/Co-op,4800 Chevy Chase Dr #201,Chevy Chase,MD,20815,500000,3,2.0,BRADLEY HOUSE,1471,,1962,169,340,981,Sold,,,https://www.redfin.com/MD/Bethesda/4800-Chevy-Chase-Dr-20815/unit-201/home/10687532,BRIGHT MLS,MDMC747604,N,Y,38.976681,-77.0947125
PAST SALE,July-6-2020,Townhouse,4204 River Rd NW,Washington,DC,20016,1220000,4,3.5,AMERICAN UNIV. PARK,2592,1909,1971,516,471,,Sold,,,https://www.redfin.com/DC/Washington/4204-River-Rd-NW-20016/home/9957730,BRIGHT MLS,DCDC463704,N,Y,38.9499683,-77.0823641
PAST SALE,June-25-2021,Single Family Residential,6443 Western Ave NW,Washington,DC,20015,1075000,5,4.5,CHEVY CHASE,3404,9000,1935,162,316,,Sold,,,https://www.redfin.com/DC/Washington/6443-Western-Ave-NW-20015/home/9979217,BRIGHT MLS,DCDC521590,N,Y,38.9750014,-77.0668671
PAST SALE,December-27-2019,Townhouse,5245 Nebraska Ave NW,Washington,DC,20015,850000,5,3.5,CHEVY CHASE,1842,3915,1940,708,461,,Sold,,,https://www.redfin.com/DC/Washington/5245-Nebraska-Ave-NW-20015/home/9977730,BRIGHT MLS,DCDC441632,N,Y,38.9582467,-77.068161
PAST SALE,March-13-2019,Townhouse,5128 Willet Bridge Rd,Bethesda,MD,20816,1305000,3,3.0,LITTLE FALLS PLACE,2644,1666,2013,997,494,262,Sold,,,https://www.redfin.com/MD/Bethesda/5128-Willet-Bridge-Rd-20816/home/64364408,BRIGHT MLS,MDMC122784,N,Y,38.9610002,-77.1041743
PAST SALE,May-31-2019,Single Family Residential,5600 Western Ave,Chevy Chase,MD,20815,1600000,5,4.5,CHEVY CHASE SEC 1,4800,9850,1928,918,333,,Sold,,,https://www.redfin.com/MD/Chevy-Chase/5600-Western-Ave-20815/home/10640590,BRIGHT MLS,MDMC487982,N,Y,38.96533,-77.080509
PAST SALE,December-16-2020,Condo/Co-op,5500 Friendship Blvd Unit 812N,Chevy Chase,MD,20815,254000,0,1.0,WILLOUGHBY OF CH CH CODM,551,,1968,353,461,447,Sold,,,https://www.redfin.com/MD/Chevy-Chase/5500-Friendship-Blvd-20815/unit-812N/home/10692156,BRIGHT MLS,MDMC728468,N,Y,38.962996,-77.0899468
PAST SALE,February-5-2021,Condo/Co-op,3879 Rodman St NW Unit D64,Washington,DC,20016,364000,1,1.0,CLEVELAND PARK,707,,1942,302,515,376,Sold,,,https://www.redfin.com/DC/Washington/3879-Rodman-St-NW-20016/unit-D64/home/9968380,BRIGHT MLS,DCDC502894,N,Y,38.939151,-77.0774501
PAST SALE,May-21-2021,Single Family Residential,5615 Warwick Pl,Chevy Chase,MD,20815,1925000,5,5.0,SOMERSET HEIGHTS,3488,8750,1956,197,552,,Sold,,,https://www.redfin.com/MD/Chevy-Chase/5615-Warwick-Pl-20815/home/10653467,BRIGHT MLS,MDMC750212,N,Y,38.9664062,-77.0931839
PAST SALE,May-13-2021,Single Family Residential,5600 Namakagan Rd,Bethesda,MD,20816,2220000,5,4.5,MASS AVE HILLS,6820,10058,2017,205,326,,Sold,,,https://www.redfin.com/MD/Bethesda/5600-Namakagan-Rd-20816/home/10667413,BRIGHT MLS,MDMC744920,N,Y,38.9582547,-77.1127847
PAST SALE,July-9-2019,Townhouse,6736 Kenwood Forest Ln #19,Chevy Chase,MD,20815,820000,3,2.5,KENWOOD FOREST,1664,3148,1950,879,493,428,Sold,,,https://www.redfin.com/MD/Bethesda/6736-Kenwood-Forest-Ln-20815/unit-19/home/10687605,BRIGHT MLS,MDMC624698,N,Y,38.9768101,-77.1002779
PAST SALE,June-15-2021,Condo/Co-op,4620 N Park Ave Unit 1102W,Chevy Chase,MD,20815,619000,2,2.0,4620 NORTH PARK AVE,1419,,1973,172,436,1264,Sold,,,https://www.redfin.com/MD/Chevy-Chase/4620-N-Park-Ave-20815/unit-1102W/home/10683289,BRIGHT MLS,MDMC753224,N,Y,38.9631178,-77.0924646
PAST SALE,October-29-2019,Condo/Co-op,5431 Connecticut Ave NW #203,Washington,DC,20015,410000,2,1.0,CHEVY CHASE,842,604,1956,767,487,531,Sold,,,https://www.redfin.com/DC/Washington/5431-Connecticut-Ave-NW-20015/unit-203/home/9970886,BRIGHT MLS,DCDC443970,N,Y,38.9626118,-77.0738273
PAST SALE,December-6-2018,Condo/Co-op,5410 Connecticut Ave NW #904,Washington,DC,20015,284000,1,1.0,CHEVY CHASE,792,,1957,1094,359,622,Sold,,,https://www.redfin.com/DC/Washington/5410-Connecticut-Ave-NW-20015/unit-904/home/9969801,BRIGHT MLS,1001645052,N,Y,38.9619842,-77.0740567
PAST SALE,September-18-2020,Single Family Residential,5105 Yuma St NW,Washington,DC,20016,1750000,5,4.5,SPRING VALLEY,4048,7506,1986,442,432,123,Sold,,,https://www.redfin.com/DC/Washington/5105-Yuma-St-NW-20016/home/9945029,BRIGHT MLS,DCDC479546,N,Y,38.946802563,-77.09973474
MLS Listing,,Single Family Residential,5520 30th St NW,Washington,DC,20015,1295000,5,3.5,CHEVY CHASE,3700,5670,1936,1,350,,Active,December-5-2021 01:00 PM,December-5-2021 03:00 PM,https://www.redfin.com/DC/Washington/5520-30th-St-NW-20015/home/9993114,BRIGHT MLS,DCDC2020208,N,Y,38.9640651,-77.0614158
MLS Listing,,Condo/Co-op,4444 Connecticut Ave NW #701,Washington,DC,20008,510000,2,1.0,N. CLEVELAND PARK,874,,1924,1,584,441,Active,December-5-2021 02:00 PM,December-5-2021 04:00 PM,https://www.redfin.com/DC/Washington/4444-Connecticut-Ave-NW-20008/unit-701/home/9975869,BRIGHT MLS,DCDC2022696,N,Y,38.9476304,-77.0659354
MLS Listing,,Condo/Co-op,5410 Connecticut Ave NW #208,Washington,DC,20015,198000,1,1.0,CHEVY CHASE,504,,1957,1,393,465,Active,,,https://www.redfin.com/DC/Washington/5410-Connecticut-Ave-NW-20015/unit-208/home/9969504,BRIGHT MLS,DCDC2023478,N,Y,38.9618075,-77.0743918
MLS Listing,,Condo/Co-op,4740 Connecticut Ave NW #413,Washington,DC,20008,459000,2,1.0,WAKEFIELD,1149,,,1,399,839,Active,,,https://www.redfin.com/DC/Washington/4740-Connecticut-Ave-NW-20008/unit-413/home/9976926,BRIGHT MLS,DCDC2023404,N,Y,38.9517732,-77.0685436
MLS Listing,,Condo/Co-op,4601 N Park Ave #1518,Chevy Chase,MD,20815,475000,2,2.0,THE ELIZABETH,1239,,1975,1,383,1492,Active,December-5-2021 01:00 PM,December-5-2021 03:00 PM,https://www.redfin.com/MD/Chevy-Chase/4601-N-Park-Ave-20815/unit-1518/home/10684747,BRIGHT MLS,MDMC2025032,N,Y,38.963879,-77.0913855
MLS Listing,,Single Family Residential,4523 Harrison St NW,Washington,DC,20015,850000,2,1.5,AMERICAN UNIV. PARK,1410,3560,1938,2,603,,Active,December-5-2021 02:00 PM,December-5-2021 04:00 PM,https://www.redfin.com/DC/Washington/4523-Harrison-St-NW-20015/home/9948958,BRIGHT MLS,DCDC2023250,N,Y,38.9572321,-77.0895257
MLS Listing,,Condo/Co-op,3831 Rodman St NW Unit E29,Washington,DC,20016,559000,2,1.0,CLEVELAND PARK,1150,,1942,2,486,588,Active,December-5-2021 01:00 PM,December-5-2021 03:00 PM,https://www.redfin.com/DC/Washington/3831-Rodman-St-NW-20016/unit-E29/home/9968361,BRIGHT MLS,DCDC2022500,N,Y,38.9393627,-77.0761883
MLS Listing,,Single Family Residential,4907 Upton St NW,Washington,DC,20016,1800000,4,4.0,SPRING VALLEY,3610,6685,1934,3,499,,Active,December-5-2021 02:00 PM,December-5-2021 04:00 PM,https://www.redfin.com/DC/Washington/4907-Upton-St-NW-20016/home/9945607,BRIGHT MLS,DCDC2022268,N,Y,38.9424586,-77.0972527
MLS Listing,,Single Family Residential,5707 Ogden Rd,Bethesda,MD,20816,1030000,3,2.0,SPRINGFIELD,1927,10120,1954,3,535,,Active,December-5-2021 01:00 PM,December-5-2021 04:00 PM,https://www.redfin.com/MD/Bethesda/5707-Ogden-Rd-20816/home/10666024,BRIGHT MLS,MDMC2020762,N,Y,38.9676868,-77.1151896
MLS Listing,,Townhouse,4222 37th St NW,Washington,DC,20008,1625000,3,3.5,N. CLEVELAND PARK,3482,3745,1929,3,467,,Active,December-5-2021 01:00 PM,December-5-2021 03:00 PM,https://www.redfin.com/DC/Washington/4222-37th-St-NW-20008/home/9972636,BRIGHT MLS,DCDC2022490,N,Y,38.9444302,-77.0726819
MLS Listing,,Single Family Residential,4244 Alton Pl NW,Washington,DC,20016,2900000,7,4.5,AMERICAN UNIV. PARK,4500,5294,1941,4,644,,Active,,,https://www.redfin.com/DC/Washington/4244-Alton-Pl-NW-20016/home/9957858,BRIGHT MLS,DCDC2022870,N,Y,38.9469235,-77.0833574
MLS Listing,,Condo/Co-op,4601 N Park Ave Unit 418-T,Chevy Chase,MD,20815,440000,2,2.0,THE ELIZABETH,1239,,1975,5,355,1259,Active,,,https://www.redfin.com/MD/Chevy-Chase/4601-N-Park-Ave-20815/unit-418-T/home/10684394,BRIGHT MLS,MDMC2024558,N,Y,38.963879,-77.0913855
MLS Listing,,Single Family Residential,4319 Murdock Mill Rd NW,Washington,DC,20016,2545000,6,5.0,AMERICAN UNIV. PARK,3545,5308,1945,10,718,,Active,,,https://www.redfin.com/DC/Washington/4319-Murdock-Mill-Rd-NW-20016/home/9956776,BRIGHT MLS,DCDC2021994,N,Y,38.9483385,-77.0853277
MLS Listing,,Condo/Co-op,4620 N Park Ave Unit 903E,Chevy Chase,MD,20815,400000,1,1.0,4620 NORTH PARK AVE,799,,1973,11,501,805,Active,,,https://www.redfin.com/MD/Chevy-Chase/4620-N-Park-Ave-20815/unit-903E/home/10682977,BRIGHT MLS,MDMC2022976,N,Y,38.9631178,-77.0924646
MLS Listing,,Condo/Co-op,5500 Friendship Blvd Unit 901N,Chevy Chase,MD,20815,229000,0,1.0,WILLOUGHBY OF CH CH CODM,495,,1968,11,463,389,Active,,,https://www.redfin.com/MD/Chevy-Chase/5500-Friendship-Blvd-20815/unit-901N/home/10691845,BRIGHT MLS,MDMC2024162,N,Y,38.962996,-77.0899468
MLS Listing,,Condo/Co-op,5500 Friendship Blvd Unit 2227N,Chevy Chase,MD,20815,359000,1,1.0,WILLOUGHBY OF CH CH CODM,879,,1968,11,408,677,Active,,,https://www.redfin.com/MD/Chevy-Chase/5500-Friendship-Blvd-20815/unit-2227N/home/10692714,BRIGHT MLS,MDMC2024124,N,Y,38.962996,-77.0899468
MLS Listing,,Single Family Residential,4700 Bayard Blvd,Bethesda,MD,20816,749500,3,2.0,CRESTVIEW,1132,2820,1923,14,662,,Active,,,https://www.redfin.com/MD/Bethesda/4700-Bayard-Blvd-20816/home/10644775,BRIGHT MLS,MDMC2023432,N,Y,38.9523463,-77.0992308
MLS Listing,,Condo/Co-op,4600 Connecticut Ave NW #208,Washington,DC,20008,515000,2,2.0,WAKEFIELD,1200,,1957,15,429,870,Active,December-5-2021 12:00 PM,December-5-2021 02:00 PM,https://www.redfin.com/DC/Washington/4600-Connecticut-Ave-NW-20008/unit-208/home/9976196,BRIGHT MLS,DCDC2021036,N,Y,38.9502608,-77.0674492
MLS Listing,,Condo/Co-op,4620 N Park Ave Unit 305W,Chevy Chase,MD,20815,485000,2,1.5,4620 NORTH PARK AVE,1120,,1973,16,433,912,Active,,,https://www.redfin.com/MD/Chevy-Chase/4620-N-Park-Ave-20815/unit-305W/home/10683180,BRIGHT MLS,MDMC2023258,N,Y,38.9631178,-77.0924646
MLS Listing,,Condo/Co-op,5630 Wisconsin Ave #703,Chevy Chase,MD,20815,2700000,3,3.0,PARC SOMERSET CODM,2498,,1999,16,1081,2553,Active,,,https://www.redfin.com/MD/Chevy-Chase/5630-Wisconsin-Ave-20815/unit-703/home/10702090,BRIGHT MLS,MDMC2023112,N,Y,38.9658033,-77.0906662
MLS Listing,,Condo/Co-op,5500 Friendship Blvd Unit 2102N,Chevy Chase,MD,20815,215000,0,1.0,WILLOUGHBY OF CH CH CODM,454,,1968,24,474,436,Active,,,https://www.redfin.com/MD/Chevy-Chase/5500-Friendship-Blvd-20815/unit-2102N/home/10691893,BRIGHT MLS,MDMC2021338,N,Y,38.962996,-77.0899468
MLS Listing,,Condo/Co-op,4515 Willard Ave Unit 2209S,Chevy Chase,MD,20815,699500,3,2.0,WILLOUGHBY OF CH CH CODM,1586,,1968,24,441,1390,Active,December-5-2021 02:00 PM,December-5-2021 04:00 PM,https://www.redfin.com/MD/Chevy-Chase/4515-Willard-Ave-20815/unit-2209S/home/10693105,BRIGHT MLS,MDMC2021376,N,Y,38.9624844,-77.0898117
MLS Listing,,Condo/Co-op,4515 Willard Ave Unit 1515S,Chevy Chase,MD,20815,305000,1,1.5,WILLOUGHBY OF CH CH CODM,892,,1968,27,342,688,Active,,,https://www.redfin.com/MD/Chevy-Chase/4515-Willard-Ave-20815/unit-1515S/home/10693315,BRIGHT MLS,MDMC2022420,N,Y,38.9624844,-77.0898117
MLS Listing,,Condo/Co-op,5101 River Rd #711,Bethesda,MD,20816,267000,1,1.0,THE KENWOOD,1017,,1969,28,263,796,Active,,,https://www.redfin.com/MD/Bethesda/5101-River-Rd-20816/unit-711/home/10689474,BRIGHT MLS,MDMC2022388,N,Y,38.9640697,-77.1013213
MLS Listing,,Condo/Co-op,5500 Friendship Blvd Unit 1412N,Chevy Chase,MD,20815,244000,0,1.0,WILLOUGHBY OF CH CH CODM,551,,1968,29,443,467,Active,December-5-2021 02:00 PM,December-5-2021 04:00 PM,https://www.redfin.com/MD/Chevy-Chase/5500-Friendship-Blvd-20815/unit-1412N/home/10692170,BRIGHT MLS,MDMC2022202,N,Y,38.962996,-77.0899468
MLS Listing,,Townhouse,4915 42nd St NW,Washington,DC,20016,1095000,4,3.5,CHEVY CHASE,1918,2833,1939,29,571,,Active,,,https://www.redfin.com/DC/Washington/4915-42nd-St-NW-20016/home/9961218,BRIGHT MLS,DCDC2020082,N,Y,38.9540864,-77.0818062
MLS Listing,,Single Family Residential,5303 Elliott Rd,Bethesda,MD,20816,1999000,6,5.5,WESTMORELAND HILLS,3252,6305,1955,31,615,,Active,,,https://www.redfin.com/MD/Bethesda/5303-Elliott-Rd-20816/home/10654978,BRIGHT MLS,MDMC2019792,N,Y,38.9516528,-77.1070082
MLS Listing,,Condo/Co-op,4620 N Park Ave Unit 1508W,Chevy Chase,MD,20815,438000,2,1.5,4620 NORTH PARK AVE,1003,,1973,36,437,1091,Active,,,https://www.redfin.com/MD/Chevy-Chase/4620-N-Park-Ave-20815/unit-1508W/home/10683336,BRIGHT MLS,MDMC2021330,N,Y,38.9631178,-77.0924646
MLS Listing,,Condo/Co-op,3001 Veazey Ter NW #805,Washington,DC,20008,297500,1,1.0,FOREST HILLS,1000,,1967,37,298,832,Active,,,https://www.redfin.com/DC/Washington/3001-Veazey-Ter-NW-20008/unit-805/home/143492861,BRIGHT MLS,DCDC2018842,N,Y,38.9444006,-77.0616705
MLS Listing,,Condo/Co-op,4620 N Park Ave Unit 201E,Chevy Chase,MD,20815,329000,1,1.0,4620 NORTH PARK AVE,799,,1973,38,412,694,Active,,,https://www.redfin.com/MD/Chevy-Chase/4620-N-Park-Ave-20815/unit-201E/home/10682803,BRIGHT MLS,MDMC2020850,N,Y,38.9631178,-77.0924646
MLS Listing,,Condo/Co-op,4600 Connecticut Ave NW #102,Washington,DC,20008,280000,1,1.0,WAKEFIELD,800,,1948,39,350,667,Active,,,https://www.redfin.com/DC/Washington/4600-Connecticut-Ave-NW-20008/unit-102/home/9976158,BRIGHT MLS,DCDC2018746,N,Y,38.9502608,-77.0674492
MLS Listing,,Condo/Co-op,5500 Friendship Blvd Unit 920N,Chevy Chase,MD,20815,190000,0,1.0,WILLOUGHBY OF CH CH CODM,495,,1968,40,384,389,Active,,,https://www.redfin.com/MD/Chevy-Chase/5500-Friendship-Blvd-20815/unit-920N/home/10692383,BRIGHT MLS,MDMC2020414,N,Y,38.962996,-77.0899468
MLS Listing,,Single Family Residential,4924 30th Pl NW,Washington,DC,20008,3900000,5,7.5,FOREST HILLS,7049,10330,1940,43,553,,Active,,,https://www.redfin.com/DC/Washington/4924-30th-Pl-NW-20008/home/9992434,BRIGHT MLS,DCDC2017494,N,Y,38.9543044,-77.0624236
MLS Listing,,Single Family Residential,6702 Brookville Rd,Chevy Chase,MD,20815,2500000,6,6.0,CHEVY CHASE,5026,5300,2021,43,497,,Active,,,https://www.redfin.com/MD/Martin-s-Additions/6702-Brookville-Rd-20815/home/176875822,BRIGHT MLS,MDMC2020438,N,Y,38.9771617,-77.0717586
MLS Listing,,Condo/Co-op,3802 Rodman St NW #302,Washington,DC,20016,389000,1,1.5,CLEVELAND PARK,735,,1985,43,529,437,Active,,,https://www.redfin.com/DC/Washington/3802-Rodman-St-NW-20016/unit-302/home/143385695,BRIGHT MLS,DCDC2018244,N,Y,38.9392925,-77.0753355
MLS Listing,,Single Family Residential,5108 Warren Pl NW,Washington,DC,20016,1825000,5,4.5,SPRING VALLEY,5045,9308,1997,43,362,123,Active,,,https://www.redfin.com/DC/Washington/5108-Warren-Pl-NW-20016/home/9945189,BRIGHT MLS,DCDC2018080,N,Y,38.9451023,-77.1004447
MLS Listing,,Condo/Co-op,4740 Connecticut Ave NW #208,Washington,DC,20008,465000,2,2.0,WAKEFIELD,1152,,1956,44,404,883,Active,,,https://www.redfin.com/DC/Washington/4740-Connecticut-Ave-NW-20008/unit-208/home/9976847,BRIGHT MLS,DCDC2017560,N,Y,38.9517732,-77.0685436
MLS Listing,,Condo/Co-op,3001 Veazey Ter NW #101,Washington,DC,20008,239000,0,1.0,FOREST HILLS,860,,1967,44,278,736,Active,,,https://www.redfin.com/DC/Washington/3001-Veazey-Ter-NW-20008/unit-101/home/176853727,BRIGHT MLS,DCDC2017358,N,Y,38.9449005,-77.0620269
MLS Listing,,Condo/Co-op,4301 Military Rd NW #412,Washington,DC,20015,1250000,2,2.0,CHEVY CHASE,1565,,2007,44,799,1363,Active,,,https://www.redfin.com/DC/Washington/4301-Military-Rd-NW-20015/unit-412/home/12531406,BRIGHT MLS,DCDC2017956,N,Y,38.9614788,-77.0842816
MLS Listing,,Condo/Co-op,5500 Friendship Blvd Unit 2002N,Chevy Chase,MD,20815,230000,0,1.0,WILLOUGHBY OF CH CH CODM,454,,1982,46,507,390,Active,,,https://www.redfin.com/MD/Chevy-Chase/5500-Friendship-Blvd-20815/unit-2002N/home/10691891,BRIGHT MLS,MDMC2019898,N,Y,38.962996,-77.0899468
MLS Listing,,Single Family Residential,6118 30th St NW,Washington,DC,20015,3100000,4,3.0,CHEVY CHASE,1775,10111,1936,47,1746,,Active,,,https://www.redfin.com/DC/Washington/6118-30th-St-NW-20015/home/9994653,BRIGHT MLS,DCDC2017484,N,Y,38.970485,-77.0614608
MLS Listing,,Condo/Co-op,4620 N Park Ave Unit 1601E,Chevy Chase,MD,20815,265000,1,1.0,4620 NORTH PARK AVE,799,,1973,50,332,760,Active,,,https://www.redfin.com/MD/Chevy-Chase/4620-N-Park-Ave-20815/unit-1601E/home/10683104,BRIGHT MLS,MDMC2000641,N,Y,38.9631178,-77.0924646
MLS Listing,,Condo/Co-op,3001 Veazey Ter NW #533,Washington,DC,20008,587000,2,2.0,FOREST HILLS,1385,,1967,57,424,1205,Active,,,https://www.redfin.com/DC/Washington/3001-Veazey-Ter-NW-20008/unit-533/home/176686670,BRIGHT MLS,DCDC2000817,N,Y,38.9449005,-77.0620269
MLS Listing,,Condo/Co-op,4620 N Park Ave Unit 609E,Chevy Chase,MD,20815,799000,2,2.0,4620 NORTH PARK AVE,1373,,1973,59,582,1197,Active,,,https://www.redfin.com/MD/Chevy-Chase/4620-N-Park-Ave-20815/unit-609E/home/10682921,BRIGHT MLS,MDMC2000347,N,Y,38.9631178,-77.0924646
MLS Listing,,Condo/Co-op,5101 River Rd #515,Bethesda,MD,20816,420000,2,2.0,KENWOOD,1336,,1969,59,314,1006,Active,,,https://www.redfin.com/MD/Bethesda/5101-River-Rd-20816/unit-515/home/10689598,BRIGHT MLS,MDMC2000115,N,Y,38.9640697,-77.1013213
MLS Listing,,Condo/Co-op,5500 Friendship Blvd Unit 1520N,Chevy Chase,MD,20815,229000,0,1.0,WILLOUGHBY OF CH CH CODM,500,,1969,63,458,443,Active,,,https://www.redfin.com/MD/Chevy-Chase/5500-Friendship-Blvd-20815/unit-1520N/home/10692391,BRIGHT MLS,MDMC2019078,N,Y,38.962996,-77.0899468
MLS Listing,,Condo/Co-op,4101 Albemarle St NW #331,Washington,DC,20016,399950,0,1.0,AMERICAN UNIV. PARK,675,,2005,64,593,237,Active,,,https://www.redfin.com/DC/Washington/4101-Albemarle-St-NW-20016/unit-331/home/10348971,BRIGHT MLS,DCDC2016756,N,Y,38.9487791,-77.0808194
MLS Listing,,Condo/Co-op,5500 Friendship Blvd Unit 2310N,Chevy Chase,MD,20815,399000,2,1.0,WILLOUGHBY OF CH CH CODM,1153,,1968,64,346,1001,Active,,,https://www.redfin.com/MD/Chevy-Chase/5500-Friendship-Blvd-20815/unit-2310N/home/10692126,BRIGHT MLS,MDMC2018624,N,Y,38.962996,-77.0899468
MLS Listing,,Condo/Co-op,5101 Connecticut Ave NW #3,Washington,DC,20008,499900,1,1.0,CHEVY CHASE,722,,2021,64,692,105,Active,,,https://www.redfin.com/DC/Washington/5101-Connecticut-Ave-NW-20008/unit-3/home/176584313,BRIGHT MLS,DCDC2001618,N,Y,38.956619,-77.0704848
MLS Listing,,Single Family Residential,8 Grafton St,Chevy Chase,MD,20815,3295000,6,3.5,CHEVY CHASE SEC 2,4537,12500,1903,66,726,,Active,,,https://www.redfin.com/MD/Chevy-Chase/8-Grafton-St-20815/home/10641061,BRIGHT MLS,MDMC2016856,N,Y,38.9673093,-77.0790658
MLS Listing,,Condo/Co-op,5500 Friendship Blvd Unit 1903N,Chevy Chase,MD,20815,529900,2,2.0,WILLOUGHBY OF CH CH CODM,1300,,1982,71,408,1078,Active,,,https://www.redfin.com/MD/Chevy-Chase/5500-Friendship-Blvd-20815/unit-1903N/home/143648960,BRIGHT MLS,MDMC2017384,N,Y,38.9631191,-77.089318
MLS Listing,,Condo/Co-op,3900 Connecticut Ave NW Unit 104-G,Washington,DC,20008,299900,1,1.0,NORTH CLEVELAND PARK,800,,1928,72,375,698,Active,,,https://www.redfin.com/DC/Washington/3900-Connecticut-Ave-NW-20008/unit-104-G/home/176512083,BRIGHT MLS,DCDC2014920,N,Y,38.9397456,-77.0614383
MLS Listing,,Condo/Co-op,3863 Rodman St NW Unit D52,Washington,DC,20016,229500,0,1.0,CLEVELAND PARK,506,,1942,73,454,363,Active,,,https://www.redfin.com/DC/Washington/3863-Rodman-St-NW-20016/unit-D52/home/9968496,BRIGHT MLS,DCDC2011316,N,Y,38.9395446,-77.0768139
MLS Listing,,Condo/Co-op,4515 Willard Ave Unit 2219S,Chevy Chase,MD,20815,299900,1,1.0,WILLOUGHBY OF CH CH CODM,869,,1968,76,345,736,Active,,,https://www.redfin.com/MD/Chevy-Chase/4515-Willard-Ave-20815/unit-2219S/home/10693473,BRIGHT MLS,MDMC2017038,N,Y,38.9624844,-77.0898117
MLS Listing,,Condo/Co-op,4620 N Park Ave Unit 310E,Chevy Chase,MD,20815,369900,1,1.0,4620 NORTH PARK AVE,845,,1973,78,438,738,Active,,,https://www.redfin.com/MD/Chevy-Chase/4620-N-Park-Ave-20815/unit-310E/home/10682842,BRIGHT MLS,MDMC2016954,N,Y,38.9631178,-77.0924646
MLS Listing,,Condo/Co-op,5101 Connecticut Ave NW #2,Washington,DC,20008,525000,1,1.0,CHEVY CHASE,820,,2021,78,640,120,Active,,,https://www.redfin.com/DC/Washington/5101-Connecticut-Ave-NW-20008/unit-2/home/175579577,BRIGHT MLS,DCDC2014484,N,Y,38.956619,-77.0704848
MLS Listing,,Condo/Co-op,5101 Connecticut Ave NW #4,Washington,DC,20008,549900,1,1.0,CHEVY CHASE,820,,2021,78,671,120,Active,,,https://www.redfin.com/DC/Washington/5101-Connecticut-Ave-NW-20008/unit-4/home/175579583,BRIGHT MLS,DCDC2014476,N,Y,38.956619,-77.0704848
MLS Listing,,Condo/Co-op,3900 Connecticut Ave NW Unit 105-F,Washington,DC,20008,309000,1,1.0,N. CLEVELAND PARK,760,,1928,78,407,654,Active,December-5-2021 02:00 PM,December-5-2021 04:00 PM,https://www.redfin.com/DC/Washington/3900-Connecticut-Ave-NW-20008/unit-105F/home/40421639,BRIGHT MLS,DCDC2014430,N,Y,38.9397456,-77.0614383
MLS Listing,,Single Family Residential,4913 Upton St NW,Washington,DC,20016,4195000,6,7.0,SPRING VALLEY,7407,7268,2022,80,566,,Active,,,https://www.redfin.com/DC/Washington/4913-Upton-St-NW-20016/home/9945610,BRIGHT MLS,DCDC2013542,N,Y,38.9424386,-77.0974325
MLS Listing,,Single Family Residential,6422 Garnett Dr,Chevy Chase,MD,20815,6195000,7,8.0,KENWOOD,11575,15707,1957,81,535,,Active,,,https://www.redfin.com/MD/Chevy-Chase/6422-Garnett-Dr-20815/home/10650208,BRIGHT MLS,MDMC2015514,N,Y,38.9733817,-77.1117957
MLS Listing,,Condo/Co-op,4515 Willard Ave Unit 1014S,Chevy Chase,MD,20815,314900,1,1.0,WILLOUGHBY OF CH CH CODM,883,,1968,85,357,648,Active,,,https://www.redfin.com/MD/Chevy-Chase/4515-Willard-Ave-20815/unit-1014S/home/10693244,BRIGHT MLS,MDMC2015646,N,Y,38.9624844,-77.0898117
MLS Listing,,Condo/Co-op,4700 Connecticut Ave NW #203,Washington,DC,20008,899500,3,2.0,WAKEFIELD,1957,,1928,87,460,1541,Active,,,https://www.redfin.com/DC/Washington/4700-Connecticut-Ave-NW-20008/unit-203/home/9977333,BRIGHT MLS,DCDC2012658,N,Y,38.9510912,-77.0681838
MLS Listing,,Condo/Co-op,5406 Connecticut Ave NW #706,Washington,DC,20015,279900,1,1.0,CHEVY CHASE,838,,1963,89,334,787,Active,,,https://www.redfin.com/DC/Washington/5406-Connecticut-Ave-NW-20015/unit-706/home/9970137,BRIGHT MLS,DCDC2012070,N,Y,38.961457,-77.0739493
MLS Listing,,Condo/Co-op,5101 River Rd #1509,Bethesda,MD,20816,284000,1,1.0,THE KENWOOD,1020,,1969,93,278,800,Active,,,https://www.redfin.com/MD/Bethesda/5101-River-Rd-20816/unit-1509/home/176299517,BRIGHT MLS,MDMC2014340,N,Y,38.9640697,-77.1013213
MLS Listing,,Condo/Co-op,5500 Friendship Blvd Unit 1227N,Chevy Chase,MD,20815,419500,1,1.0,WILLOUGHBY OF CH CH CODM,879,,1968,95,477,644,Active,,,https://www.redfin.com/MD/Chevy-Chase/5500-Friendship-Blvd-20815/unit-1227N/home/10692699,BRIGHT MLS,MDMC2013874,N,Y,38.962996,-77.0899468
MLS Listing,,Condo/Co-op,5500 Friendship Blvd Unit 1925N,Chevy Chase,MD,20815,219500,0,1.0,WILLOUGHBY OF CH CH CODM,495,,1968,97,443,410,Active,,,https://www.redfin.com/MD/Chevy-Chase/5500-Friendship-Blvd-20815/unit-1925N/home/10692654,BRIGHT MLS,MDMC2013702,N,Y,38.962996,-77.0899468
MLS Listing,,Condo/Co-op,4601 N Park Ave #716,Chevy Chase,MD,20815,334900,2,1.0,THE ELIZABETH,1080,,1975,100,310,1115,Active,,,https://www.redfin.com/MD/Chevy-Chase/4601-N-Park-Ave-20815/unit-716/home/167013755,BRIGHT MLS,MDMC2011858,N,Y,38.963879,-77.0913855
MLS Listing,,Townhouse,5119 45th St NW,Washington,DC,20016,1847500,5,4.5,AMERICAN UNIV. PARK,3224,2075,1927,103,573,,Active,,,https://www.redfin.com/DC/Washington/5119-45th-St-NW-20016/home/9949084,BRIGHT MLS,DCDC2002650,N,Y,38.9567365,-77.0884041
MLS Listing,,Condo/Co-op,5610 Wisconsin Ave #903,Chevy Chase,MD,20815,2699000,3,2.5,SOMERSET HOUSE 2 CODM,3021,,1990,106,893,2142,Active,,,https://www.redfin.com/MD/Chevy-Chase/5610-Wisconsin-Ave-20815/unit-903/home/10699308,BRIGHT MLS,MDMC2012536,N,Y,38.9649614,-77.0910259
MLS Listing,,Condo/Co-op,5600 Wisconsin Ave #109,Chevy Chase,MD,20815,675000,1,1.5,SOMERSET HOUSE CODM,1053,,1988,106,641,1019,Active,,,https://www.redfin.com/MD/Chevy-Chase/5600-Wisconsin-Ave-20815/unit-109/home/176160549,BRIGHT MLS,MDMC2012008,N,Y,38.9658024,-77.0892274
MLS Listing,,Condo/Co-op,4101 Albemarle St NW #632,Washington,DC,20016,399900,0,1.0,AMERICAN UNIV. PARK,675,,2005,113,592,270,Active,,,https://www.redfin.com/DC/Washington/4101-Albemarle-St-NW-20016/unit-632/home/10349241,BRIGHT MLS,DCDC2003658,N,Y,38.9487791,-77.0808194
MLS Listing,,Condo/Co-op,5101 Connecticut Ave NW #7,Washington,DC,20008,1225000,2,2.0,CHEVY CHASE,1343,,2021,113,912,63,Active,,,https://www.redfin.com/DC/Washington/5101-Connecticut-Ave-NW-20008/unit-7/home/176121265,BRIGHT MLS,DCDC2001596,N,Y,38.956619,-77.0704848
MLS Listing,,Condo/Co-op,4822 Chevy Chase Dr #202,Chevy Chase,MD,20815,289900,1,1.0,CHEVY CHASE PARK CODM,643,,1947,114,451,323,Active,,,https://www.redfin.com/MD/Bethesda/4822-Chevy-Chase-Dr-20815/unit-202/home/10690678,BRIGHT MLS,MDMC2010676,N,Y,38.9767108,-77.0960459
MLS Listing,,Single Family Residential,5306 Bradley Blvd,Bethesda,MD,20814,1995000,5,5.5,BRADLEY HILLS,6240,20319,1931,114,320,,Active,,,https://www.redfin.com/MD/Bethesda/5306-Bradley-Blvd-20814/home/10639009,BRIGHT MLS,MDMC2010496,N,Y,38.976957,-77.107859
MLS Listing,,Single Family Residential,4201 47th St NW,Washington,DC,20016,1885000,6,4.0,AMERICAN UNIV. PARK,4084,4000,1968,119,462,,Active,,,https://www.redfin.com/DC/Washington/4201-47th-St-NW-20016/home/9948161,BRIGHT MLS,DCDC2008146,N,Y,38.9433988,-77.0923971
MLS Listing,,Condo/Co-op,4007 Connecticut Ave NW #101,Washington,DC,20008,394999,1,1.0,FOREST HILLS,878,,1930,120,450,423,Active,,,https://www.redfin.com/DC/Washington/4007-Connecticut-Ave-NW-20008/unit-101/home/10183805,BRIGHT MLS,DCDC2006020,N,Y,38.9412597,-77.0613484
MLS Listing,,Condo/Co-op,5500 Friendship Blvd Unit 1409N,Chevy Chase,MD,20815,515000,2,2.0,WILLOUGHBY OF CH CH CODM,1288,,1968,122,400,1087,Active,,,https://www.redfin.com/MD/Chevy-Chase/5500-Friendship-Blvd-20815/unit-1409N/home/10692070,BRIGHT MLS,MDMC2008076,N,Y,38.962996,-77.0899468
MLS Listing,,Condo/Co-op,5315 Connecticut Ave NW #509,Washington,DC,20015,199900,0,1.0,CHEVY CHASE,326,,1955,127,613,271,Active,,,https://www.redfin.com/DC/Washington/5315-Connecticut-Ave-NW-20015/unit-509/home/9971392,BRIGHT MLS,DCDC2006422,N,Y,38.9600026,-77.0724193
MLS Listing,,Condo/Co-op,3001 Veazey Ter NW #831,Washington,DC,20008,499500,2,2.0,FOREST HILLS,1280,,1967,127,390,1034,Active,,,https://www.redfin.com/DC/Washington/3001-Veazey-Ter-NW-20008/unit-831/home/143421675,BRIGHT MLS,DCDC2004846,N,Y,38.9444006,-77.0616705
MLS Listing,,Condo/Co-op,5500 Friendship Blvd Unit 2327N,Chevy Chase,MD,20815,299000,1,1.0,WILLOUGHBY OF CH CH CODM,879,,1968,128,340,674,Active,December-5-2021 02:00 PM,December-5-2021 04:00 PM,https://www.redfin.com/MD/Chevy-Chase/5500-Friendship-Blvd-20815/unit-2327N/home/10692715,BRIGHT MLS,MDMC2008584,N,Y,38.962996,-77.0899468
MLS Listing,,Single Family Residential,5420 Goldsboro Rd,Bethesda,MD,20817,4995000,6,10.0,BRADLEY HILLS,13397,89734,1990,134,373,,Active,,,https://www.redfin.com/MD/Bethesda/5420-Goldsboro-Rd-20817/home/10639005,BRIGHT MLS,MDMC759360,N,Y,38.974285,-77.1112179
MLS Listing,,Condo/Co-op,4601 N Park Ave #1106,Chevy Chase,MD,20815,449900,2,2.0,THE ELIZABETH,1326,,1975,135,339,1430,Active,,,https://www.redfin.com/MD/Chevy-Chase/4601-N-Park-Ave-20815/unit-1106/home/175795262,BRIGHT MLS,MDMC2007218,N,Y,38.963879,-77.0913855
MLS Listing,,Condo/Co-op,5101 River Rd #1715,Bethesda,MD,20816,319000,2,2.0,THE KENWOOD,1336,,1969,140,239,1006,Active,,,https://www.redfin.com/MD/Bethesda/5101-River-Rd-20816/unit-1715/home/10689619,BRIGHT MLS,MDMC2005908,N,Y,38.9640697,-77.1013213
MLS Listing,,Condo/Co-op,5100 Dorset Ave #103,Chevy Chase,MD,20815,274900,2,2.0,KENWOOD HOUSE COOP,1200,,1962,142,229,1312,Active,December-5-2021 02:00 PM,December-5-2021 04:00 PM,https://www.redfin.com/MD/Chevy-Chase/5100-Dorset-Ave-20815/unit-103/home/12449689,BRIGHT MLS,MDMC2006002,N,Y,38.9682051,-77.1020856
MLS Listing,,Single Family Residential,4520 43rd Pl NW,Washington,DC,20016,2749000,4,4.0,AMERICAN UNIVERSITY PARK,3825,4901,2021,145,719,,Active,,,https://www.redfin.com/DC/Washington/4520-43rd-Pl-NW-20016/home/145428619,BRIGHT MLS,DCDC2003476,N,Y,38.9485948,-77.0852455
MLS Listing,,Condo/Co-op,4515 Willard Ave Unit 1414S,Chevy Chase,MD,20815,299900,1,1.0,WILLOUGHBY OF CH CH CODM,883,,1968,145,340,670,Active,,,https://www.redfin.com/MD/Chevy-Chase/4515-Willard-Ave-20815/unit-1414S/home/10693248,BRIGHT MLS,MDMC2001950,N,Y,38.9624844,-77.0898117
MLS Listing,,Condo/Co-op,5500 Friendship Blvd Unit 1415N,Chevy Chase,MD,20815,219900,1,1.0,WILLOUGHBY OF CH CH CODM,511,,1968,146,430,440,Active,,,https://www.redfin.com/MD/Chevy-Chase/5500-Friendship-Blvd-20815/unit-1415N/home/10692226,BRIGHT MLS,MDMC2004504,N,Y,38.962996,-77.0899468
MLS Listing,,Condo/Co-op,4101 Albemarle St NW #524,Washington,DC,20016,485000,1,1.0,AMERICAN UNIV. PARK,743,,2005,149,653,397,Active,,,https://www.redfin.com/DC/Washington/4101-Albemarle-St-NW-20016/unit-524/home/10349141,BRIGHT MLS,DCDC2003712,N,Y,38.9487791,-77.0808194
MLS Listing,,Single Family Residential,6105 Kennedy Dr,Chevy Chase,MD,20815,5950000,6,6.0,KENWOOD,7356,14503,2021,150,809,,Active,,,https://www.redfin.com/MD/Chevy-Chase/6105-Kennedy-Dr-20815/home/10650325,BRIGHT MLS,MDMC764232,N,Y,38.971133,-77.1025389
MLS Listing,,Condo/Co-op,4600 Connecticut Ave NW #108,Washington,DC,20008,400000,2,2.0,WAKEFIELD,1049,,1948,162,381,870,Active,,,https://www.redfin.com/DC/Washington/4600-Connecticut-Ave-NW-20008/unit-108/home/9976171,BRIGHT MLS,DCDC2002038,N,Y,38.9502608,-77.0674492
MLS Listing,,Condo/Co-op,4301 Military Rd NW #415,Washington,DC,20015,699900,2,2.0,CHEVY CHASE,1070,,2007,162,654,954,Active,,,https://www.redfin.com/DC/Washington/4301-Military-Rd-NW-20015/unit-415/home/12531403,BRIGHT MLS,DCDC2001918,N,Y,38.9614788,-77.0842816
MLS Listing,,Condo/Co-op,3930 Connecticut Ave NW Unit 203-H,Washington,DC,20008,439900,2,1.5,N. CLEVELAND PARK,1026,,1928,169,429,1137,Active,,,https://www.redfin.com/DC/Washington/3930-Connecticut-Ave-NW-20008/unit-203-H/home/40173716,BRIGHT MLS,DCDC2000802,N,Y,38.9403922,-77.0617825
MLS Listing,,Condo/Co-op,4515 Willard Ave #619,Chevy Chase,MD,20815,303000,1,1.0,WILLOUGHBY OF CH CH CODM,869,,1968,170,349,667,Active,,,https://www.redfin.com/MD/Chevy-Chase/4515-Willard-Ave-20815/unit-619/home/10693447,BRIGHT MLS,MDMC762454,N,Y,38.9624844,-77.0898117
MLS Listing,,Condo/Co-op,4600 Connecticut Ave NW #802,Washington,DC,20008,299000,1,1.0,WAKEFIELD,800,,1948,173,374,667,Active,,,https://www.redfin.com/DC/Washington/4600-Connecticut-Ave-NW-20008/unit-802/home/9976616,BRIGHT MLS,DCDC526614,N,Y,38.9502608,-77.0674492
MLS Listing,,Condo/Co-op,4740 Connecticut Ave NW #411,Washington,DC,20008,385000,2,2.0,WAKEFIELD,1128,,1956,193,341,876,Active,,,https://www.redfin.com/DC/Washington/4740-Connecticut-Ave-NW-20008/unit-411/home/9976922,BRIGHT MLS,DCDC523390,N,Y,38.9517732,-77.0685436
MLS Listing,,Condo/Co-op,5301 Westbard Cir #102,Bethesda,MD,20816,399000,3,2.0,KENWOOD PLACE CODM,1726,,1960,227,231,1091,Active,,,https://www.redfin.com/MD/Bethesda/5301-Westbard-Cir-20816/unit-102/home/10690863,BRIGHT MLS,MDMC753974,N,Y,38.9638326,-77.1092334
MLS Listing,,Condo/Co-op,4301 Military Rd NW #315,Washington,DC,20015,700000,2,2.0,CHEVY CHASE,1100,,2007,239,636,966,Active,,,https://www.redfin.com/DC/Washington/4301-Military-Rd-NW-20015/unit-315/home/12531026,BRIGHT MLS,DCDC515302,N,Y,38.9614788,-77.0842816
MLS Listing,,Single Family Residential,3301 Fessenden St NW,Washington,DC,20008,11950000,11,14.5,FOREST HILLS,17631,17341,2019,243,678,,Active,,,https://www.redfin.com/DC/Washington/3301-Fessenden-St-NW-20008/home/9981183,BRIGHT MLS,DCDC515436,N,Y,38.9549493,-77.0661038
MLS Listing,,Condo/Co-op,5630 Wisconsin Ave #1403,Chevy Chase,MD,20815,4295000,3,4.5,PARC SOMERSET CODM,5086,,1999,276,844,5199,Active,,,https://www.redfin.com/MD/Chevy-Chase/5630-Wisconsin-Ave-20815/unit-1403/home/10702168,BRIGHT MLS,MDMC746178,N,Y,38.9658033,-77.0906662
MLS Listing,,Condo/Co-op,4301 Military Rd NW Ph 2,Washington,DC,20015,1795000,2,2.5,CHEVY CHASE,2192,,2007,302,819,2260,Active,,,https://www.redfin.com/DC/Washington/4301-Military-Rd-NW-20015/unit-2/home/12531360,BRIGHT MLS,DCDC507086,N,Y,38.9614788,-77.0842816
MLS Listing,,Condo/Co-op,4707 Connecticut Ave NW #104,Washington,DC,20008,285000,1,1.0,FOREST HILLS,550,,1930,312,518,335,Active,,,https://www.redfin.com/DC/Washington/4707-Connecticut-Ave-NW-20008/unit-104/home/39878451,BRIGHT MLS,DCDC505328,N,Y,38.9517092,-77.067287
For-Sale-by-Owner Listing,,Single Family Residential,4711 Ellicott St NW,Washington,DC,20016,2300000,6,4.5,Washington,4580,4400,1955,134,502,,Active,,,https://www.redfin.com/DC/Washington/4711-Ellicott-St-NW-20016/home/9947660,Fizber.com,11443678,N,Y,38.9535615,-77.0932514
PAST SALE,August-19-2020,Condo/Co-op,4707 Connecticut Ave NW #411,Washington,DC,20008,330000,1,1.0,FOREST HILLS,737,,1930,472,448,480,Sold,,,https://www.redfin.com/DC/Washington/4707-Connecticut-Ave-NW-20008/unit-411/home/9981696,BRIGHT MLS,DCDC475506,N,Y,38.9517092,-77.067287
PAST SALE,July-31-2019,Condo/Co-op,4707 Connecticut Ave NW #201,Washington,DC,20008,546000,2,1.0,FOREST HILLS,1230,626,1930,857,444,803,Sold,,,https://www.redfin.com/DC/Washington/4707-Connecticut-Ave-NW-20008/unit-201/home/9981607,BRIGHT MLS,DCDC432148,N,Y,38.9517092,-77.067287
PAST SALE,December-11-2020,Single Family Residential,3949 Garrison St NW,Washington,DC,20016,1085000,3,2.5,CHEVY CHASE,2103,5267,1941,358,516,,Sold,,,https://www.redfin.com/DC/Washington/3949-Garrison-St-NW-20016/home/9962525,BRIGHT MLS,DCDC495268,N,Y,38.9561748,-77.0793581
PAST SALE,,Condo/Co-op,4701 Connecticut Ave NW #502,Washington,DC,20008,550000,2,2.0,,1250,,1977,,440,,,,,https://www.redfin.com/DC/Washington/4701-Connecticut-Ave-NW-20008/unit-502/home/9981565,,,N,Y,38.9510218,-77.0671038
PAST SALE,February-21-2019,Single Family Residential,4701 Connecticut Ave NW #400,Washington,DC,20008,549000,2,2.0,FOREST HILLS,1223,,1977,1017,449,880,Sold,,,https://www.redfin.com/DC/Washington/4701-Connecticut-Ave-NW-20008/unit-400/home/9981537,BRIGHT MLS,DCDC310356,N,Y,38.9510218,-77.0671038
PAST SALE,July-11-2019,Single Family Residential,6425 33rd St NW,Washington,DC,20015,975000,5,2.5,CHEVY CHASE,2161,3769,1935,877,451,,Sold,,,https://www.redfin.com/DC/Washington/6425-33rd-St-NW-20015/home/9980004,BRIGHT MLS,DCDC427100,N,Y,38.9749791,-77.0661377
PAST SALE,August-26-2021,Single Family Residential,4920 Flint Dr,Bethesda,MD,20816,1000000,3,2.5,WESTGATE,1989,9025,1940,100,503,,Sold,,,https://www.redfin.com/MD/Bethesda/4920-Flint-Dr-20816/home/10654480,BRIGHT MLS,MDMC764184,N,Y,38.9557406,-77.1001749
PAST SALE,,Condo/Co-op,4701 Connecticut Ave NW #307,Washington,DC,20008,624000,2,2.0,,1222,,1977,,511,,,,,https://www.redfin.com/DC/Washington/4701-Connecticut-Ave-NW-20008/unit-307/home/9981531,,,N,Y,38.9510218,-77.0671038
PAST SALE,April-20-2020,Condo/Co-op,4707 Connecticut Ave NW #102,Washington,DC,20008,321000,1,1.0,FOREST HILLS,575,,1930,593,558,383,Sold,,,https://www.redfin.com/DC/Washington/4707-Connecticut-Ave-NW-20008/unit-102/home/9981586,BRIGHT MLS,DCDC461902,N,Y,38.9517092,-77.067287
PAST SALE,July-17-2020,Single Family Residential,3321 Mckinley St NW,Washington,DC,20015,1665000,4,5.5,CHEVY CHASE,3852,7823,1930,505,432,,Sold,,,https://www.redfin.com/DC/Washington/3321-McKinley-St-NW-20015/home/9979876,BRIGHT MLS,DCDC474032,N,Y,38.9651327,-77.0673519
PAST SALE,April-30-2021,Condo/Co-op,4701 Connecticut Ave NW #208,Washington,DC,20008,675000,2,2.0,FOREST HILLS,1395,,1927,218,484,986,Sold,,,https://www.redfin.com/DC/Washington/4701-Connecticut-Ave-NW-20008/unit-208/home/9981512,BRIGHT MLS,DCDC514374,N,Y,38.9510218,-77.0671038
PAST SALE,August-1-2019,Condo/Co-op,4701 Connecticut Ave NW #503,Washington,DC,20008,685000,2,2.0,FOREST HILLS,1357,1037,1929,856,505,1015,Sold,,,https://www.redfin.com/DC/Washington/4701-Connecticut-Ave-NW-20008/unit-503/home/9981568,BRIGHT MLS,DCDC434310,N,Y,38.9510218,-77.0671038
PAST SALE,December-20-2019,Single Family Residential,4401 Sedgwick St NW,Washington,DC,20016,1160000,4,3.0,AMERICAN UNIVERSITY PARK,3454,7528,1958,715,336,,Sold,,,https://www.redfin.com/DC/Washington/4401-Sedgwick-St-NW-20016/home/9949942,BRIGHT MLS,DCDC428654,N,Y,38.93968,-77.0860576
PAST SALE,September-8-2020,Single Family Residential,5242 Baltimore Ave,Bethesda,MD,20816,945798,4,3.5,GREENACRES,1600,5844,1940,452,591,,Sold,,,https://www.redfin.com/MD/Bethesda/5242-Baltimore-Ave-20816/home/10657224,BRIGHT MLS,MDMC719456,N,Y,38.9598494,-77.0967582
PAST SALE,,Single Family Residential,5327 Allandale Rd,Bethesda,MD,20816,1100000,,2.5,,2432,5250,1940,,452,,,,,https://www.redfin.com/MD/Bethesda/5327-Allandale-Rd-20816/home/10657377,,,N,Y,38.9616412,-77.1012989
PAST SALE,June-17-2021,Condo/Co-op,4701 Connecticut Ave NW #205,Washington,DC,20008,640000,2,2.0,FOREST HILLS,1214,,1977,170,527,915,Sold,,,https://www.redfin.com/DC/Washington/4701-Connecticut-Ave-NW-20008/unit-205/home/9981506,BRIGHT MLS,DCDC521532,N,Y,38.9510218,-77.0671038
PAST SALE,March-11-2020,Condo/Co-op,4515 Willard Ave #2406,Chevy Chase,MD,20815,299997,1,1.0,WILLOUGHBY OF CH CH CODM,883,,1968,633,340,674,Sold,,,https://www.redfin.com/MD/Chevy-Chase/4515-Willard-Ave-20815/unit-2406/home/10693006,BRIGHT MLS,MDMC687234,N,Y,38.9624844,-77.0898117
PAST SALE,,Condo/Co-op,4701 Connecticut Ave NW #101,Washington,DC,20008,600000,2,2.0,,1287,,1977,,466,,,,,https://www.redfin.com/DC/Washington/4701-Connecticut-Ave-NW-20008/unit-101/home/9981467,,,N,Y,38.9510218,-77.0671038
PAST SALE,June-28-2019,Single Family Residential,4712 Hunt Ave,Chevy Chase,MD,20815,975000,4,3.5,CHEVY CHASE GARDENS,1584,5392,1931,890,616,,Sold,,,https://www.redfin.com/MD/Chevy-Chase/4712-Hunt-Ave-20815/home/10643867,BRIGHT MLS,MDMC659524,N,Y,38.9708098,-77.0943754
PAST SALE,June-5-2019,Single Family Residential,5209 Baltimore Ave,Bethesda,MD,20816,1500093,6,5.5,GLEN COVE,4420,7781,2019,913,339,,Sold,,,https://www.redfin.com/MD/Bethesda/5209-Baltimore-Ave-20816/home/10674339,BRIGHT MLS,MDMC278958,N,Y,38.9577852,-77.0987363
PAST SALE,August-25-2021,Condo/Co-op,4701 Connecticut Ave NW Unit LL6,Washington,DC,20008,550000,2,2.0,FOREST HILLS,1275,,1927,101,431,797,Sold,,,https://www.redfin.com/DC/Washington/4701-Connecticut-Ave-NW-20008/unit-LL6/home/9981464,BRIGHT MLS,DCDC2000552,N,Y,38.9510218,-77.0671038
PAST SALE,May-7-2020,Single Family Residential,3306 Quesada St NW,Washington,DC,20015,1100000,3,2.0,CHEVY CHASE,1705,6884,1926,576,645,,Sold,,,https://www.redfin.com/DC/Washington/3306-Quesada-St-NW-20015/home/9979849,BRIGHT MLS,DCDC463684,N,Y,38.9683951,-77.067127
PAST SALE,June-10-2021,Single Family Residential,5615 Overlea Rd,Bethesda,MD,20816,1261000,4,4.0,SUMNER,3313,7197,1948,177,381,,Sold,,,https://www.redfin.com/MD/Bethesda/5615-Overlea-Rd-20816/home/10666195,BRIGHT MLS,MDMC751604,N,Y,38.9573599,-77.1128521
PAST SALE,July-21-2021,Condo/Co-op,4515 Willard Ave Unit 916S,Chevy Chase,MD,20815,272000,1,1.0,WILLOUGHBY OF CH CH CODM,869,,1968,136,313,675,Sold,,,https://www.redfin.com/MD/Chevy-Chase/4515-Willard-Ave-20815/unit-916S/home/10693346,BRIGHT MLS,MDMC759270,N,Y,38.9624844,-77.0898117
PAST SALE,November-21-2019,Townhouse,3622 Fessenden St NW,Washington,DC,20008,960000,3,3.0,WAKEFIELD,1860,2594,1941,744,516,,Sold,,,https://www.redfin.com/DC/Washington/3622-Fessenden-St-NW-20008/home/9977619,BRIGHT MLS,DCDC447456,N,Y,38.954461,-77.070634
PAST SALE,July-25-2019,Single Family Residential,4812 32nd St NW,Washington,DC,20008,1625000,4,4.5,FOREST HILLS,3456,7500,1983,863,470,,Sold,,,https://www.redfin.com/DC/Washington/4812-32nd-St-NW-20008/home/9981368,BRIGHT MLS,DCDC436670,N,Y,38.9529312,-77.0654632
PAST SALE,November-30-2021,Single Family Residential,4500 46th St NW,Washington,DC,20016,1730000,5,3.0,AMERICAN UNIV. PARK,3550,5850,1937,4,487,,Sold,,,https://www.redfin.com/DC/Washington/4500-46th-St-NW-20016/home/9947922,BRIGHT MLS,DCDC2000185,N,Y,38.9480983,-77.090846
PAST SALE,December-12-2018,Single Family Residential,3200 Ellicott St NW,Washington,DC,20008,2125000,5,4.5,FOREST HILLS,4290,7500,1983,1088,495,,Sold,,,https://www.redfin.com/DC/Washington/3200-Ellicott-St-NW-20008/home/9981366,BRIGHT MLS,DCDC100640,N,Y,38.9531261,-77.0654593
PAST SALE,,Single Family Residential,3347 Quesada St NW,Washington,DC,20015,910000,3,2.0,,1467,3200,1936,,620,,,,,https://www.redfin.com/DC/Washington/3347-Quesada-St-NW-20015/home/9979816,,,N,Y,38.9687975,-77.0689258
PAST SALE,August-31-2021,Single Family Residential,4614 Morgan Dr,Chevy Chase,MD,20815,2335000,5,5.5,CHEVY CHASE GARDENS,5225,5040,1934,95,447,,Sold,,,https://www.redfin.com/MD/Chevy-Chase/4614-Morgan-Dr-20815/home/10643802,BRIGHT MLS,MDMC737732,N,Y,38.9726121,-77.0911383
PAST SALE,February-6-2019,Single Family Residential,5709 Nevada Ave NW,Washington,DC,20015,1185000,4,3.5,CHEVY CHASE,2565,4345,1929,1032,462,,Sold,,,https://www.redfin.com/DC/Washington/5709-Nevada-Ave-NW-20015/home/9978686,BRIGHT MLS,DCDC141788,N,Y,38.9661926,-77.0703648
PAST SALE,May-9-2019,Single Family Residential,5152 Linnean Ter NW,Washington,DC,20008,1125000,3,3.0,FOREST HILLS,2566,7000,1951,940,438,,Sold,,,https://www.redfin.com/DC/Washington/5152-Linnean-Ter-NW-20008/home/9981235,BRIGHT MLS,DCDC422292,N,Y,38.9573036,-77.067262
PAST SALE,,Single Family Residential,5308 39th St NW,Washington,DC,20015,1205000,4,3.5,,2323,6750,1923,,519,,,,,https://www.redfin.com/DC/Washington/5308-39th-St-NW-20015/home/9962239,,,N,Y,38.9594817,-77.0773796
PAST SALE,November-1-2019,Single Family Residential,3927 Oliver St,Chevy Chase,MD,20815,1810000,5,3.5,CHEVY CHASE SEC 1,4423,7500,1940,764,409,,Sold,,,https://www.redfin.com/MD/Chevy-Chase/3927-Oliver-St-20815/home/10640531,BRIGHT MLS,MDMC670990,N,Y,38.9669401,-77.0814939
PAST SALE,,Condo/Co-op,6726 Kenwood Forest Ln #64,Bethesda,MD,20815,840000,,,,1754,,1950,,479,,,,,https://www.redfin.com/MD/Bethesda/6726-Kenwood-Forest-Ln-20815/unit-64/home/10687707,,,N,Y,38.9765218,-77.1001579
PAST SALE,March-4-2019,Single Family Residential,3825 Windom Pl NW,Washington,DC,20016,1455000,4,3.5,NORTH CLEVELAND PARK,2620,4575,1923,1006,555,,Sold,,,https://www.redfin.com/DC/Washington/3825-Windom-Pl-NW-20016/home/9968784,BRIGHT MLS,DCDC364898,N,Y,38.9457221,-77.075896
PAST SALE,August-1-2019,Single Family Residential,6007 34th Pl NW,Washington,DC,20015,828000,3,2.5,CHEVY CHASE,1445,4405,1931,856,573,,Sold,,,https://www.redfin.com/DC/Washington/6007-34th-Pl-NW-20015/home/9979788,BRIGHT MLS,DCDC433022,N,Y,38.9694538,-77.068701
PAST SALE,,Single Family Residential,5922 Broad Branch Rd NW,Washington,DC,20015,1150000,4,3.0,,2448,4512,1931,,470,,,,,https://www.redfin.com/DC/Washington/5922-Broad-Branch-Rd-NW-20015/home/9978997,,,N,Y,38.9683422,-77.0698701
PAST SALE,May-7-2021,Single Family Residential,5617 Overlea Rd,Bethesda,MD,20816,1450000,4,3.5,SUMNER,2417,6600,1948,211,600,,Sold,,,https://www.redfin.com/MD/Bethesda/5617-Overlea-Rd-20816/home/10666133,BRIGHT MLS,MDMC751108,N,Y,38.9573801,-77.1130319
PAST SALE,October-18-2021,Single Family Residential,5100 33rd St NW,Washington,DC,20008,1260000,3,4.0,FOREST HILLS,2175,9000,1949,47,579,,Sold,,,https://www.redfin.com/DC/Washington/5100-33rd-St-NW-20008/home/9981108,BRIGHT MLS,DCDC2011066,N,Y,38.9560629,-77.0662244
PAST SALE,July-31-2019,Single Family Residential,3600 Legation St NW,Washington,DC,20015,802000,3,2.5,CHEVY CHASE,1368,3201,1952,857,586,,Sold,,,https://www.redfin.com/DC/Washington/3600-Legation-St-NW-20015/home/9978470,BRIGHT MLS,DCDC429234,N,Y,38.9619422,-77.070005
PAST SALE,November-13-2019,Single Family Residential,4950 Brandywine St NW,Washington,DC,20016,1435000,4,3.5,AMERICAN UNIV. PARK,2400,4382,1929,752,598,,Sold,,,https://www.redfin.com/DC/Washington/4950-Brandywine-St-NW-20016/home/9945876,BRIGHT MLS,DCDC446796,N,Y,38.9495135,-77.0986464
PAST SALE,October-14-2021,Condo/Co-op,5406 Connecticut Ave NW #807,Washington,DC,20015,220000,0,1.0,CHEVY CHASE,550,,1963,51,400,515,Sold,,,https://www.redfin.com/DC/Washington/5406-Connecticut-Ave-NW-20015/unit-807/home/9970157,BRIGHT MLS,DCDC486622,N,Y,38.961457,-77.0739493
PAST SALE,May-21-2019,Single Family Residential,3305 Quesada St NW,Washington,DC,20015,965000,3,2.0,CHEVY CHASE,1520,4008,1936,928,635,,Sold,,,https://www.redfin.com/DC/Washington/3305-Quesada-St-NW-20015/home/9979747,BRIGHT MLS,DCDC423404,N,Y,38.9688008,-77.0668123
PAST SALE,June-21-2021,Single Family Residential,4715 Massachusetts Ave NW,Washington,DC,20016,1850000,5,4.0,AMERICAN UNIV. PARK,3694,3381,1955,166,501,,Sold,,,https://www.redfin.com/DC/Washington/4715-Massachusetts-Ave-NW-20016/home/9947295,BRIGHT MLS,DCDC517720,N,Y,38.9435546,-77.0930715
PAST SALE,,Condo/Co-op,6723 Kenwood Forest Ln #44,Bethesda,MD,20815,770000,3,3.5,,1851,,1950,,416,,,,,https://www.redfin.com/MD/Bethesda/6723-Kenwood-Forest-Ln-20815/unit-44/home/10687665,,,N,Y,38.9767206,-77.0998155
PAST SALE,October-10-2019,Single Family Residential,3408 Livingston St NW,Washington,DC,20015,1274000,4,3.5,CHEVY CHASE,2458,6840,1941,786,518,,Sold,,,https://www.redfin.com/DC/Washington/3408-Livingston-St-NW-20015/home/9978340,BRIGHT MLS,DCDC440706,N,Y,38.9629028,-77.0678466
PAST SALE,December-12-2019,Single Family Residential,4831 Yuma St NW,Washington,DC,20016,1425000,5,4.0,AMERICAN UNIV. PARK,3035,4182,1948,723,470,,Sold,,,https://www.redfin.com/DC/Washington/4831-Yuma-St-NW-20016/home/9946307,BRIGHT MLS,DCDC443706,N,Y,38.946499,-77.0957241
PAST SALE,January-17-2019,Single Family Residential,5036 Sedgwick St NW,Washington,DC,20016,2600000,5,5.5,SPRING VALLEY,5788,17605,1940,1052,449,,Sold,,,https://www.redfin.com/DC/Washington/5036-Sedgwick-St-NW-20016/home/9945407,BRIGHT MLS,DCDC310024,N,Y,38.9390502,-77.10013
PAST SALE,May-28-2019,Single Family Residential,5409 31st St NW,Washington,DC,20015,1063000,5,3.5,CHEVY CHASE,2630,5460,1931,921,404,,Sold,,,https://www.redfin.com/DC/Washington/5409-31st-St-NW-20015/home/9992845,BRIGHT MLS,DCDC402626,N,Y,38.9614693,-77.0618655
PAST SALE,July-14-2020,Single Family Residential,5135 34th St NW,Washington,DC,20008,1240000,5,3.5,FOREST HILLS,2748,5171,1953,508,451,,Sold,,,https://www.redfin.com/DC/Washington/5135-34th-St-NW-20008/home/9981081,BRIGHT MLS,DCDC467450,N,Y,38.9564997,-77.0661825
PAST SALE,November-3-2021,Single Family Residential,5416 Nevada NW,Washington,DC,20015,979999,3,2.5,CHEVY CHASE,2113,5244,1930,31,464,,Sold,,,https://www.redfin.com/DC/Washington/5416-Nevada-Ave-NW-20015/home/9978415,BRIGHT MLS,DCDC2014046,N,Y,38.9616915,-77.0699151
PAST SALE,November-16-2021,Single Family Residential,3162 Tennyson St NW,Washington,DC,20015,1225000,3,3.5,CHEVY CHASE,2015,5321,1937,18,608,,Sold,,,https://www.redfin.com/DC/Washington/3162-Tennyson-St-NW-20015/home/9994529,BRIGHT MLS,DCDC2018126,N,Y,38.9726296,-77.0631128
PAST SALE,April-29-2019,Condo/Co-op,5500 Friendship Blvd Unit 2209N,Chevy Chase,MD,20815,430000,2,2.0,WILLOUGHBY OF CH CH CODM,1300,,1968,950,331,1131,Sold,,,https://www.redfin.com/MD/Chevy-Chase/5500-Friendship-Blvd-20815/unit-2209N/home/10692086,BRIGHT MLS,1009970902,N,Y,38.962996,-77.0899468
PAST SALE,December-19-2018,Single Family Residential,2 Primrose St,Chevy Chase,MD,20815,1770000,4,4.5,CHEVY CHASE SEC 2,5000,12600,1923,1081,354,,Sold,,,https://www.redfin.com/MD/Chevy-Chase/2-Primrose-St-20815/home/10640975,BRIGHT MLS,1005934733,N,Y,38.9745843,-77.0767276
PAST SALE,September-25-2019,Single Family Residential,3311 Fessenden St NW,Washington,DC,20008,1150000,4,3.0,FOREST HILLS,1936,5520,1938,801,594,,Sold,,,https://www.redfin.com/DC/Washington/3311-Fessenden-St-NW-20008/home/9981176,BRIGHT MLS,DCDC440174,N,Y,38.9548987,-77.0669784
PAST SALE,August-10-2020,Single Family Residential,5517 Uppingham St,Chevy Chase,MD,20815,1600000,5,4.5,SOMERSET HEIGHTS,4417,8450,1952,481,362,,Sold,,,https://www.redfin.com/MD/Chevy-Chase/5517-Uppingham-St-20815/home/10653759,BRIGHT MLS,MDMC706812,N,Y,38.9639235,-77.0958763
PAST SALE,October-8-2020,Single Family Residential,5238 42nd St NW,Washington,DC,20015,1615000,5,3.5,CHEVY CHASE,1737,5300,1925,422,930,,Sold,,,https://www.redfin.com/DC/Washington/5238-42nd-St-NW-20015/home/9957461,BRIGHT MLS,DCDC463744,N,Y,38.9585895,-77.0823016
PAST SALE,May-15-2019,Single Family Residential,4517 Cumberland Ave,Chevy Chase,MD,20815,1365000,3,3.0,SOMERSET HEIGHTS,2589,10110,1953,934,527,,Sold,,,https://www.redfin.com/MD/Chevy-Chase/4517-Cumberland-Ave-20815/home/10653754,BRIGHT MLS,MDMC648322,N,Y,38.9689384,-77.0909134
PAST SALE,July-19-2019,Single Family Residential,4101 Davenport St NW,Washington,DC,20016,1251250,3,4.5,CHEVY CHASE,1920,2448,1890,869,652,,Sold,,,https://www.redfin.com/DC/Washington/4101-Davenport-St-NW-20016/home/9961078,BRIGHT MLS,DCDC431522,N,Y,38.9523007,-77.0805721
PAST SALE,April-4-2019,Single Family Residential,4728 Van Ness St NW,Washington,DC,20016,1845000,4,4.5,SPRING VALLEY,4776,5595,1969,975,386,,Sold,,,https://www.redfin.com/DC/Washington/4728-Van-Ness-St-NW-20016/home/9947165,BRIGHT MLS,DCDC399572,N,Y,38.9429081,-77.0937459
PAST SALE,,Single Family Residential,3332 Runnymede Pl NW,Washington,DC,20015,1170000,5,3.5,,2260,6225,1938,,518,,,,,https://www.redfin.com/DC/Washington/3332-Runnymede-Pl-NW-20015/home/9979716,,,N,Y,38.970327,-77.068512
PAST SALE,May-13-2019,Single Family Residential,5408 Blackistone Rd,Bethesda,MD,20816,1570000,4,4.5,WESTMORELAND HILLS,4300,6959,1954,936,365,,Sold,,,https://www.redfin.com/MD/Bethesda/5408-Blackistone-Rd-20816/home/10654934,BRIGHT MLS,MDMC594900,N,Y,38.94937,-77.1093683
PAST SALE,June-18-2019,Single Family Residential,3433 Oliver St NW,Washington,DC,20015,1650000,6,3.5,CHEVY CHASE,4030,7209,1930,900,409,,Sold,,,https://www.redfin.com/DC/Washington/3433-Oliver-St-NW-20015/home/9978959,BRIGHT MLS,DCDC426542,N,Y,38.9669045,-77.0706346
PAST SALE,May-17-2019,Condo/Co-op,4740 Connecticut Ave NW #914,Washington,DC,20008,329000,1,1.0,WAKEFIELD,830,170,1956,932,396,591,Sold,,,https://www.redfin.com/DC/Washington/4740-Connecticut-Ave-NW-20008/unit-914/home/9977126,BRIGHT MLS,DCDC420450,N,Y,38.9517732,-77.0685436
PAST SALE,July-11-2019,Condo/Co-op,4339 Harrison St NW #1,Washington,DC,20015,579900,2,2.0,AMERICAN UNIVERSITY PARK,1080,3260,2019,877,537,148,Sold,,,https://www.redfin.com/DC/Washington/4339-Harrison-St-NW-20015/unit-1/home/165271393,BRIGHT MLS,DCDC425618,N,Y,38.957279,-77.0856495
PAST SALE,January-24-2020,Condo/Co-op,5500 Friendship Blvd Unit 1007N,Chevy Chase,MD,20815,165000,0,1.0,WILLOUGHBY OF CH CH CODM,325,,1968,680,508,265,Sold,,,https://www.redfin.com/MD/Chevy-Chase/5500-Friendship-Blvd-20815/unit-1007N/home/10692022,BRIGHT MLS,MDMC677408,N,Y,38.962996,-77.0899468
PAST SALE,February-22-2019,Single Family Residential,4426 Chalfont Pl,Bethesda,MD,20816,998000,3,4.0,WESTMORELAND HILLS,1932,4981,1976,1016,517,146,Sold,,,https://www.redfin.com/MD/Bethesda/4426-Chalfont-Pl-20816/home/10655289,BRIGHT MLS,MDMC449592,N,Y,38.9465708,-77.1121329
PAST SALE,July-5-2019,Single Family Residential,4424 45th St NW,Washington,DC,20016,1565000,4,3.5,AMERICAN UNIVERSITY PARK,3364,3500,1941,883,465,,Sold,,,https://www.redfin.com/DC/Washington/4424-45th-St-NW-20016/home/9948494,BRIGHT MLS,DCDC428452,N,Y,38.947252,-77.0888543
PAST SALE,May-28-2021,Single Family Residential,6404 Stratford Rd,Chevy Chase,MD,20815,1260000,4,3.0,CHEVY CHASE TERRACE,2292,7634,1958,190,550,,Sold,,,https://www.redfin.com/MD/Chevy-Chase/6404-Stratford-Rd-20815/home/10644120,BRIGHT MLS,MDMC747412,N,Y,38.973936,-77.092577
PAST SALE,June-29-2020,Single Family Residential,6405 Shadow Rd,Chevy Chase,MD,20815,2800000,5,5.5,KENWOOD,8470,24977,1940,523,331,,Sold,,,https://www.redfin.com/MD/Chevy-Chase/6405-Shadow-Rd-20815/home/10650160,BRIGHT MLS,MDMC676218,N,Y,38.9724199,-77.1069632
PAST SALE,,Townhouse,4253 Fordham Rd NW,Washington,DC,20016,1200000,4,2.5,,2520,4240,1980,,476,,,,,https://www.redfin.com/DC/Washington/4253-Fordham-Rd-NW-20016/home/9947211,,,N,Y,38.9440167,-77.0950497
PAST SALE,November-7-2019,Single Family Residential,4839 Western Ave NW,Washington,DC,20016,1565000,4,5.0,AMERICAN UNIVERSITY PARK,3636,4732,2013,758,430,,Sold,,,https://www.redfin.com/DC/Washington/4839-Western-Ave-NW-20016/home/52320966,BRIGHT MLS,DCDC434234,N,Y,38.953017,-77.095128
PAST SALE,August-23-2019,Single Family Residential,3125 Quesada St NW,Washington,DC,20015,985000,5,2.5,CHEVY CHASE,2362,3778,1957,834,417,,Sold,,,https://www.redfin.com/DC/Washington/3125-Quesada-St-NW-20015/home/9994316,BRIGHT MLS,DCDC430734,N,Y,38.9692081,-77.0625851
PAST SALE,January-3-2019,Condo/Co-op,4620 Park Ave Unit 1604E,Chevy Chase,MD,20815,725000,2,2.5,4620 NORTH PARK AVE,1572,,1973,1066,461,1425,Sold,,,https://www.redfin.com/MD/Chevy-Chase/4620-N-Park-Ave-20815/unit-1604E/home/10683111,BRIGHT MLS,1009962608,N,Y,38.9631178,-77.0924646
PAST SALE,March-22-2019,Single Family Residential,5442 Broad Branch Rd NW,Washington,DC,20015,1234000,4,3.0,CHEVY CHASE,2600,4490,1941,988,475,,Sold,,,https://www.redfin.com/DC/Washington/5442-Broad-Branch-Rd-NW-20015/home/9978350,BRIGHT MLS,DCDC400280,N,Y,38.9627106,-77.0672957
PAST SALE,June-24-2019,Townhouse,4206 48th Pl NW,Washington,DC,20016,1150000,4,4.5,SPRING VALLEY,3745,4500,1980,894,307,,Sold,,,https://www.redfin.com/DC/Washington/4206-48th-Pl-NW-20016/home/9946365,BRIGHT MLS,DCDC424808,N,Y,38.9437616,-77.0959939
PAST SALE,September-16-2019,Condo/Co-op,4301 Military Rd NW #414,Washington,DC,20015,835000,2,2.0,CHEVY CHASE,1320,447,2007,810,633,1104,Sold,,,https://www.redfin.com/DC/Washington/4301-Military-Rd-NW-20015/unit-414/home/12531404,BRIGHT MLS,DCDC431448,N,Y,38.9614788,-77.0842816
PAST SALE,April-30-2021,Single Family Residential,4905 Rodman St NW,Washington,DC,20016,2795000,5,4.5,SPRING VALLEY,4825,8213,1941,218,579,,Sold,,,https://www.redfin.com/DC/Washington/4905-Rodman-St-NW-20016/home/9945541,BRIGHT MLS,DCDC2020244,N,Y,38.9395906,-77.0974325
PAST SALE,June-27-2019,Single Family Residential,6414 Western Ave,Chevy Chase,MD,20815,1220000,5,3.5,PINEHURST,3340,14007,1938,891,365,,Sold,,,https://www.redfin.com/MD/Chevy-Chase/6414-Western-Ave-20815/home/10636445,BRIGHT MLS,MDMC660742,N,Y,38.975103,-77.068223
PAST SALE,,Condo/Co-op,4974 Sentinel Dr Unit 13-405,Bethesda,MD,20816,410000,,,,1491,,1975,,275,,,,,https://www.redfin.com/MD/Bethesda/4974-Sentinel-Dr-20816/unit-13-405/home/10686664,,,N,Y,38.9516622,-77.1156727
PAST SALE,April-30-2019,Condo/Co-op,4620 N Park Ave Unit 1107E,Chevy Chase,MD,20815,360000,2,1.5,4620 NORTH PARK AVE,1099,,1973,949,328,1003,Sold,,,https://www.redfin.com/MD/Chevy-Chase/4620-N-Park-Ave-20815/unit-1107E/home/10683020,BRIGHT MLS,MDMC485864,N,Y,38.9631178,-77.0924646
PAST SALE,July-2-2019,Single Family Residential,4826 De Russey Pkwy,Chevy Chase,MD,20815,2286328,5,5.5,WEST CHEVY CHASE,2513,9296,2020,886,910,,Sold,,,https://www.redfin.com/MD/Chevy-Chase/4826-De-Russey-Pkwy-20815/home/10673090,BRIGHT MLS,MDMC658898,N,Y,38.9723653,-77.0978821
PAST SALE,,Single Family Residential,4517 Wetherill Rd,Bethesda,MD,20816,2150000,,4.5,,3028,19691,1935,,710,,,,,https://www.redfin.com/MD/Bethesda/4517-Wetherill-Rd-20816/home/10654940,,,N,Y,38.9483872,-77.1025576
PAST SALE,June-21-2019,Townhouse,4221 39th St NW,Washington,DC,20016,935000,4,2.5,NORTH CLEVELAND PARK,2364,3220,1923,897,396,,Sold,,,https://www.redfin.com/DC/Washington/4221-39th-St-NW-20016/home/9968666,BRIGHT MLS,DCDC426812,N,Y,38.9445707,-77.0767633
PAST SALE,November-10-2021,Single Family Residential,4619 Norwood Dr,Chevy Chase,MD,20815,1200000,3,4.0,CHEVY CHASE TERRACE,2364,7164,1929,24,508,,Sold,,,https://www.redfin.com/MD/Chevy-Chase/4619-Norwood-Dr-20815/home/10644253,BRIGHT MLS,MDMC2014954,N,Y,38.9756345,-77.0919925
PAST SALE,October-1-2021,Condo/Co-op,5101 River Rd #415,Bethesda,MD,20816,315000,2,2.0,THE KENWOOD,1336,,1969,64,236,1006,Sold,,,https://www.redfin.com/MD/Bethesda/5101-River-Rd-20816/unit-415/home/10689595,BRIGHT MLS,MDMC728244,N,Y,38.9640697,-77.1013213
PAST SALE,November-29-2021,Condo/Co-op,5109 Connecticut Ave NW #4,Washington,DC,20008,1199000,2,2.5,CHEVY CHASE,1844,,2016,5,650,749,Sold,,,https://www.redfin.com/DC/Washington/5109-Connecticut-Ave-NW-20008/unit-4/home/99884190,BRIGHT MLS,DCDC2017480,N,Y,38.9567434,-77.0705523
PAST SALE,December-19-2019,Single Family Residential,4501 47th St NW,Washington,DC,20016,1305000,4,3.5,AMERICAN UNIV. PARK,3276,5850,1939,716,398,,Sold,,,https://www.redfin.com/DC/Washington/4501-47th-St-NW-20016/home/9947931,BRIGHT MLS,DCDC446268,N,Y,38.9481668,-77.0923522
PAST SALE,March-17-2021,Condo/Co-op,4515 Willard Ave Unit 2418S,Chevy Chase,MD,20815,245000,1,1.0,WILLOUGHBY OF CH CH CODM,658,,1968,262,372,581,Sold,,,https://www.redfin.com/MD/Chevy-Chase/4515-Willard-Ave-20815/unit-2418S/home/174388950,BRIGHT MLS,MDMC743618,N,Y,38.9624844,-77.0898117
PAST SALE,June-29-2021,Single Family Residential,5319 Nevada Ave NW,Washington,DC,20015,1545000,4,3.0,CHEVY CHASE,3698,8265,1929,158,418,,Sold,,,https://www.redfin.com/DC/Washington/5319-Nevada-Ave-NW-20015/home/9981042,BRIGHT MLS,DCDC523300,N,Y,38.9592509,-77.0668095
PAST SALE,,Single Family Residential,3369 Rittenhouse St NW,Washington,DC,20015,1300000,4,2.0,,1729,3605,1936,,752,,,,,https://www.redfin.com/DC/Washington/3369-Rittenhouse-St-NW-20015/home/9979688,,,N,Y,38.9699507,-77.0695554
PAST SALE,September-16-2019,Single Family Residential,5205 Murray Rd,Chevy Chase,MD,20815,1725000,5,4.5,BROOKDALE,4425,7855,1938,810,390,,Sold,,,https://www.redfin.com/MD/Bethesda/5205-Murray-Rd-20815/home/10656589,BRIGHT MLS,MDMC669138,N,Y,38.9587492,-77.0919057
PAST SALE,January-6-2021,Condo/Co-op,4007 Connecticut Ave NW #504,Washington,DC,20008,324750,1,1.0,FOREST HILLS,575,,1930,332,565,296,Sold,,,https://www.redfin.com/DC/Washington/4007-Connecticut-Ave-NW-20008/unit-504/home/10183903,BRIGHT MLS,DCDC495746,N,Y,38.9412597,-77.0613484
PAST SALE,,Single Family Residential,5331 Nebraska Ave NW,Washington,DC,20015,810000,3,1.5,,1711,3787,1931,,473,,,,,https://www.redfin.com/DC/Washington/5331-Nebraska-Ave-NW-20015/home/9981004,,,N,Y,38.9601149,-77.0666144
PAST SALE,June-7-2019,Single Family Residential,4709 Dover Rd,Bethesda,MD,20816,997500,3,2.5,BROOKDALE,2200,6000,1936,911,453,,Sold,,,https://www.redfin.com/MD/Bethesda/4709-Dover-Rd-20816/home/10656413,BRIGHT MLS,MDMC657236,N,Y,38.9566001,-77.0946001
PAST SALE,June-25-2019,Single Family Residential,3310 Quesada St NW,Washington,DC,20015,1265000,4,2.5,CHEVY CHASE,3000,6909,1934,893,422,,Sold,,,https://www.redfin.com/DC/Washington/3310-Quesada-St-NW-20015/home/9979848,BRIGHT MLS,DCDC429142,N,Y,38.9684102,-77.067262
PAST SALE,,Single Family Residential,5326 Broad Branch Rd NW,Washington,DC,20015,937780,3,3.0,,1550,5000,1929,,605,,,,,https://www.redfin.com/DC/Washington/5326-Broad-Branch-Rd-NW-20015/home/9981011,,,N,Y,38.9596719,-77.0659576
PAST SALE,January-3-2020,Single Family Residential,6111 Broad Branch Rd NW,Washington,DC,20015,1175000,3,3.5,CHEVY CHASE,2483,4233,1925,701,473,,Sold,,,https://www.redfin.com/DC/Washington/6111-Broad-Branch-Rd-NW-20015/home/9979645,BRIGHT MLS,DCDC449540,N,Y,38.9704024,-77.0703648
PAST SALE,September-18-2019,Single Family Residential,3208 Rittenhouse St NW,Washington,DC,20015,1225000,4,3.0,CHEVY CHASE,3319,7074,1960,808,369,,Sold,,,https://www.redfin.com/DC/Washington/3208-Rittenhouse-St-NW-20015/home/9980416,BRIGHT MLS,DCDC437400,N,Y,38.9694953,-77.0644289
PAST SALE,January-22-2021,Single Family Residential,4403 Bradley Ln,Chevy Chase,MD,20815,1150000,4,3.5,NORWOOD HEIGHTS,3950,5006,1927,316,291,,Sold,,,https://www.redfin.com/MD/Chevy-Chase/4403-Bradley-Ln-20815/home/10651452,BRIGHT MLS,MDMC720714,N,Y,38.9773478,-77.0870693
PAST SALE,November-5-2019,Single Family Residential,4929 Chevy Chase Blvd,Chevy Chase,MD,20815,965000,3,3.5,CHEVY CHASE TERRACE,2075,4020,1937,760,465,,Sold,,,https://www.redfin.com/MD/Chevy-Chase/4929-Chevy-Chase-Blvd-20815/home/10644316,BRIGHT MLS,MDMC677790,N,Y,38.974094,-77.0972077
PAST SALE,May-28-2021,Single Family Residential,4955 Crescent St,Bethesda,MD,20816,890000,2,2.0,CRESTVIEW,1598,4000,1940,190,557,,Sold,,,https://www.redfin.com/MD/Bethesda/4955-Crescent-St-20816/home/10644673,BRIGHT MLS,MDMC753274,N,Y,38.9556936,-77.0961737
PAST SALE,April-24-2019,Single Family Residential,4401 Tournay Rd,Bethesda,MD,20816,1275000,3,4.5,WESTMORELAND HILLS,3179,5591,1973,955,401,146,Sold,,,https://www.redfin.com/MD/Bethesda/4401-Tournay-Rd-20816/home/10655432,BRIGHT MLS,MDMC622932,N,Y,38.9467105,-77.110155
PAST SALE,April-25-2019,Condo/Co-op,5101 River Rd #1504,Bethesda,MD,20816,385000,2,2.0,THE KENWOOD,1336,,1969,954,288,1001,Sold,,,https://www.redfin.com/MD/Bethesda/5101-River-Rd-20816/unit-1504/home/10689264,BRIGHT MLS,MDMC486316,N,Y,38.9640697,-77.1013213
PAST SALE,June-30-2021,Condo/Co-op,5500 Friendship Blvd Unit 2016N,Chevy Chase,MD,20815,519000,2,2.0,WILLOUGHBY OF CH CH CODM,1288,,1968,157,403,1040,Sold,,,https://www.redfin.com/MD/Chevy-Chase/5500-Friendship-Blvd-20815/unit-2016N/home/10692265,BRIGHT MLS,MDMC756720,N,Y,38.962996,-77.0899468
PAST SALE,April-21-2021,Single Family Residential,3333 Runnymede Pl NW,Washington,DC,20015,1860000,5,3.5,CHEVY CHASE,3793,5728,1936,227,490,,Sold,,,https://www.redfin.com/DC/Washington/3333-Runnymede-Pl-NW-20015/home/9979578,BRIGHT MLS,DCDC513066,N,Y,38.9707314,-77.0682962
PAST SALE,April-10-2019,Condo/Co-op,5500 Friendship Blvd Unit 1108N,Chevy Chase,MD,20815,445000,2,2.0,WILLOUGHBY OF CH CH CODM,1326,,1968,969,336,1059,Sold,,,https://www.redfin.com/MD/Chevy-Chase/5500-Friendship-Blvd-20815/unit-1108N/home/10692044,BRIGHT MLS,MDMC621892,N,Y,38.962996,-77.0899468
PAST SALE,November-15-2021,Condo/Co-op,3001 Veazey Ter NW #614,Washington,DC,20008,301500,1,1.0,FOREST HILLS,1000,,1967,19,302,852,Sold,,,https://www.redfin.com/DC/Washington/3001-Veazey-Ter-NW-20008/unit-614/home/44588848,BRIGHT MLS,DCDC2015162,N,Y,38.9444006,-77.0616705
PAST SALE,August-27-2020,Single Family Residential,3201 Jocelyn St NW,Washington,DC,20015,810000,3,2.0,CHEVY CHASE,1750,2942,1939,464,463,,Sold,,,https://www.redfin.com/DC/Washington/3201-Jocelyn-St-NW-20015/home/9980967,BRIGHT MLS,DCDC474644,N,Y,38.9599741,-77.0646171
PAST SALE,August-7-2019,Condo/Co-op,5500 Friendship Blvd Unit 1214N,Chevy Chase,MD,20815,435000,2,1.5,WILLOUGHBY OF CH CH CODM,1108,,1968,850,393,748,Sold,,,https://www.redfin.com/MD/Chevy-Chase/5500-Friendship-Blvd-20815/unit-1214N/home/10692196,BRIGHT MLS,MDMC666032,N,Y,38.962996,-77.0899468
PAST SALE,September-16-2019,Single Family Residential,3752 Mckinley St NW,Washington,DC,20015,1350000,6,2.5,CHEVY CHASE,3690,7800,1909,810,366,,Sold,,,https://www.redfin.com/DC/Washington/3752-McKinley-St-NW-20015/home/9970741,BRIGHT MLS,DCDC436002,N,Y,38.9646867,-77.0737374
PAST SALE,June-5-2019,Single Family Residential,3230 Military Rd NW,Washington,DC,20015,1125000,4,3.0,CHEVY CHASE,3555,5601,1933,913,316,,Sold,,,https://www.redfin.com/DC/Washington/3230-Military-Rd-NW-20015/home/9980913,BRIGHT MLS,DCDC426986,N,Y,38.9607907,-77.0654632
PAST SALE,August-28-2019,Single Family Residential,3378 Stephenson Pl NW,Washington,DC,20015,1055000,4,4.0,CHEVY CHASE,4239,6409,1919,829,249,,Sold,,,https://www.redfin.com/DC/Washington/3378-Stephenson-Pl-NW-20015/home/9979553,BRIGHT MLS,DCDC431642,N,Y,38.9710682,-77.0695104
PAST SALE,January-4-2019,Single Family Residential,3419 Oliver NW,Washington,DC,20015,930000,3,1.5,CHEVY CHASE,1782,6008,1912,1065,522,,Sold,,,https://www.redfin.com/DC/Washington/3419-Oliver-St-NW-20015/home/9978918,BRIGHT MLS,DCDC241262,N,Y,38.9669339,-77.0698252
PAST SALE,May-30-2019,Townhouse,4549 44th St NW,Washington,DC,20016,887500,2,1.5,AMERICAN UNIVERSITY PARK,1876,3300,1926,919,473,,Sold,,,https://www.redfin.com/DC/Washington/4549-44th-St-NW-20016/home/9956797,BRIGHT MLS,DCDC423110,N,Y,38.9492014,-77.0859568
PAST SALE,September-30-2019,Single Family Residential,5110 Worthington Dr,Bethesda,MD,20816,1050000,3,2.5,MASS AVE HEIGHTS,2462,9204,1941,796,426,,Sold,,,https://www.redfin.com/MD/Bethesda/5110-Worthington-Dr-20816/home/10636783,BRIGHT MLS,MDMC667098,N,Y,38.952949,-77.1017484
PAST SALE,April-15-2019,Single Family Residential,4603 Cooper Ln,Bethesda,MD,20816,1095000,3,2.5,BROOKDALE,2350,6456,1936,964,466,,Sold,,,https://www.redfin.com/MD/Bethesda/4603-Cooper-Ln-20816/home/10656655,BRIGHT MLS,MDMC561130,N,Y,38.9569701,-77.0928917
PAST SALE,July-12-2019,Single Family Residential,4723 Falstone Ave,Chevy Chase,MD,20815,1250000,3,3.0,SOMERSET HEIGHTS,2748,11164,1951,876,455,,Sold,,,https://www.redfin.com/MD/Chevy-Chase/4723-Falstone-Ave-20815/home/10653626,BRIGHT MLS,MDMC659926,N,Y,38.9663151,-77.0961287
PAST SALE,August-22-2019,Single Family Residential,5002 Newport Ave,Bethesda,MD,20816,1600000,6,4.5,WESTGATE,4300,7126,1937,835,372,,Sold,,,https://www.redfin.com/MD/Bethesda/5002-Newport-Ave-20816/home/10654537,BRIGHT MLS,MDMC667502,N,Y,38.9557215,-77.102153
PAST SALE,July-10-2019,Single Family Residential,5104 Cape Cod Ct,Bethesda,MD,20816,2199000,7,7.5,WESTMORELAND HILLS,8780,11837,1990,878,250,,Sold,,,https://www.redfin.com/MD/Bethesda/5104-Cape-Cod-Ct-20816/home/10698207,BRIGHT MLS,MDMC662148,N,Y,38.9519947,-77.1034343
PAST SALE,,Single Family Residential,5010 Worthington Dr,Bethesda,MD,20816,1200000,,2.5,,1770,6855,1941,,678,,,,,https://www.redfin.com/MD/Bethesda/5010-Worthington-Dr-20816/home/10655054,,,N,Y,38.9505873,-77.1007144
PAST SALE,October-1-2020,Single Family Residential,4636 Brandywine St NW,Washington,DC,20016,1237500,4,2.5,AMERICAN UNIV. PARK,1488,5751,1942,429,832,,Sold,,,https://www.redfin.com/DC/Washington/4636-Brandywine-St-NW-20016/home/9947884,BRIGHT MLS,DCDC479110,N,Y,38.9494851,-77.0919475
PAST SALE,,Single Family Residential,7 E Melrose St,Chevy Chase,MD,20815,2350000,,2.5,,3178,7500,1903,,739,,,,,https://www.redfin.com/MD/Chevy-Chase/7-E-Melrose-St-20815/home/10640679,,,N,Y,38.9722511,-77.0761206
PAST SALE,February-25-2020,Condo/Co-op,3001 Veazy Ter NW #913,Washington,DC,20008,255000,1,1.0,FOREST HILLS,1012,,1967,648,252,807,Sold,,,https://www.redfin.com/DC/Washington/3001-Veazey-Ter-NW-20008/unit-913/home/170266744,BRIGHT MLS,DCDC454222,N,Y,38.9444006,-77.0616705
PAST SALE,October-23-2021,Condo/Co-op,4740 Connecticut Ave NW #602,Washington,DC,20008,514999,2,2.0,WAKEFIELD,1094,,1956,42,471,954,Sold,,,https://www.redfin.com/DC/Washington/4740-Connecticut-Ave-NW-20008/unit-602/home/9976980,BRIGHT MLS,DCDC523352,N,Y,38.9517732,-77.0685436
PAST SALE,November-19-2019,Townhouse,3635 Ingomar Pl NW,Washington,DC,20015,850000,4,2.5,CHEVY CHASE,2140,2263,1939,746,397,,Sold,,,https://www.redfin.com/DC/Washington/3635-Ingomar-Pl-NW-20015/home/9977939,BRIGHT MLS,DCDC443206,N,Y,38.9585223,-77.0696341
PAST SALE,June-24-2021,Condo/Co-op,5600 Wisconsin Ave Unit 1-607,Chevy Chase,MD,20815,1325000,2,2.5,SOMERSET HOUSE CODM,2092,,1988,163,633,2028,Sold,,,https://www.redfin.com/MD/Chevy-Chase/5600-Wisconsin-Ave-20815/unit-1607/home/10698310,BRIGHT MLS,MDMC756636,N,Y,38.9658024,-77.0892274
PAST SALE,September-12-2019,Single Family Residential,5415 Dorset Ave,Chevy Chase,MD,20815,1350000,4,4.0,KENWOOD,2860,15999,1952,814,472,,Sold,,,https://www.redfin.com/MD/Chevy-Chase/5415-Dorset-Ave-20815/home/10650163,BRIGHT MLS,MDMC669602,N,Y,38.969829,-77.108877
PAST SALE,May-28-2019,Single Family Residential,5309 Nevada Ave NW,Washington,DC,20015,1317000,4,2.5,CHEVY CHASE,3500,4756,1931,921,376,,Sold,,,https://www.redfin.com/DC/Washington/5309-Nevada-Ave-NW-20015/home/9980985,BRIGHT MLS,DCDC423552,N,Y,38.9589519,-77.0662277
PAST SALE,June-29-2020,Townhouse,5136 Willet Bridge Rd,Bethesda,MD,20816,1400000,3,3.0,LITTLE FALLS PLACE,2644,2022,2013,523,530,262,Sold,,,https://www.redfin.com/MD/Bethesda/5136-Willet-Bridge-Rd-20816/home/49771938,BRIGHT MLS,MDMC705650,N,Y,38.9607804,-77.1043559
PAST SALE,July-1-2019,Condo/Co-op,4101 Albemarle St NW #418,Washington,DC,20016,420000,1,1.0,AMERICAN UNIVERSITY PARK,671,158,2005,887,626,252,Sold,,,https://www.redfin.com/DC/Washington/4101-Albemarle-St-NW-20016/unit-418/home/10349045,BRIGHT MLS,DCDC400526,N,Y,38.9487791,-77.0808194
PAST SALE,October-29-2021,Single Family Residential,4852 Crescent St,Bethesda,MD,20816,935000,3,2.0,CRESTVIEW,2100,4000,1937,36,445,,Sold,,,https://www.redfin.com/MD/Bethesda/4852-Crescent-St-20816/home/10644494,BRIGHT MLS,MDMC2012918,N,Y,38.9536986,-77.0966233
PAST SALE,March-12-2020,Condo/Co-op,4335 Harrison St NW #3,Washington,DC,20015,685000,2,2.0,AMERICAN UNIV. PARK,979,,2019,632,700,129,Sold,,,https://www.redfin.com/DC/Washington/4335-Harrison-St-NW-20015/unit-3/home/169552263,BRIGHT MLS,DCDC451874,N,Y,38.9572211,-77.0854915
PAST SALE,October-13-2021,Townhouse,6682 Hillandale Rd #33,Chevy Chase,MD,20815,855000,3,2.5,KENWOOD FOREST II,1408,,1951,52,607,442,Sold,,,https://www.redfin.com/MD/Bethesda/6682-Hillandale-Rd-20815/unit-33/home/10688924,BRIGHT MLS,MDMC2011104,N,Y,38.9765864,-77.0981998
PAST SALE,,Single Family Residential,3357 Stuyvesant Pl NW,Washington,DC,20015,1310000,5,3.5,,2005,5375,1923,,653,,,,,https://www.redfin.com/DC/Washington/3357-Stuyvesant-Pl-NW-20015/home/9979409,,,N,Y,38.9722652,-77.0687454
PAST SALE,June-17-2019,Condo/Co-op,5233 Connecticut Ave NW #101,Washington,DC,20015,550000,2,2.0,CHEVY CHASE,1024,628,1924,901,537,501,Sold,,,https://www.redfin.com/DC/Washington/5233-Connecticut-Ave-NW-20015/unit-101/home/22219696,BRIGHT MLS,DCDC427264,N,Y,38.958846,-77.0717138
PAST SALE,June-7-2019,Single Family Residential,4621 Hunt Ave,Chevy Chase,MD,20815,1110000,3,3.5,CHEVY CHASE GARDENS,2887,6377,1931,911,384,,Sold,,,https://www.redfin.com/MD/Chevy-Chase/4621-Hunt-Ave-20815/home/10643779,BRIGHT MLS,MDMC621388,N,Y,38.9709735,-77.0915429
PAST SALE,,Single Family Residential,5217 Cammack Dr,Bethesda,MD,20816,2000000,,4.0,,4810,16788,1963,,416,,,,,https://www.redfin.com/MD/Bethesda/5217-Cammack-Dr-20816/home/10680538,,,N,Y,38.9551046,-77.1075701
PAST SALE,October-30-2020,Single Family Residential,3254 Patterson St NW,Washington,DC,20015,1850000,5,5.0,CHEVY CHASE,,5957,1927,400,,,Sold,,,https://www.redfin.com/DC/Washington/3254-Patterson-St-NW-20015/home/9980561,BRIGHT MLS,DCDC485026,N,Y,38.967402,-77.0661377
PAST SALE,May-28-2021,Single Family Residential,4501 Cumberland Ave,Chevy Chase,MD,20815,1725000,4,4.0,SOMERSET HEIGHTS,3527,14179,1955,190,489,,Sold,,,https://www.redfin.com/MD/Chevy-Chase/4501-Cumberland-Ave-20815/home/174552554,BRIGHT MLS,MDMC2000218,N,Y,38.96877,-77.089363
PAST SALE,May-27-2021,Single Family Residential,5400 Nebraska Ave NW,Washington,DC,20015,1125000,3,2.0,CHEVY CHASE,2022,5937,1929,191,556,,Sold,,,https://www.redfin.com/DC/Washington/5400-Nebraska-Ave-NW-20015/home/9980787,BRIGHT MLS,DCDC519256,N,Y,38.9613928,-77.0661827
PAST SALE,August-15-2019,Single Family Residential,4809 Scarsdale Rd,Bethesda,MD,20816,1289000,4,3.5,SUMNER,2751,10450,1959,842,469,,Sold,,,https://www.redfin.com/MD/Bethesda/4809-Scarsdale-Rd-20816/home/10666758,BRIGHT MLS,MDMC653034,N,Y,38.953483,-77.115302
PAST SALE,July-3-2019,Single Family Residential,5604 Nevada Ave NW,Washington,DC,20015,815000,3,2.0,CHEVY CHASE,1363,3543,1926,885,598,,Sold,,,https://www.redfin.com/DC/Washington/5604-Nevada-Ave-NW-20015/home/9978846,BRIGHT MLS,DCDC425610,N,Y,38.9652155,-77.0705896
PAST SALE,May-2-2019,Single Family Residential,29 W Irving St,Chevy Chase,MD,20815,1447603,4,3.5,CHEVY CHASE SEC 2,2925,7500,1917,947,495,,Sold,,,https://www.redfin.com/MD/Chevy-Chase/29-W-Irving-St-20815/home/10640672,BRIGHT MLS,MDMC622478,N,Y,38.969594,-77.0817412
PAST SALE,April-19-2021,Single Family Residential,6707 Radnor Rd,Bethesda,MD,20817,3675000,6,8.0,BRADLEY HILLS,7126,15571,2019,229,516,,Sold,,,https://www.redfin.com/MD/Bethesda/6707-Radnor-Rd-20817/home/166453581,BRIGHT MLS,MDMC702896,N,Y,38.976178,-77.112168
PAST SALE,July-1-2019,Single Family Residential,4206 Ingomar St NW,Washington,DC,20015,1694000,4,4.5,CHEVY CHASE,3313,6738,1936,887,511,,Sold,,,https://www.redfin.com/DC/Washington/4206-Ingomar-St-NW-20015/home/9957434,BRIGHT MLS,DCDC423252,N,Y,38.9578438,-77.0826668
PAST SALE,July-11-2019,Single Family Residential,5611 Chevy Chase Pkwy NW,Washington,DC,20015,1350000,4,3.0,CHEVY CHASE,3110,7792,1919,877,434,,Sold,,,https://www.redfin.com/DC/Washington/5611-Chevy-Chase-Pkwy-NW-20015/home/9978817,BRIGHT MLS,DCDC423022,N,Y,38.9658077,-77.0715789
PAST SALE,June-15-2020,Single Family Residential,4417 Bradley Ln,Chevy Chase,MD,20815,855000,2,1.0,NORWOOD HEIGHTS,1404,7164,1923,537,609,,Sold,,,https://www.redfin.com/MD/Chevy-Chase/4417-Bradley-Ln-20815/home/10651248,BRIGHT MLS,MDMC701920,N,Y,38.9773861,-77.0883057
PAST SALE,October-1-2020,Single Family Residential,5401 Kirkwood Dr,Bethesda,MD,20816,2195000,6,6.0,WESTWOOD,5364,11223,1956,429,409,,Sold,,,https://www.redfin.com/MD/Bethesda/5401-Kirkwood-Dr-20816/home/35617805,BRIGHT MLS,MDMC736892,N,Y,38.9628759,-77.1110765
PAST SALE,February-26-2021,Single Family Residential,4711 48th St NW,Washington,DC,20016,1512000,4,4.0,AMERICAN UNIV. PARK,2655,4000,1934,281,569,,Sold,,,https://www.redfin.com/DC/Washington/4711-48th-St-NW-20016/home/9947549,BRIGHT MLS,DCDC504586,N,Y,38.9514464,-77.0940606
PAST SALE,December-2-2021,Single Family Residential,5613 Parkston Rd,Bethesda,MD,20816,1185000,4,3.0,SPRINGFIELD,2745,9019,1953,2,432,,Sold,,,https://www.redfin.com/MD/Bethesda/5613-Parkston-Rd-20816/home/10665353,BRIGHT MLS,MDMC2021042,N,Y,38.9689798,-77.1149199
PAST SALE,October-20-2021,Single Family Residential,4618 Hunt Ave,Chevy Chase,MD,20815,1000000,4,2.5,CHEVY CHASE GARDENS,2368,5201,1934,45,422,,Sold,,,https://www.redfin.com/MD/Chevy-Chase/4618-Hunt-Ave-20815/home/10643697,BRIGHT MLS,MDMC2017138,N,Y,38.9704972,-77.0912282
PAST SALE,September-30-2019,Single Family Residential,3238 Quesada St NW,Washington,DC,20015,1150000,4,3.5,CHEVY CHASE,2858,5007,1937,796,402,,Sold,,,https://www.redfin.com/DC/Washington/3238-Quesada-St-NW-20015/home/9980357,BRIGHT MLS,DCDC439860,N,Y,38.9684539,-77.0655081
PAST SALE,October-12-2021,Single Family Residential,25 Hesketh St,Chevy Chase,MD,20815,2625000,6,6.5,CHEVY CHASE SEC 2,5125,7500,1918,53,512,,Sold,,,https://www.redfin.com/MD/Chevy-Chase/25-Hesketh-St-20815/home/10641283,BRIGHT MLS,MDMC2018594,N,Y,38.9687823,-77.0820108
PAST SALE,April-30-2021,Single Family Residential,6704 Brookville Rd,Chevy Chase,MD,20815,1600000,3,2.0,CHEVY CHASE SEC 3,2428,15973,1910,218,659,,Sold,,,https://www.redfin.com/MD/Chevy-Chase/6704-Brookville-Rd-20815/home/10641559,BRIGHT MLS,MDMC759482,N,Y,38.9773188,-77.0716239
PAST SALE,October-28-2021,Condo/Co-op,4550 N Park Ave #608,Chevy Chase,MD,20815,794000,2,2.0,THE CARLETN OF CH CH COD,1314,,1982,37,604,1085,Sold,,,https://www.redfin.com/MD/Chevy-Chase/4550-N-Park-Ave-20815/unit-608/home/10695859,BRIGHT MLS,MDMC2017592,N,Y,38.9628827,-77.0907285
PAST SALE,September-20-2019,Single Family Residential,5449 33rd St NW,Washington,DC,20015,1199000,5,4.5,CHEVY CHASE,3185,5000,1930,806,376,,Sold,,,https://www.redfin.com/DC/Washington/5449-33rd-St-NW-20015/home/9980696,BRIGHT MLS,DCDC438188,N,Y,38.9628261,-77.0660927
PAST SALE,August-13-2020,Townhouse,4732 Massachusetts Ave NW,Washington,DC,20016,1150000,3,3.5,SPRING VALLEY,3476,6691,1981,478,331,,Sold,,,https://www.redfin.com/DC/Washington/4732-Massachusetts-Ave-NW-20016/home/9947225,BRIGHT MLS,DCDC467682,N,Y,38.943796,-77.0945102
PAST SALE,December-31-2018,Condo/Co-op,5630 Wisconsin Ave #502,Chevy Chase,MD,20815,2950000,3,3.0,PARC SOMERSET CODM,3400,,1999,1069,868,2884,Sold,,,https://www.redfin.com/MD/Chevy-Chase/5630-Wisconsin-Ave-20815/unit-502/home/10702053,BRIGHT MLS,1005610580,N,Y,38.9658033,-77.0906662
PAST SALE,November-15-2021,Single Family Residential,3717 Bradley Ln,Chevy Chase,MD,20815,2575000,5,4.5,CHEVY CHASE SEC 3,5565,16120,1896,19,463,,Sold,,,https://www.redfin.com/MD/Chevy-Chase/3717-Bradley-Ln-20815/home/10641723,BRIGHT MLS,MDMC2000680,N,Y,38.9768648,-77.0740072
PAST SALE,October-27-2021,Condo/Co-op,4515 Willard Ave Unit 803S,Chevy Chase,MD,20815,550000,3,2.0,WILLOUGHBY OF CH CH CODM,1643,,1968,38,335,1249,Sold,,,https://www.redfin.com/MD/Chevy-Chase/4515-Willard-Ave-20815/unit-803S/home/10692847,BRIGHT MLS,MDMC2002052,N,Y,38.9624844,-77.0898117
PAST SALE,August-13-2021,Single Family Residential,4340 Davenport St NW,Washington,DC,20016,1612000,4,3.5,AMERICAN UNIV. PARK,2700,5181,1933,113,597,,Sold,,,https://www.redfin.com/DC/Washington/4340-Davenport-St-NW-20016/home/9956983,BRIGHT MLS,DCDC2003186,N,Y,38.9518919,-77.0857466
PAST SALE,May-28-2021,Single Family Residential,5902 Kirkside Dr,Chevy Chase,MD,20815,1400000,3,2.0,CHEVY CHASE SEC 2,1542,4907,1933,190,908,,Sold,,,https://www.redfin.com/MD/Chevy-Chase/5902-Kirkside-Dr-20815/home/10641269,BRIGHT MLS,MDMC755242,N,Y,38.9679517,-77.0864471
PAST SALE,July-19-2019,Condo/Co-op,4600 Connecticut Ave NW #321,Washington,DC,20008,269900,1,1.0,WAKEFIELD,550,122,1948,869,491,416,Sold,,,https://www.redfin.com/DC/Washington/4600-Connecticut-Ave-NW-20008/unit-321/home/9976292,BRIGHT MLS,DCDC431804,N,Y,38.9502608,-77.0674492
PAST SALE,,Single Family Residential,5543 33rd St NW,Washington,DC,20015,925000,3,2.5,,1536,4226,1939,,602,,,,,https://www.redfin.com/DC/Washington/5543-33rd-St-NW-20015/home/9980685,,,N,Y,38.9647207,-77.0661827
PAST SALE,January-27-2021,Condo/Co-op,3879 Rodman St NW Unit A61,Washington,DC,20016,400000,1,1.5,CLEVELAND PARK,1076,,1942,311,372,567,Sold,,,https://www.redfin.com/DC/Washington/3879-Rodman-St-NW-20016/unit-A61/home/9968375,BRIGHT MLS,DCDC468074,N,Y,38.939151,-77.0774501
PAST SALE,April-12-2021,Single Family Residential,5305 Falmouth Rd,Bethesda,MD,20816,1526500,4,3.5,WESTMORELAND HILLS,2700,6697,1956,236,565,,Sold,,,https://www.redfin.com/MD/Bethesda/5305-Falmouth-Rd-20816/home/10655692,BRIGHT MLS,MDMC747278,N,Y,38.9524099,-77.1073229
PAST SALE,February-7-2020,Single Family Residential,4015 Bradley Ln,Chevy Chase,MD,20815,2255000,6,4.5,CHEVY CHASE SEC 4,5800,18022,1923,666,389,,Sold,,,https://www.redfin.com/MD/Chevy-Chase/4015-Bradley-Ln-20815/home/10642176,BRIGHT MLS,MDMC676900,N,Y,38.9770725,-77.0803248
PAST SALE,,Single Family Residential,4105 Bradley Ln,Chevy Chase,MD,20815,1506000,,3.5,,4389,13000,1928,,343,,,,,https://www.redfin.com/MD/Chevy-Chase/4105-Bradley-Ln-20815/home/10642183,,,N,Y,38.9770857,-77.0813365
PAST SALE,February-3-2020,Condo/Co-op,5630 Wisconsin Ave #202,Chevy Chase,MD,20815,2515300,3,3.5,PARC SOMERSET CODM,3400,,1999,670,740,3184,Sold,,,https://www.redfin.com/MD/Chevy-Chase/5630-Wisconsin-Ave-20815/unit-202/home/10701991,BRIGHT MLS,MDMC623806,N,Y,38.9658033,-77.0906662
PAST SALE,September-10-2021,Condo/Co-op,4601 N Park Ave #105,Chevy Chase,MD,20815,210000,1,1.0,THE ELIZABETH,708,,1975,85,297,837,Sold,,,https://www.redfin.com/MD/Chevy-Chase/4601-N-Park-Ave-20815/unit-105/home/10684265,BRIGHT MLS,MDMC754282,N,Y,38.963879,-77.0913855
PAST SALE,April-5-2019,Townhouse,6662 Hillandale Rd,Chevy Chase,MD,20815,840000,4,3.5,KENWOOD FOREST II,2112,,1951,974,398,538,Sold,,,https://www.redfin.com/MD/Bethesda/6662-Hillandale-Rd-20815/unit-42/home/10688940,BRIGHT MLS,MDMC499168,N,Y,38.976532,-77.098521
PAST SALE,November-5-2020,Single Family Residential,102 Oxford St,Chevy Chase,MD,20815,2145000,5,4.5,CHEVY CHASE SEC 6 & 7,3146,12167,1923,394,682,,Sold,,,https://www.redfin.com/MD/Chevy-Chase/102-Oxford-St-20815/home/10643187,BRIGHT MLS,MDMC726804,N,Y,38.9737263,-77.0721185
PAST SALE,June-23-2020,Single Family Residential,111 Primrose St,Chevy Chase,MD,20815,1350000,5,3.5,CHEVY CHASE SEC 6 & 7,2886,12196,1923,529,468,,Sold,,,https://www.redfin.com/MD/Chevy-Chase/111-Primrose-St-20815/home/10643183,BRIGHT MLS,MDMC703856,N,Y,38.9749782,-77.0715711
PAST SALE,June-25-2019,Single Family Residential,208 Primrose St,Chevy Chase,MD,20815,1750000,6,4.5,CHEVY CHASE SEC 6 & 7,4334,8458,1930,893,404,,Sold,,,https://www.redfin.com/MD/Chevy-Chase/208-Primrose-St-20815/home/10643251,BRIGHT MLS,MDMC661324,N,Y,38.9734139,-77.07005
PAST SALE,October-11-2019,Single Family Residential,4716 48th St NW,Washington,DC,20016,1220000,5,2.5,AMERICAN UNIVERSITY PARK,2776,4780,1890,785,439,,Sold,,,https://www.redfin.com/DC/Washington/4716-48th-St-NW-20016/home/9946043,BRIGHT MLS,DCDC435086,N,Y,38.9517023,-77.0945552
PAST SALE,May-28-2021,Condo/Co-op,3001 Veazey Ter NW #1303,Washington,DC,20008,325000,1,1.0,FOREST HILLS,1070,,1967,190,304,913,Sold,,,https://www.redfin.com/DC/Washington/3001-Veazey-Ter-NW-20008/unit-1303/home/49679523,BRIGHT MLS,DCDC517528,N,Y,38.9444006,-77.0616705
PAST SALE,November-17-2020,Single Family Residential,5019 Linnean Ave NW,Washington,DC,20008,2350000,5,4.5,FOREST HILLS,5100,8056,1941,382,461,,Sold,,,https://www.redfin.com/DC/Washington/5019-Linnean-Ave-NW-20008/home/9992424,BRIGHT MLS,DCDC488768,N,Y,38.9548532,-77.0632054
PAST SALE,,Single Family Residential,7 E Kirke St,Chevy Chase,MD,20815,2185000,,4.5,,4455,7500,1970,,490,,,,,https://www.redfin.com/MD/Chevy-Chase/7-E-Kirke-St-20815/home/10641263,,,N,Y,38.9705471,-77.0759407
PAST SALE,January-21-2020,Single Family Residential,20 W Irving St,Chevy Chase,MD,20815,2595000,5,4.5,CHEVY CHASE SEC 2,4250,7500,1913,683,611,,Sold,,,https://www.redfin.com/MD/Chevy-Chase/20-W-Irving-St-20815/home/10641250,BRIGHT MLS,MDMC689696,N,Y,38.9691273,-77.0807969
