SALE TYPE,SOLD DATE,PROPERTY TYPE,ADDRESS,CITY,STATE OR PROVINCE,ZIP OR POSTAL CODE,PRICE,BEDS,BATHS,LOCATION,SQUARE FEET,LOT SIZE,YEAR BUILT,DAYS ON MARKET,$/SQUARE FEET,HOA/MONTH,STATUS,NEXT OPEN HOUSE START TIME,NEXT OPEN HOUSE END TIME,URL (SEE https://www.redfin.com/buy-a-home/comparative-market-analysis FOR INFO ON PRICING),SOURCE,MLS#,FAVORITE,INTERESTED,LATITUDE,LONGITUDE
PAST SALE,May-17-2019,Single Family Residential,912 Baldwin Rd,Henrico,VA,23229,608500,5,3.0,Rollingwood,3519,12196,1954,933,173,,Sold,,,https://www.redfin.com/VA/Richmond/912-Baldwin-Rd-23229/home/59666609,CVRMLS,1909278,N,Y,37.590825,-77.547653
PAST SALE,September-22-2021,Single Family Residential,8007 Yolanda Rd,Henrico,VA,23229,478000,4,2.5,Skipwith Farms,2217,17859,1959,74,216,,Sold,,,https://www.redfin.com/VA/Richmond/8007-Yolanda-Rd-23229/home/59652451,CVRMLS,2126404,N,Y,37.6114637,-77.5510601
PAST SALE,April-28-2020,Single Family Residential,1107 Skipwith Rd,Richmond,VA,23229,379000,4,2.0,Clovelly Gardens,1652,10018,1949,586,229,,Sold,,,https://www.redfin.com/VA/Richmond/1107-Skipwith-Rd-23229/home/59666937,CVRMLS,2007651,N,Y,37.5954419,-77.5385424
MLS Listing,,Single Family Residential,8724 Holly Hill Rd,Henrico,VA,23229,345000,3,2.0,Ridgecrest,1245,12196,1956,3,277,,Active,,,https://www.redfin.com/VA/Richmond/8724-Holly-Hill-Rd-23229/home/59658480,CVRMLS,2134734,N,Y,37.5994875,-77.5699347
MLS Listing,,Single Family Residential,825 Westham Pkwy,Henrico,VA,23229,599950,4,3.5,Westham,3533,27007,1954,7,170,,Active,December-5-2021 01:00 PM,December-5-2021 03:00 PM,https://www.redfin.com/VA/Richmond/825-Westham-Pkwy-23229/home/59667158,CVRMLS,2134813,N,Y,37.5872613,-77.5428868
MLS Listing,,Single Family Residential,7305 Parkline Dr,Richmond,VA,23226,265000,3,1.0,Fort Hill,864,11761,1951,38,307,,Active,,,https://www.redfin.com/VA/Richmond/7305-Parkline-Dr-23226/home/59660523,CVRMLS,2132604,N,Y,37.5979882,-77.534097
MLS Listing,,Single Family Residential,1601 Brigham Rd,Richmond,VA,23226,375000,3,3.0,Fort Hill,2628,12632,1951,38,143,,Active,,,https://www.redfin.com/VA/Richmond/1601-Brigham-Rd-23226/home/59660447,CVRMLS,2132430,N,Y,37.6017045,-77.5323614
MLS Listing,,Single Family Residential,8801 Dena Dr,Henrico,VA,23229,324000,3,2.0,Ridgehaven,1630,18295,1956,39,199,,Active,December-11-2021 02:00 PM,December-11-2021 04:00 PM,https://www.redfin.com/VA/Richmond/8801-Dena-Dr-23229/home/59658692,CVRMLS,2132785,N,Y,37.6055079,-77.562233
MLS Listing,,Single Family Residential,1001 Roxbury Rd,Richmond,VA,23226,459950,3,2.0,Monument Hills,1500,15245,1953,40,307,,Active,,,https://www.redfin.com/VA/Richmond/1001-Roxbury-Rd-23226/home/59667999,CVRMLS,2132665,N,Y,37.5888661,-77.5241644
MLS Listing,,Condo/Co-op,2751 St. Elias Dr Unit A,Henrico,VA,23294,344790,2,2.5,West Broad Landing,1608,,2021,40,214,180,Active,,,https://www.redfin.com/VA/Henrico/2751-Saint-Elias-Dr-23294/unit-A/home/176967300,CVRMLS,2132592,N,Y,37.6152859,-77.5237841
MLS Listing,,Condo/Co-op,2745 St. Elias Dr Unit A,Henrico,VA,23294,324209,2,2.5,West Broad Landing,1608,,2021,47,202,180,Active,,,https://www.redfin.com/VA/Henrico/2745-Saint-Elias-Dr-23294/unit-A/home/176769592,CVRMLS,2131961,N,Y,37.6152487,-77.5240148
MLS Listing,,Single Family Residential,913 Ridge Top Rd,Henrico,VA,23229,545000,4,3.0,Westhampton Hills,2250,17424,1955,52,242,,Active,,,https://www.redfin.com/VA/Richmond/913-Ridge-Top-Rd-23229/home/59667295,CVRMLS,2130587,N,Y,37.5888409,-77.5358103
MLS Listing,,Single Family Residential,1411 Myradare Dr,Henrico,VA,23229,295000,2,1.0,Beverly Hills,816,10454,1952,61,362,,Active,,,https://www.redfin.com/VA/Richmond/1411-Myradare-Dr-23229/home/59659359,CVRMLS,2130141,N,Y,37.5990422,-77.5526946
MLS Listing,,Vacant Land,0 Midway Rd,Henrico,VA,23229,99000,,,Westhampton Settlement,,15245,,81,,,Active,,,https://www.redfin.com/VA/HENRICO/MIDWAY-RD-23229/home/59664833,CVRMLS,2128395,N,Y,37.591038,-77.571477
MLS Listing,,Single Family Residential,8710 Midway Rd,Henrico,VA,23229,199000,2,1.0,Westhampton Settlement,765,8712,1944,81,260,,Active,,,https://www.redfin.com/VA/Richmond/8710-Midway-Rd-23229/home/59664858,CVRMLS,2128391,N,Y,37.591041,-77.571213
MLS Listing,,Condo/Co-op,1609 Foster Rd,Henrico,VA,23226,290000,3,2.0,Berkshire Park,1776,11761,1954,116,163,,Active,,,https://www.redfin.com/VA/Richmond/1609-Foster-Rd-23226/home/59659881,CVRMLS,2124299,N,Y,37.6023349,-77.5336603
For-Sale-by-Owner Listing,,Single Family Residential,2101 Dresden Rd,Richmond,VA,23229,469000,4,4.0,Henrico,2475,19602,1959,170,189,,Active,,,https://www.redfin.com/VA/Richmond/2101-Dresden-Rd-23229/home/59642180,Fizber.com,11440429,N,Y,37.6188117,-77.5606209
New Construction Plan,,Multi-Family (2-4 Unit),The Paxton,Henrico,VA,23294,349990,3,2.5,West Broad Landing,2500,,,,140,,Active,,,https://www.redfin.com/VA/Henrico/West-Broad-Landing/The-Paxton/home/177219726,NewHomeSource.com,Plan-171667739,N,Y,37.613803,-77.525299
New Construction Plan,,Multi-Family (2-4 Unit),The Williams,Henrico,VA,23294,319990,2,2.5,West Broad Landing,1590,,,,201,,Active,,,https://www.redfin.com/VA/Henrico/West-Broad-Landing/The-Williams/home/177185893,NewHomeSource.com,Plan-171667738,N,Y,37.613803,-77.525299
PAST SALE,September-10-2019,Single Family Residential,6609 Van Buren Ave,,VA,23226,335000,3,2.0,Monument Hills,,,1953,817,,,Sold,,,https://www.redfin.com/VA/Richmond/6609-Van-Buren-Ave-23226/home/59668013,CVRMLS,1931306,N,Y,37.5883851,-77.5261801
PAST SALE,,Condo/Co-op,8104 E Greystone Cir,Richmond,VA,23229,335000,3,3.0,,1723,,1986,,194,,,,,https://www.redfin.com/VA/Richmond/8104-E-Greystone-Cir-23229/home/59672535,,,N,Y,37.5834682,-77.5577652
PAST SALE,June-28-2021,Single Family Residential,6407 Stuart Ave,Richmond,VA,23226,275000,2,1.0,Westhampton Heights Annex,864,7405,1950,160,318,,Sold,,,https://www.redfin.com/VA/Richmond/6407-Stuart-Ave-23226/home/55450996,CVRMLS,2117273,N,Y,37.5833772,-77.5247821
PAST SALE,July-12-2021,Single Family Residential,7605 Winkler Rd,Henrico,VA,23294,310000,4,2.5,Sweetbriar Park,1983,11761,1966,146,156,,Sold,,,https://www.redfin.com/VA/Richmond/7605-Winkler-Rd-23294/home/59643540,CVRMLS,2116996,N,Y,37.6187344,-77.5402331
PAST SALE,March-29-2019,Single Family Residential,7616 Hollins Rd,Henrico,VA,23229,610000,4,3.5,Rollingwood,3181,15245,1941,982,192,,Sold,,,https://www.redfin.com/VA/Richmond/7616-Hollins-Rd-23229/home/59666367,CVRMLS,1906231,N,Y,37.5923076,-77.5433346
PAST SALE,April-12-2019,Single Family Residential,8504 Bentridge Ln,Henrico,VA,23229,299000,4,3.0,Westbury Estates,1984,16988,1955,968,151,,Sold,,,https://www.redfin.com/VA/Richmond/8504-Bentridge-Ln-23229/home/59658795,CVRMLS,1905143,N,Y,37.6054367,-77.5535007
PAST SALE,December-9-2019,Single Family Residential,1411 Severn Rd,Henrico,VA,23229,265000,3,1.5,Forest Heights,1536,11761,1948,727,173,,Sold,,,https://www.redfin.com/VA/Richmond/1411-Severn-Rd-23229/home/59659735,CVRMLS,1931845,N,Y,37.5986685,-77.5445887
PAST SALE,August-13-2021,Single Family Residential,1804 N Parham Rd,Richmond,VA,23229,267000,3,2.5,,1735,16117,1947,114,154,,Sold,,,https://www.redfin.com/VA/Richmond/1804-N-Parham-Rd-23229/home/59651424,CVRMLS,2117630,N,Y,37.612786,-77.5632629
PAST SALE,July-23-2021,Single Family Residential,504 Raleigh Manor Rd,Henrico,VA,23229,1078000,5,3.5,Raleigh,4704,41382,2007,135,229,108,Sold,,,https://www.redfin.com/VA/Richmond/504-Raleigh-Manor-Rd-23229/home/59603321,CVRMLS,2106867,N,Y,37.5835057,-77.5731809
PAST SALE,May-31-2019,Single Family Residential,6900 Staunton Ave,Henrico,VA,23226,364950,4,2.5,Crestview,2330,10018,2001,919,157,25,Sold,,,https://www.redfin.com/VA/Richmond/6900-Staunton-Ave-23226/home/59660630,CVRMLS,1909703,N,Y,37.5993762,-77.5224622
PAST SALE,October-2-2020,Single Family Residential,6734 Kensington Ave,Richmond,VA,23226,349950,4,2.0,College View,1630,8712,1948,429,215,,Sold,,,https://www.redfin.com/VA/Richmond/6734-Kensington-Ave-23226/home/55450663,CVRMLS,2025307,N,Y,37.5885237,-77.5296201
PAST SALE,,Single Family Residential,416 Poplar Hill Ct,Richmond,VA,23229,609000,4,2.5,,2632,12306,1988,,231,,,,,https://www.redfin.com/VA/Richmond/416-Poplar-Hill-Ct-23229/home/59671733,,,N,Y,37.5836609,-77.5648301
PAST SALE,May-25-2021,Single Family Residential,7307 Parkline Dr,Henrico,VA,23226,305298,3,2.0,Fort Hill,1150,12196,1951,194,265,,Sold,,,https://www.redfin.com/VA/Richmond/7307-Parkline-Dr-23226/home/59660524,CVRMLS,2106976,N,Y,37.5980893,-77.5342762
PAST SALE,May-15-2019,Single Family Residential,2325 Timberwood Pl,Henrico,VA,23294,289000,4,2.5,Thousand Oaks,1936,20037,1980,935,149,,Sold,,,https://www.redfin.com/VA/Richmond/2325-Timberwood-Pl-23294/home/59653013,CVRMLS,1908063,N,Y,37.6158448,-77.532451
PAST SALE,November-5-2021,Condo/Co-op,2661 St. Elias Dr Unit A,Henrico,VA,23294,324990,2,2.5,West Broad Landing,1608,,2021,30,202,180,Sold,,,https://www.redfin.com/VA/Henrico/2661-Saint-Elias-Dr-23294/unit-A/home/174959615,CVRMLS,2110712,N,Y,37.613803,-77.525299
PAST SALE,October-7-2019,Single Family Residential,902 Pine Ridge Rd,Richmond,VA,23226,375000,4,2.0,Pine Ridge,1754,6534,1941,790,214,,Sold,,,https://www.redfin.com/VA/Richmond/902-Pine-Ridge-Rd-23226/home/55450627,CVRMLS,1929172,N,Y,37.5855123,-77.5226862
PAST SALE,,Condo/Co-op,522 St Albans Way,Richmond,VA,23229,629000,3,3.0,,2533,,1988,,248,,,,,https://www.redfin.com/VA/Richmond/522-St-Albans-Way-23229/home/59672523,,,N,Y,37.583854,-77.560079
PAST SALE,,Single Family Residential,9002 Fawn Ln,Richmond,VA,23229,275000,3,2.5,,1940,12225,1960,,142,,,,,https://www.redfin.com/VA/Richmond/9002-Fawn-Ln-23229/home/59651664,,,N,Y,37.6100869,-77.5613822
PAST SALE,October-18-2021,Single Family Residential,1313 Foster Rd,Henrico,VA,23226,400000,4,2.0,Buckingham Park,1752,10018,1954,48,228,,Sold,,,https://www.redfin.com/VA/Richmond/1313-Foster-Rd-23226/home/59659991,CVRMLS,2125980,N,Y,37.5979459,-77.5351384
PAST SALE,August-13-2019,Single Family Residential,2005 Le Suer Rd,Henrico,VA,23229,279500,3,1.5,Skipwith Farms,1418,16552,1959,845,197,,Sold,,,https://www.redfin.com/VA/Richmond/2005-Le-Suer-Rd-23229/home/59652429,CVRMLS,1920358,N,Y,37.612008,-77.5471414
PAST SALE,,Single Family Residential,7501 Broadmoor Dr,Richmond,VA,23229,191000,4,2.0,,1892,13870,1957,,101,,,,,https://www.redfin.com/VA/Richmond/7501-Broadmoor-Dr-23229/home/59652711,,,N,Y,37.6082565,-77.5380945
PAST SALE,January-29-2021,Single Family Residential,7503 Schaaf Dr,Henrico,VA,23229,331000,4,2.0,Westgate,1771,10018,1956,310,187,,Sold,,,https://www.redfin.com/VA/Richmond/7503-Schaaf-Dr-23229/home/59660115,CVRMLS,2037832,N,Y,37.6056133,-77.5382737
PAST SALE,October-20-2021,Single Family Residential,2307 Bogan Rd,Henrico,VA,23294,320000,3,2.5,Sweetbriar Park,1737,10890,1965,46,184,,Sold,,,https://www.redfin.com/VA/Richmond/2307-Bogan-Rd-23294/home/59643545,CVRMLS,2121569,N,Y,37.6178446,-77.5389007
PAST SALE,February-19-2020,Single Family Residential,407 Anneslie Ct,Henrico,VA,23229,669000,4,3.5,Whitehall,3788,13939,1988,655,177,7,Sold,,,https://www.redfin.com/VA/Richmond/407-Anneslie-Ct-23229/home/59671750,CVRMLS,1934075,N,Y,37.5836634,-77.5625464
PAST SALE,June-3-2020,Condo/Co-op,8139 Greystone East Cir,Richmond,VA,23229,355000,3,3.0,Greystone Condominium,1614,1306,1986,550,220,420,Sold,,,https://www.redfin.com/VA/Richmond/8139-E-Greystone-Cir-23229/home/59672365,CVRMLS,2008721,N,Y,37.5834682,-77.5577652
PAST SALE,October-20-2021,Condo/Co-op,2614 Lassen Walk Unit A,Henrico,VA,23294,300000,2,2.5,West Broad Landing,1621,,2020,46,185,160,Sold,,,https://www.redfin.com/VA/Henrico/2614-Lassen-Pl-23294/unit-A/home/171054277,CVRMLS,2126193,N,Y,37.613892,-77.52487
PAST SALE,July-16-2021,Single Family Residential,1812 Haviland Dr,Henrico,VA,23229,325000,4,2.0,Windsordale,1687,10890,1961,142,193,,Sold,,,https://www.redfin.com/VA/Richmond/1812-Haviland-Dr-23229/home/59642322,CVRMLS,2117591,N,Y,37.618948,-77.566385
PAST SALE,October-1-2021,Single Family Residential,1907 Sweetwater Ln,Henrico,VA,23229,364000,4,2.5,Three Chopt Estates,2408,11761,1964,65,151,,Sold,,,https://www.redfin.com/VA/Richmond/1907-Sweetwater-Ln-23229/home/59642287,CVRMLS,2123895,N,Y,37.6204957,-77.5679646
PAST SALE,September-10-2021,Single Family Residential,2214 Milbank Rd,Henrico,VA,23229,358000,4,2.0,West Lawn,1856,10890,1966,86,193,,Sold,,,https://www.redfin.com/VA/Richmond/2214-Milbank-Rd-23229/home/59652651,CVRMLS,2117295,N,Y,37.6174901,-77.5486193
PAST SALE,,Single Family Residential,8505 Weldon Dr,Richmond,VA,23229,128750,3,1.0,,1008,10065,1954,,128,,,,,https://www.redfin.com/VA/Richmond/8505-Weldon-Dr-23229/home/59659137,,,N,Y,37.5960562,-77.5627255
PAST SALE,January-22-2019,Single Family Residential,8500 Weldon Dr,Henrico,VA,23229,195000,3,1.0,Beverly Hills,1160,12632,1954,1048,168,,Sold,,,https://www.redfin.com/VA/Richmond/8500-Weldon-Dr-23229/home/59659191,CVRMLS,1838300,N,Y,37.5963657,-77.5617852
PAST SALE,August-16-2021,Single Family Residential,8717 Weldon Dr,Henrico,VA,23229,303000,3,1.0,Ridgecrest,1245,11325,1955,111,243,,Sold,,,https://www.redfin.com/VA/Richmond/8717-Weldon-Dr-23229/home/59658560,CVRMLS,2119555,N,Y,37.5972084,-77.5693078
PAST SALE,July-9-2021,Single Family Residential,1821 N Parham Rd,Henrico,VA,23229,281000,3,2.5,Westdale Estates,1946,11761,1959,149,144,,Sold,,,https://www.redfin.com/VA/Richmond/1821-N-Parham-Rd-23229/home/59651482,CVRMLS,2116288,N,Y,37.6141534,-77.5618747
PAST SALE,September-6-2019,Single Family Residential,1900 Sweetwater Ln,Richmond,VA,23229,323800,4,2.0,Three Chopt Estates,2273,13939,1964,821,142,,Sold,,,https://www.redfin.com/VA/Richmond/1900-Sweetwater-Ln-23229/home/59642663,CVRMLS,1922755,N,Y,37.6204969,-77.5691287
PAST SALE,April-27-2021,Single Family Residential,6906 Miami Ave,Richmond,VA,23226,365000,3,2.5,Charles Glen,1721,7840,2000,222,212,25,Sold,,,https://www.redfin.com/VA/Richmond/6906-Miami-Ave-23226/home/59661137,CVRMLS,2106027,N,Y,37.5972616,-77.5245227
PAST SALE,May-15-2019,Single Family Residential,1004 Forest Ave,Henrico,VA,23229,500000,5,3.5,University Heights,3388,32234,1975,935,148,,Sold,,,https://www.redfin.com/VA/Richmond/1004-Forest-Ave-23229/home/59665993,CVRMLS,1906270,N,Y,37.5918386,-77.5504555
PAST SALE,April-25-2019,Single Family Residential,8108 Three Chopt Rd,Henrico,VA,23229,250000,4,2.0,Cheswick Farm,1857,20473,1942,955,135,,Sold,,,https://www.redfin.com/VA/Richmond/8108-Three-Chopt-Rd-23229/home/59658856,CVRMLS,1905717,N,Y,37.6011111,-77.5504166
PAST SALE,,Single Family Residential,1511 Baysdale Ln,Richmond,VA,23229,287100,3,2.0,,1628,12217,1954,,176,,,,,https://www.redfin.com/VA/Richmond/1511-Baysdale-Ln-23229/home/59658985,,,N,Y,37.6032909,-77.554889
PAST SALE,January-31-2019,Single Family Residential,8205 Michael Rd,Henrico,VA,23229,244400,3,1.5,Michael Hills,1620,16552,1954,1039,151,,Sold,,,https://www.redfin.com/VA/Richmond/8205-Michael-Rd-23229/home/59652303,CVRMLS,1841543,N,Y,37.6098694,-77.5543516
PAST SALE,July-1-2021,Single Family Residential,8412 Yolanda Rd,Henrico,VA,23229,315000,4,3.5,Westdale Estates,2323,11761,1958,157,136,,Sold,,,https://www.redfin.com/VA/Richmond/8412-Yolanda-Rd-23229/home/59651941,CVRMLS,2114917,N,Y,37.6136363,-77.559052
PAST SALE,,Single Family Residential,8404 Gaylord Rd,Richmond,VA,23229,235000,3,1.5,,1748,13675,1957,,134,,,,,https://www.redfin.com/VA/Richmond/8404-Gaylord-Rd-23229/home/59651943,,,N,Y,37.614155,-77.5576654
PAST SALE,June-4-2021,Single Family Residential,2122 Dresden Rd,Henrico,VA,23229,357000,4,2.5,Chestnut Oaks,1878,9583,1992,184,190,,Sold,,,https://www.redfin.com/VA/Richmond/2122-Dresden-Rd-23229/home/59643731,CVRMLS,2112875,N,Y,37.6204029,-77.5594119
PAST SALE,April-16-2019,Single Family Residential,1400 Bobbiedell Ln,Henrico,VA,23229,285000,3,2.0,Forest Heights,1404,15245,1979,964,203,,Sold,,,https://www.redfin.com/VA/Richmond/1400-Bobbiedell-Ln-23229/home/59659559,CVRMLS,1904607,N,Y,37.5983908,-77.5481267
PAST SALE,September-29-2021,Single Family Residential,1208 Foxcroft Rd,Henrico,VA,23229,270000,2,1.0,Sterlingwood,923,9147,1949,67,293,,Sold,,,https://www.redfin.com/VA/Richmond/1208-Foxcroft-Rd-23229/home/59659675,CVRMLS,2123292,N,Y,37.5965955,-77.5424389
PAST SALE,October-29-2021,Condo/Co-op,2636 Lassen Walk Unit A,Henrico,VA,23294,337913,2,2.5,West Broad Landing,1608,,2021,37,210,180,Sold,,,https://www.redfin.com/VA/HENRICO/2636-LASSEN-WALK-23294/unit-A/home/173809687,CVRMLS,2129024,N,Y,37.6157,-77.5314
PAST SALE,,Single Family Residential,7602 Winkler Rd,Richmond,VA,23294,227935,3,2.0,,1465,17450,1992,,156,,,,,https://www.redfin.com/VA/Richmond/7602-Winkler-Rd-23294/home/59643537,,,N,Y,37.6191559,-77.5402991
PAST SALE,,Single Family Residential,2409 Vollmer Rd,Richmond,VA,23229,293500,4,2.5,,2145,20269,1971,,137,,,,,https://www.redfin.com/VA/Richmond/2409-Vollmer-Rd-23229/home/59643506,,,N,Y,37.6189678,-77.5474997
PAST SALE,November-13-2020,Single Family Residential,7726 Brookside Rd,Henrico,VA,23229,505000,3,2.5,Westham,2454,13068,1951,387,206,,Sold,,,https://www.redfin.com/VA/Richmond/7726-Brookside-Rd-23229/home/59666728,CVRMLS,2030617,N,Y,37.5876773,-77.5467831
PAST SALE,August-31-2021,Single Family Residential,509 Chantecler Ave,Richmond,VA,23226,384000,3,2.0,,1540,8276,1967,96,249,,Sold,,,https://www.redfin.com/VA/Richmond/509-Chantecler-Ave-23226/home/55451285,CVRMLS,2120895,N,Y,37.5829455,-77.5262697
PAST SALE,June-22-2020,Single Family Residential,6202 Patterson Ave,Richmond,VA,23226,390000,4,1.5,Westview Manor,1520,10890,1946,531,257,,Sold,,,https://www.redfin.com/VA/Richmond/6202-Patterson-Ave-23226/home/55450507,CVRMLS,2013626,N,Y,37.5838587,-77.5203456
PAST SALE,June-25-2019,Single Family Residential,2214 Nortonia Rd,Richmond,VA,23229,239900,3,2.0,Cavalier Park,1763,16552,1956,894,136,,Sold,,,https://www.redfin.com/VA/Richmond/2214-Nortonia-Rd-23229/home/59653186,CVRMLS,1915462,N,Y,37.6144442,-77.5465592
PAST SALE,March-10-2021,Single Family Residential,1204 Hillside Ave,Henrico,VA,23229,245000,2,1.0,Sterlingwood,827,11325,1948,270,296,,Sold,,,https://www.redfin.com/VA/Richmond/1204-Hillside-Ave-23229/home/59659697,CVRMLS,2101765,N,Y,37.5958395,-77.5415415
PAST SALE,March-25-2020,Condo/Co-op,2502 Skeet St,Henrico,VA,23294,235100,3,1.5,West Wistar,1702,15245,1963,620,138,,Sold,,,https://www.redfin.com/VA/Richmond/2502-Skeet-St-23294/home/59653398,CVRMLS,2003785,N,Y,37.6172711,-77.5285541
PAST SALE,November-6-2020,Single Family Residential,7016 Miami Ave,Henrico,VA,23226,256000,4,1.0,Charles Glen,1149,8276,1947,394,223,,Sold,,,https://www.redfin.com/VA/Richmond/7016-Miami-Ave-23226/home/59661162,CVRMLS,2025999,N,Y,37.5984832,-77.5274231
PAST SALE,August-18-2021,Single Family Residential,8705 Rolando Dr,Henrico,VA,23229,300000,3,2.5,Ridgecrest,1989,11761,1955,109,151,,Sold,,,https://www.redfin.com/VA/Richmond/8705-Rolando-Dr-23229/home/59658594,CVRMLS,2119766,N,Y,37.5980591,-77.5682556
PAST SALE,August-18-2021,Single Family Residential,8804 Lawndell Rd,Henrico,VA,23229,325000,4,2.5,Wedgewood Park,2125,11761,1961,109,153,,Sold,,,https://www.redfin.com/VA/Richmond/8804-Lawndell-Rd-23229/home/59642202,CVRMLS,2118347,N,Y,37.6196286,-77.5629047
PAST SALE,August-17-2021,Single Family Residential,1709 Pamela Dr,Henrico,VA,23229,250000,3,1.0,Michael Hills Addition,1104,13068,1955,110,226,,Sold,,,https://www.redfin.com/VA/Richmond/1709-Pamela-Dr-23229/home/59652279,CVRMLS,2117351,N,Y,37.6088493,-77.5551141
PAST SALE,August-18-2021,Single Family Residential,1101 W Durwood Cres,Henrico,VA,23229,500000,4,3.0,Sunset Hills,2030,11761,1966,109,246,,Sold,,,https://www.redfin.com/VA/Richmond/1101-W-Durwood-Cres-23229/home/59666909,CVRMLS,2119414,N,Y,37.5937009,-77.5362605
PAST SALE,August-17-2021,Single Family Residential,2511 Wistar St,Richmond,VA,23294,280000,3,1.5,West Wistar,1437,10890,1952,110,195,,Sold,,,https://www.redfin.com/VA/Richmond/2511-Wistar-St-23294/home/59643671,CVRMLS,2118799,N,Y,37.6178928,-77.5282406
PAST SALE,August-20-2021,Single Family Residential,6606 Van Buren Ave,Henrico,VA,23226,345000,3,1.0,Monument Hills,1148,8276,1953,107,301,,Sold,,,https://www.redfin.com/VA/Richmond/6606-Van-Buren-Ave-23226/home/59668039,CVRMLS,2120724,N,Y,37.5886288,-77.525777
PAST SALE,August-18-2021,Single Family Residential,6907 Vanderbilt Ave,Richmond,VA,23226,387500,3,2.5,Crestview,1682,7840,2000,109,230,25,Sold,,,https://www.redfin.com/VA/Richmond/6907-Vanderbilt-Ave-23226/home/59661130,CVRMLS,2121351,N,Y,37.5976425,-77.524254
PAST SALE,December-6-2019,Single Family Residential,1213 Beverly Dr,Henrico,VA,23229,316500,3,2.0,Beverly Hills,1636,10018,1959,730,193,,Sold,,,https://www.redfin.com/VA/Richmond/1213-Beverly-Dr-23229/home/59659457,CVRMLS,1934657,N,Y,37.596979,-77.5524595
PAST SALE,July-18-2019,Single Family Residential,2205 Fordson Rd,Henrico,VA,23229,213000,3,1.0,Walnut Knoll,1296,13503,1939,871,164,,Sold,,,https://www.redfin.com/VA/Richmond/2205-Fordson-Rd-23229/home/59652930,CVRMLS,1918302,N,Y,37.617078,-77.5516646
PAST SALE,August-31-2020,Single Family Residential,8311 Lansdowne Rd,Richmond,VA,23229,389000,5,3.5,Fordson Acres,4490,57499,1963,461,87,,Sold,,,https://www.redfin.com/VA/Richmond/8311-Lansdowne-Rd-23229/home/59642849,CVRMLS,2017388,N,Y,37.6198511,-77.5515899
PAST SALE,November-6-2020,Single Family Residential,8315 Lansdowne Rd,Henrico,VA,23229,355000,3,2.0,Fordson Acres,2800,27442,1959,394,127,,Sold,,,https://www.redfin.com/VA/Richmond/8315-Lansdowne-Rd-23229/home/59642848,CVRMLS,2026037,N,Y,37.6200554,-77.5519333
PAST SALE,,Single Family Residential,6 Paris Ridge Ln,Richmond,VA,23229,977000,7,5.5,,5488,11805,2010,,178,,,,,https://www.redfin.com/VA/Richmond/6-Paris-Ridge-Ln-23229/home/59607363,,,N,Y,37.5867991,-77.5504555
PAST SALE,October-24-2019,Single Family Residential,7 Paris Ridge Ln,Henrico,VA,23229,969500,5,4.5,Westham,5493,52707,2008,773,176,,Sold,,,https://www.redfin.com/VA/Richmond/7-Paris-Ridge-Ln-23229/home/59607360,CVRMLS,1927832,N,Y,37.5873717,-77.5502539
PAST SALE,April-1-2021,Single Family Residential,807 Lindsay Ct,Richmond,VA,23229,830000,4,4.0,Carrington Court,3583,14374,1996,248,232,13,Sold,,,https://www.redfin.com/VA/Richmond/807-Lindsay-Ct-23229/home/59672357,CVRMLS,2104679,N,Y,37.5841911,-77.5505898
PAST SALE,May-28-2020,Single Family Residential,2401 Fon Du Lac Rd,Henrico,VA,23229,270000,4,2.5,West Lawn,2030,15681,1977,556,133,,Sold,,,https://www.redfin.com/VA/Richmond/2401-Fon-Du-Lac-Rd-23229/home/59653062,CVRMLS,2009794,N,Y,37.6171686,-77.5462793
PAST SALE,June-5-2020,Single Family Residential,9001 Weldon Dr,Henrico,VA,23229,215000,3,1.0,Greenbriar Hills,1088,14374,1955,548,198,,Sold,,,https://www.redfin.com/VA/Richmond/9001-Weldon-Dr-23229/home/59658269,CVRMLS,2010726,N,Y,37.5988414,-77.5725337
PAST SALE,August-28-2020,Single Family Residential,518 Belle Grove Ln,Henrico,VA,23229,625000,4,2.5,Belle Grove,2688,14810,1983,464,233,,Sold,,,https://www.redfin.com/VA/Richmond/518-Belle-Grove-Ln-23229/home/59671679,CVRMLS,2021075,N,Y,37.5847228,-77.5613374
PAST SALE,November-9-2020,Single Family Residential,8811 Gayton Rd,Richmond,VA,23229,270000,3,1.5,Hill And Dale,1550,17424,1955,391,174,,Sold,,,https://www.redfin.com/VA/Richmond/8811-Gayton-Rd-23229/home/59664957,CVRMLS,2028729,N,Y,37.5941761,-77.5709533
PAST SALE,May-15-2020,Single Family Residential,1 David Dr,Henrico,VA,23229,340000,3,2.0,Glen Ridge,1846,16988,1950,569,184,,Sold,,,https://www.redfin.com/VA/Richmond/1-David-Dr-23229/home/59665393,CVRMLS,2008256,N,Y,37.5926501,-77.563442
PAST SALE,July-28-2020,Single Family Residential,6515 Patterson Ave,Richmond,VA,23226,395000,3,2.5,Westhampton Heights Annex,1708,7840,2008,495,231,,Sold,,,https://www.redfin.com/VA/Richmond/6515-Patterson-Ave-23226/home/55450717,CVRMLS,2016933,N,Y,37.5864847,-77.5251931
PAST SALE,,Single Family Residential,6916 Everview Rd,Richmond,VA,23226,245000,4,1.5,,1575,16346,1948,,156,,,,,https://www.redfin.com/VA/Richmond/6916-Everview-Rd-23226/home/59667362,,,N,Y,37.5889219,-77.5338843
PAST SALE,September-30-2021,Single Family Residential,8309 Lansdowne Rd,Richmond,VA,23229,362500,3,2.0,Fordson Acres,1368,29185,1957,66,265,,Sold,,,https://www.redfin.com/VA/Richmond/8309-Lansdowne-Rd-23229/home/59642850,CVRMLS,2124553,N,Y,37.619596,-77.5510824
PAST SALE,,Single Family Residential,1605 Glenside Dr,Richmond,VA,23226,77500,3,1.0,,944,11065,1950,,82,,,,,https://www.redfin.com/VA/Richmond/1605-Glenside-Dr-23226/home/59660324,,,N,Y,37.600561,-77.5282742
PAST SALE,May-8-2020,Single Family Residential,2504 Arrington Rd,Henrico,VA,23294,265000,4,2.0,Sweetbriar Park,2036,13503,1966,576,130,,Sold,,,https://www.redfin.com/VA/Richmond/2504-Arrington-Rd-23294/home/59643573,CVRMLS,2007383,N,Y,37.6187981,-77.542842
PAST SALE,March-31-2021,Single Family Residential,402 Glendale Dr,Henrico,VA,23229,288800,3,1.5,Ridgeview,1205,14374,1958,249,240,,Sold,,,https://www.redfin.com/VA/Richmond/402-Glendale-Dr-23229/home/59665656,CVRMLS,2104002,N,Y,37.5861027,-77.5669795
PAST SALE,November-10-2020,Single Family Residential,6912 Horsepen Rd,Richmond,VA,23226,325000,3,2.5,Charles Glen,1707,9147,2001,390,190,25,Sold,,,https://www.redfin.com/VA/Richmond/6912-Horsepen-Rd-23226/home/59661188,CVRMLS,2028214,N,Y,37.5959955,-77.5260905
PAST SALE,January-7-2021,Condo/Co-op,39 Skipwith Green Cir,Henrico,VA,23294,200000,3,2.5,Skipwith Green Townhouses,1650,,1973,332,121,180,Sold,,,https://www.redfin.com/VA/Richmond/39-Skipwith-Green-Cir-23294/home/59643936,CVRMLS,2035141,N,Y,37.61992,-77.535439
PAST SALE,June-15-2020,Single Family Residential,1111 Normandy Dr,Richmond,VA,23229,389950,3,2.0,Clovelly Gardens,1502,9583,1948,538,260,,Sold,,,https://www.redfin.com/VA/Richmond/1111-Normandy-Dr-23229/home/59666950,CVRMLS,2008669,N,Y,37.5950861,-77.5375122
PAST SALE,February-14-2020,Single Family Residential,6533 Monument Ave,Henrico,VA,23226,383000,3,1.5,Monument Hills,1524,10890,1950,660,251,,Sold,,,https://www.redfin.com/VA/Richmond/6533-Monument-Ave-23226/home/59668155,CVRMLS,2001477,N,Y,37.5911464,-77.5232685
PAST SALE,July-26-2021,Single Family Residential,602 Ridge Top Rd,Henrico,VA,23229,440000,4,2.0,College Hills,2015,15245,1956,132,218,,Sold,,,https://www.redfin.com/VA/Richmond/602-Ridge-Top-Rd-23229/home/59667280,CVRMLS,2116533,N,Y,37.5868161,-77.5374364
PAST SALE,,Single Family Residential,2307 Marroit Rd,Richmond,VA,23229,235000,3,1.0,,925,10995,1956,,254,,,,,https://www.redfin.com/VA/Richmond/2307-Marroit-Rd-23229/home/59653108,,,N,Y,37.6169096,-77.5431493
PAST SALE,,Single Family Residential,8501 Julian Rd,Richmond,VA,23229,250000,3,1.5,,2416,17249,1955,,103,,,,,https://www.redfin.com/VA/Richmond/8501-Julian-Rd-23229/home/59666210,,,N,Y,37.5931012,-77.5607553
PAST SALE,June-11-2021,Single Family Residential,7514 Parkline Dr,Henrico,VA,23229,295000,3,2.0,Tuckahoe Hills,1344,,1955,177,219,,Sold,,,https://www.redfin.com/VA/Richmond/7514-Parkline-Dr-23229/home/59660156,CVRMLS,2112722,N,Y,37.6003189,-77.5398076
PAST SALE,August-17-2021,Single Family Residential,1501 Skipwith Rd,Henrico,VA,23229,255000,4,2.0,Buckingham Park,1512,13503,1954,110,169,,Sold,,,https://www.redfin.com/VA/Richmond/1501-Skipwith-Rd-23229/home/59659814,CVRMLS,2121394,N,Y,37.5997828,-77.5373779
PAST SALE,January-8-2021,Single Family Residential,7405 Oak Ridge St,Henrico,VA,23294,207000,3,2.0,Whispering Pines Henr,1616,11761,1959,331,128,,Sold,,,https://www.redfin.com/VA/Richmond/7405-Oak-Ridge-St-23294/home/59653287,CVRMLS,2036119,N,Y,37.6141794,-77.5298979
PAST SALE,August-30-2021,Single Family Residential,1902 Vandover Rd,Henrico,VA,23229,380000,4,2.5,Three Chopt Estates,2426,12632,1964,97,157,,Sold,,,https://www.redfin.com/VA/Richmond/1902-Vandover-Rd-23229/home/59642653,CVRMLS,2120331,N,Y,37.619951,-77.5682332
PAST SALE,July-19-2021,Single Family Residential,603 Ridge Top Rd,Henrico,VA,23229,1150000,4,3.0,College Hills,2768,15681,1958,139,415,,Sold,,,https://www.redfin.com/VA/Richmond/603-Ridge-Top-Rd-23229/home/59667181,CVRMLS,2117301,N,Y,37.5867385,-77.5368404
PAST SALE,July-14-2021,Single Family Residential,7400 Normandy Dr,Henrico,VA,23229,500000,4,2.0,Sunset Hills,1900,11325,1947,144,263,,Sold,,,https://www.redfin.com/VA/Richmond/7400-Normandy-Dr-23229/home/59666837,CVRMLS,2116975,N,Y,37.5956145,-77.535452
PAST SALE,April-2-2021,Single Family Residential,1515 Foster Rd,Henrico,VA,23226,336000,3,2.0,Buckingham Park,1296,10890,1955,247,259,,Sold,,,https://www.redfin.com/VA/Richmond/1515-Foster-Rd-23226/home/59659962,CVRMLS,2100496,N,Y,37.601106,-77.5336603
PAST SALE,September-16-2021,Condo/Co-op,2651 St. Elias Dr Unit A,Henrico,VA,23294,341464,2,2.5,West Broad Landing,1608,,2021,80,212,180,Sold,,,https://www.redfin.com/VA/Henrico/2651-Saint-Elias-Dr-23294/unit-A/home/174959503,CVRMLS,2110709,N,Y,37.6162,-77.521
PAST SALE,September-26-2019,Single Family Residential,6703 Van Buren Ave,Henrico,VA,23226,278000,2,2.0,Monument Hills,1030,5662,1953,801,270,,Sold,,,https://www.redfin.com/VA/Richmond/6703-Van-Buren-Ave-23226/home/59668044,CVRMLS,1907570,N,Y,37.5891019,-77.527256
PAST SALE,December-23-2019,Single Family Residential,6804 Stuart Ave,Richmond,VA,23226,289500,3,2.0,COLLEGE VIEW,1267,,1948,713,228,,Sold,,,https://www.redfin.com/VA/Richmond/6804-Stuart-Ave-23226/home/55450569,BRIGHT MLS,VARC100244,N,Y,37.5880366,-77.5308721
PAST SALE,,Other,6907 Everview Rd,Richmond,VA,23226,210000,,,,,188,1997,,,,,,,https://www.redfin.com/VA/Richmond/6907-Everview-Rd-23226/home/59667383,,,N,Y,37.5885926,-77.5327197
PAST SALE,July-30-2021,Single Family Residential,7108 Three Chopt,Henrico,VA,23226,455000,4,3.5,Duntreath,2188,12632,1947,128,208,,Sold,,,https://www.redfin.com/VA/Richmond/7108-Three-Chopt-Rd-23226/home/59667326,CVRMLS,2115094,N,Y,37.5920351,-77.5311968
PAST SALE,August-11-2021,Single Family Residential,7200 Three Chopt Rd,Henrico,VA,23226,465000,5,2.0,Duntreath,2462,17859,1952,116,189,,Sold,,,https://www.redfin.com/VA/Richmond/7200-Three-Chopt-Rd-23226/home/59667475,CVRMLS,2120488,N,Y,37.5937046,-77.5313768
PAST SALE,June-24-2020,Single Family Residential,7403 Biscayne Rd,Henrico,VA,23294,228000,3,1.5,Whispering Pines Henr,1196,15245,1955,529,191,,Sold,,,https://www.redfin.com/VA/Richmond/7403-Biscayne-Rd-23294/home/59653478,CVRMLS,2013758,N,Y,37.6141175,-77.5315216
PAST SALE,July-7-2021,Single Family Residential,7402 Biscayne Rd,Henrico,VA,23294,255000,2,1.5,Whispering Pines Henr,1292,13068,1955,151,197,,Sold,,,https://www.redfin.com/VA/Richmond/7402-Biscayne-Rd-23294/home/59653362,CVRMLS,2115393,N,Y,37.614131,-77.5321841
PAST SALE,May-31-2019,Single Family Residential,7714 Biscayne Ct,Henrico,VA,23294,244500,5,3.0,Williamsburg Park,2472,13503,1967,919,99,,Sold,,,https://www.redfin.com/VA/Richmond/7714-Biscayne-Ct-23294/home/59643822,CVRMLS,1906993,N,Y,37.619004,-77.5309729
PAST SALE,October-14-2020,Single Family Residential,1002 Stilwell Rd,Henrico,VA,23226,280000,3,1.0,Monument Hills,1008,8712,1952,417,278,,Sold,,,https://www.redfin.com/VA/Richmond/1002-Stilwell-Rd-23226/home/59668021,CVRMLS,2025762,N,Y,37.5897706,-77.5264937
PAST SALE,July-7-2021,Single Family Residential,7100 Horsepen Rd,Richmond,VA,23226,238500,3,1.0,Crestview,1131,43560,1947,151,211,,Sold,,,https://www.redfin.com/VA/Richmond/7100-Horsepen-Rd-23226/home/59660485,CVRMLS,2115098,N,Y,37.5970564,-77.5287333
PAST SALE,February-24-2021,Single Family Residential,1519 Glenside Dr,Henrico,VA,23226,226000,2,1.5,Fort Hill,864,10890,1950,284,262,,Sold,,,https://www.redfin.com/VA/Richmond/1519-Glenside-Dr-23226/home/59660315,CVRMLS,2037559,N,Y,37.5992547,-77.5286997
PAST SALE,,Single Family Residential,503 Gardiner Rd,Richmond,VA,23229,452000,3,2.5,,2616,15453,1955,,173,,,,,https://www.redfin.com/VA/Richmond/503-Gardiner-Rd-23229/home/59672743,,,N,Y,37.5837789,-77.5367508
PAST SALE,,Single Family Residential,914 Bevridge Rd,Richmond,VA,23226,370000,4,2.5,,2626,9148,1989,,141,,,,,https://www.redfin.com/VA/Richmond/914-Bevridge-Rd-23226/home/59667692,,,N,Y,37.5870305,-77.5226012
PAST SALE,November-13-2020,Single Family Residential,7004 Monument Ave,Richmond,VA,23226,252500,3,2.0,Duntreath,,,1956,387,,,Sold,,,https://www.redfin.com/VA/Richmond/7004-Monument-Ave-23226/home/59666866,CVRMLS,2035200,N,Y,37.5951529,-77.5285541
PAST SALE,April-19-2021,Townhouse,2 Skipwith Green Cir #2,Henrico,VA,23294,235000,4,3.0,Skipwith Green Townhouses,1650,1306,1972,230,142,180,Sold,,,https://www.redfin.com/VA/Richmond/2-Skipwith-Green-Cir-23294/home/59643713,CVRMLS,2105792,N,Y,37.6204606,-77.5366501
PAST SALE,November-22-2019,Single Family Residential,8310 Bronwood Rd,Henrico,VA,23229,280000,3,2.0,Parham Hills,1629,20908,1956,744,172,,Sold,,,https://www.redfin.com/VA/Richmond/8310-Bronwood-Rd-23229/home/59651712,CVRMLS,1934491,N,Y,37.6169101,-77.5562324
PAST SALE,May-15-2020,Single Family Residential,8400 Freestone Ave,Henrico,VA,23229,359950,5,2.0,Brinkhaven,2756,13503,1964,569,131,,Sold,,,https://www.redfin.com/VA/Richmond/8400-Freestone-Ave-23229/home/59651787,CVRMLS,2009787,N,Y,37.6148281,-77.5566802
PAST SALE,April-10-2019,Single Family Residential,9300 Ledbury Rd,Henrico,VA,23229,275000,3,2.0,Pine Dale,1586,13939,1960,970,173,,Sold,,,https://www.redfin.com/VA/Richmond/9300-Ledbury-Rd-23229/home/59650995,CVRMLS,1905255,N,Y,37.6156954,-77.5690392
PAST SALE,November-20-2020,Condo/Co-op,2677 St Elias Dr Unit B,Rice,VA,23294,388813,3,3.5,West Broad Landing,2518,,2020,380,154,160,Sold,,,https://www.redfin.com/VA/Henrico/2677-St-Elias-Dr-23294/unit-B/home/172093035,CVRMLS,2018066,N,Y,37.6143614,-77.5247815
PAST SALE,June-30-2021,Single Family Residential,1727 Westhill Rd,Henrico,VA,23226,305000,3,2.0,Berkeley Park,1414,16117,1952,158,216,,Sold,,,https://www.redfin.com/VA/Richmond/1727-Westhill-Rd-23226/home/59652990,CVRMLS,2115597,N,Y,37.60753,-77.5349369
PAST SALE,January-22-2021,Condo/Co-op,2677 St Elias Dr Unit A,Richmond,VA,23294,312938,3,2.5,West Broad Landing,1608,,2019,317,195,160,Sold,,,https://www.redfin.com/VA/Henrico/2677-St-Elias-Dr-23294/unit-A/home/169255584,CVRMLS,1932410,N,Y,37.6142422,-77.5245409
PAST SALE,July-27-2020,Condo/Co-op,2669 St Elias Dr Unit B,Richmond,VA,23294,268990,3,2.5,West Broad Landing,2518,,2020,496,107,160,Sold,,,https://www.redfin.com/VA/Henrico/2669-St-Elias-Dr-23294/unit-B/home/171533757,CVRMLS,2013452,N,Y,37.614461642373534,-77.52445683403917
PAST SALE,October-11-2019,Single Family Residential,6513 W Franklin St,Richmond,VA,23226,365000,3,2.0,Monument Hills,2004,9147,1951,786,182,,Sold,,,https://www.redfin.com/VA/Richmond/6513-W-Franklin-St-23226/home/59668186,CVRMLS,1926512,N,Y,37.5892794,-77.522283
PAST SALE,July-28-2021,Single Family Residential,9204 Lyndonway,Henrico,VA,23229,500000,4,2.5,Pinedale Farms,2852,,1971,130,175,,Sold,,,https://www.redfin.com/VA/Richmond/9204-Lyndonway-Dr-23229/home/59651268,CVRMLS,2115147,N,Y,37.6118082,-77.5698452
PAST SALE,September-19-2020,Condo/Co-op,2616 Lassen Walk Unit A,Richmond,VA,23294,286304,2,2.5,West Broad Landing,1608,,2020,442,178,161,Sold,,,https://www.redfin.com/VA/HENRICO/2616-LASSEN-WALK-23294/unit-A/home/174151781,CVRMLS,2021152,N,Y,37.6157,-77.5314
PAST SALE,September-16-2020,Condo/Co-op,2616 Lassen Walk Unit B,Henrico,VA,23294,360896,3,2.5,West Broad Landing,2501,,2020,445,144,160,Sold,,,https://www.redfin.com/VA/HENRICO/2616-LASSEN-WALK-23294/unit-B/home/171533890,CVRMLS,2013457,N,Y,37.6157,-77.5314
PAST SALE,May-30-2020,Condo/Co-op,2626 Lassen Walk Unit B,Richmond,VA,23294,364088,3,2.5,West Broad Landing,2518,,2020,554,145,160,Sold,,,https://www.redfin.com/VA/HENRICO/2626-LASSEN-WALK-23294/unit-B/home/170582916,CVRMLS,2004822,N,Y,37.6157,-77.5314
PAST SALE,December-4-2020,Condo/Co-op,2681 St. Elias Dr Unit A,Henrico,VA,23294,277043,2,2.5,West Broad Landing,1590,,2020,366,174,161,Sold,,,https://www.redfin.com/VA/Henrico/2681-St-Elias-Dr-23294/unit-A/home/173467130,CVRMLS,2032118,N,Y,37.6142609,-77.5247034
PAST SALE,November-23-2020,Condo/Co-op,2681 St Elias Dr Unit B,Richmond,VA,23294,379756,3,2.5,West Broad Landing,2518,,2020,377,151,160,Sold,,,https://www.redfin.com/VA/Henrico/2681-St-Elias-Dr-23294/unit-B/home/172342026,CVRMLS,2019651,N,Y,37.6142609,-77.5247034
PAST SALE,December-4-2020,Condo/Co-op,2685 St Elias Dr Unit B,Richmond,VA,23294,412202,3,2.5,West Broad Landing,2501,,2020,366,165,161,Sold,,,https://www.redfin.com/VA/Henrico/2685-St-Elias-Dr-23294/unit-B/home/172322267,CVRMLS,2019360,N,Y,37.6143647,-77.5247208
PAST SALE,July-9-2021,Single Family Residential,6630 Fitzhugh Ave,Richmond,VA,23226,175000,2,1.0,West Haven,720,13068,1950,149,243,,Sold,,,https://www.redfin.com/VA/Richmond/6630-Fitzhugh-Ave-23226/home/59667757,CVRMLS,2117612,N,Y,37.593534,-77.520312
PAST SALE,October-18-2019,Single Family Residential,6605 Horsepen Rd,Henrico,VA,23226,179900,3,1.0,Westhaven,1102,10018,1949,779,163,,Sold,,,https://www.redfin.com/VA/Richmond/6605-Horsepen-Rd-23226/home/59667760,CVRMLS,1929538,N,Y,37.5942862,-77.5196849
PAST SALE,August-27-2021,Single Family Residential,1200 Hillside Ave,Henrico,VA,23229,315000,4,2.0,Sterlingwood,1568,10018,1948,100,201,,Sold,,,https://www.redfin.com/VA/Richmond/1200-Hillside-Ave-23229/home/59667200,CVRMLS,2116531,N,Y,37.5954948,-77.5417223
PAST SALE,February-4-2019,Single Family Residential,6729 Stuart Ave,Richmond,VA,23226,335000,3,2.5,College View,1573,7405,1950,1035,213,,Sold,,,https://www.redfin.com/VA/Richmond/6729-Stuart-Ave-23226/home/55450883,CVRMLS,1838374,N,Y,37.5871625,-77.5303463
PAST SALE,July-28-2021,Condo/Co-op,2652 Lassen Walk Unit A,Henrico,VA,23294,312045,2,2.5,West Broad Landing,1608,,2021,130,194,180,Sold,,,https://www.redfin.com/VA/Henrico/2652-Lassen-Dr-23294/unit-A/home/174264666,CVRMLS,2101927,N,Y,37.6162,-77.521
PAST SALE,July-9-2019,Single Family Residential,6406 Hanover Ave,Richmond,VA,23226,238000,3,1.0,Westhampton Heights Annex,864,6098,1950,880,275,,Sold,,,https://www.redfin.com/VA/Richmond/6406-Hanover-Ave-23226/home/55451013,CVRMLS,1916724,N,Y,37.5828898,-77.5252026
PAST SALE,April-21-2020,Single Family Residential,6616 Three Chopt Rd,Richmond,VA,23226,429500,3,2.0,College View,1708,18730,1950,593,251,,Sold,,,https://www.redfin.com/VA/Richmond/6616-Three-Chopt-Rd-23226/home/55451041,CVRMLS,2008809,N,Y,37.5853828,-77.5312861
PAST SALE,,Single Family Residential,1305 Bobbiedell Ln,Richmond,VA,23229,158000,3,1.0,,1392,12505,1953,,114,,,,,https://www.redfin.com/VA/Richmond/1305-Bobbiedell-Ln-23229/home/59659606,,,N,Y,37.5971953,-77.5484402
PAST SALE,,Single Family Residential,1509 Baysdale Ln,Richmond,VA,23229,217500,3,1.5,,1392,9472,1954,,156,,,,,https://www.redfin.com/VA/Richmond/1509-Baysdale-Ln-23229/home/59658984,,,N,Y,37.6030956,-77.5549785
PAST SALE,,Single Family Residential,9600 Wildbriar Ln,Richmond,VA,23229,435000,4,2.5,,2200,15329,1986,,198,,,,,https://www.redfin.com/VA/Richmond/9600-Wildbriar-Ln-23229/home/59642707,,,N,Y,37.6200418,-77.5717588
PAST SALE,,Single Family Residential,1521 Skipwith Rd,Richmond,VA,23229,258000,3,2.0,,1344,10891,1954,,192,,,,,https://www.redfin.com/VA/Richmond/1521-Skipwith-Rd-23229/home/59659773,,,N,Y,37.6015756,-77.5372883
PAST SALE,October-27-2021,Single Family Residential,8400 Weldon Dr,Henrico,VA,23229,376201,3,2.0,Beverly Hills,1471,13068,1953,39,256,,Sold,,,https://www.redfin.com/VA/Richmond/8400-Weldon-Dr-23229/home/59666224,CVRMLS,2129403,N,Y,37.5957924,-77.5590984
PAST SALE,April-23-2020,Single Family Residential,6707 Kensington Ave,Richmond,VA,23226,297500,3,1.5,Westhampton Heights Annex,1108,7840,1936,591,269,,Sold,,,https://www.redfin.com/VA/Richmond/6707-Kensington-Ave-23226/home/55450580,CVRMLS,2004011,N,Y,37.5869065,-77.5280614
PAST SALE,March-27-2020,Townhouse,22 Skipwith Green Cir,Richmond,VA,23294,189950,4,3.5,Skipwith Green,1650,1306,1972,618,115,180,Sold,,,https://www.redfin.com/VA/Richmond/22-Skipwith-Green-Cir-23294/home/59643723,CVRMLS,1935689,N,Y,37.6197809,-77.5371875
PAST SALE,,Single Family Residential,8801 Midway Rd,Richmond,VA,23229,98166,3,2.0,,1008,15017,1989,,97,,,,,https://www.redfin.com/VA/Richmond/8801-Midway-Rd-23229/home/59664837,,,N,Y,37.5905048,-77.5725317
PAST SALE,September-23-2021,Single Family Residential,8717 Mapleton Rd,Henrico,VA,23229,275000,3,2.0,Ridgecrest,1602,12196,1955,73,172,,Sold,,,https://www.redfin.com/VA/Richmond/8717-Mapleton-Rd-23229/home/59664912,CVRMLS,2123984,N,Y,37.5952725,-77.5699795
PAST SALE,,Single Family Residential,7717 Stuart Hall Rd,Richmond,VA,23229,230000,3,1.5,,1212,10615,1949,,190,,,,,https://www.redfin.com/VA/Richmond/7717-Stuart-Hall-Rd-23229/home/59666535,,,N,Y,37.5894425,-77.5456635
PAST SALE,September-24-2021,Single Family Residential,2603 Rudolph Rd,Henrico,VA,23294,325000,3,2.5,Tuckahoe Park,1610,11325,1991,72,202,,Sold,,,https://www.redfin.com/VA/Richmond/2603-Rudolph-Rd-23294/home/59643336,CVRMLS,2125986,N,Y,37.6205133,-77.5427972
PAST SALE,September-24-2021,Single Family Residential,2322 Pathfinder Cir,Henrico,VA,23294,331000,4,2.5,Thousand Oaks,2028,11761,1980,72,163,,Sold,,,https://www.redfin.com/VA/Richmond/2322-Pathfinder-Cir-23294/home/59652839,CVRMLS,2115995,N,Y,37.6140608,-77.5344163
PAST SALE,March-19-2019,Single Family Residential,829 Pepper Ave,Richmond,VA,23226,437000,4,3.0,Westhampton Terrace,1929,17859,1950,992,227,,Sold,,,https://www.redfin.com/VA/Richmond/829-Pepper-Ave-23226/home/55450476,CVRMLS,1903588,N,Y,37.5832364,-77.5215636
PAST SALE,December-2-2020,Single Family Residential,1107 1/2 Essex Ave,Henrico,VA,23229,485000,4,3.0,University Heights,2529,17859,1956,368,192,3,Sold,,,https://www.redfin.com/VA/Richmond/1107-Essex-Ave-23229/unit-1-2/home/59666002,CVRMLS,2030749,N,Y,37.5901722,-77.5522393
PAST SALE,April-20-2021,Single Family Residential,825 Pepper Ave,Richmond,VA,23226,900000,3,3.5,Westhampton Terrace,3036,11761,2008,229,296,,Sold,,,https://www.redfin.com/VA/Richmond/825-Pepper-Ave-23226/home/55391759,CVRMLS,2105322,N,Y,37.5829302,-77.5216362
PAST SALE,September-30-2020,Single Family Residential,6307 Stuart Ave,Richmond,VA,23226,299000,3,2.0,Westhampton Heights Annex,1122,8276,1952,431,266,,Sold,,,https://www.redfin.com/VA/Richmond/6307-Stuart-Ave-23226/home/55451068,CVRMLS,2026746,N,Y,37.582741,-77.5238708
PAST SALE,June-22-2020,Single Family Residential,6508 Hanover Ave,Richmond,VA,23226,330792,4,1.5,Westhampton Heights Annex,1443,7405,1950,531,229,,Sold,,,https://www.redfin.com/VA/Richmond/6508-Hanover-Ave-23226/home/55450968,CVRMLS,2009627,N,Y,37.5838881,-77.5267512
PAST SALE,February-26-2021,Single Family Residential,6318 Kensington Ave,Richmond,VA,23226,275000,3,1.0,Westhampton Heights Annex,906,7840,1954,282,304,,Sold,,,https://www.redfin.com/VA/Richmond/6318-Kensington-Ave-23226/home/55451050,CVRMLS,2036493,N,Y,37.5840644,-77.5230511
PAST SALE,October-2-2020,Single Family Residential,6518 Hanover Ave,Richmond,VA,23226,290000,3,1.0,Westhampton Heights Annex,1188,7405,1950,429,244,,Sold,,,https://www.redfin.com/VA/Richmond/6518-Hanover-Ave-23226/home/55450970,CVRMLS,2025212,N,Y,37.5843354,-77.5273895
PAST SALE,June-28-2019,Single Family Residential,6732 Stuart Ave,Richmond,VA,23226,360000,3,2.0,College View,1520,7405,1940,891,237,,Sold,,,https://www.redfin.com/VA/Richmond/6732-Stuart-Ave-23226/home/55450392,CVRMLS,1916780,N,Y,37.5875857,-77.530222
PAST SALE,October-18-2019,Single Family Residential,6523 Kensington Ave,Richmond,VA,23226,320000,3,3.0,Westhampton Heights Annex,1404,7840,1969,779,228,,Sold,,,https://www.redfin.com/VA/Richmond/6523-Kensington-Ave-23226/home/55450406,CVRMLS,1927071,N,Y,37.5858696,-77.5265327
PAST SALE,April-2-2019,Single Family Residential,6520 Stuart Ave,Richmond,VA,23226,375000,4,2.0,Westhampton Heights Annex,1686,7405,1978,978,222,,Sold,,,https://www.redfin.com/VA/Richmond/6520-Stuart-Ave-23226/home/55450426,CVRMLS,1904218,N,Y,37.5852842,-77.5268042
PAST SALE,November-25-2020,Single Family Residential,6402 Stuart Ave,Richmond,VA,23226,345000,3,2.0,Westhampton Heights Annex,1421,7405,1950,375,243,,Sold,,,https://www.redfin.com/VA/Richmond/6402-Stuart-Ave-23226/home/55450446,CVRMLS,2029998,N,Y,37.5835288,-77.5242009
PAST SALE,September-26-2019,Single Family Residential,6409 Patterson Ave,Richmond,VA,23226,380000,3,2.0,Westhampton Heights Annex,1847,8276,1951,801,206,,Sold,,,https://www.redfin.com/VA/Richmond/6409-Patterson-Ave-23226/home/55450488,CVRMLS,1926141,N,Y,37.5852133,-77.5234337
PAST SALE,March-9-2020,Single Family Residential,6408 Kensington Ave,Richmond,VA,23226,287500,3,1.5,Westhampton Heights Annex,1254,8712,1968,636,229,,Sold,,,https://www.redfin.com/VA/Richmond/6408-Kensington-Ave-23226/home/55450510,CVRMLS,2002275,N,Y,37.5846945,-77.5238508
PAST SALE,May-7-2020,Single Family Residential,6706 Stuart Ave,Richmond,VA,23226,305000,4,1.0,Westhampton Heights Annex,1590,7405,1948,577,192,,Sold,,,https://www.redfin.com/VA/Richmond/6706-Stuart-Ave-23226/home/55450604,CVRMLS,2006054,N,Y,37.5863982,-77.5284593
PAST SALE,April-17-2020,Single Family Residential,6700 Stuart Ave,Richmond,VA,23226,458000,4,3.0,Westhampton Heights Annex,1800,7405,1947,597,254,,Sold,,,https://www.redfin.com/VA/Richmond/6700-Stuart-Ave-23226/home/55450607,CVRMLS,2009829,N,Y,37.586128,-77.5280614
PAST SALE,November-1-2019,Single Family Residential,906 Pine Ridge Rd,Henrico,VA,23226,375100,4,2.0,Pine Ridge,1858,4356,1941,765,202,,Sold,,,https://www.redfin.com/VA/Richmond/906-Pine-Ridge-Rd-23226/home/55450633,CVRMLS,1931698,N,Y,37.5858023,-77.5224286
PAST SALE,August-26-2020,Single Family Residential,6808 Kensington Ave,Richmond,VA,23226,280000,3,1.0,Westhampton Heights Annex,1072,8712,1959,466,261,,Sold,,,https://www.redfin.com/VA/Richmond/6808-Kensington-Ave-23226/home/55450646,CVRMLS,2016523,N,Y,37.5890566,-77.5304397
PAST SALE,July-19-2019,Single Family Residential,6901 Everview Rd,Richmond,VA,23226,358100,3,2.0,Three Chopt Court,1498,7840,1947,870,239,,Sold,,,https://www.redfin.com/VA/Richmond/6901-Everview-Rd-23226/home/55450656,CVRMLS,1917765,N,Y,37.5886136,-77.5320452
PAST SALE,July-22-2020,Single Family Residential,6722 Kensington Ave,Richmond,VA,23226,370000,3,2.0,College View,1486,8712,1925,501,249,,Sold,,,https://www.redfin.com/VA/Richmond/6722-Kensington-Ave-23226/home/55450657,CVRMLS,2017308,N,Y,37.5880245,-77.5288253
PAST SALE,August-23-2019,Single Family Residential,6720 Kensington Ave,Richmond,VA,23226,430000,4,3.0,,2112,8712,1983,835,204,,Sold,,,https://www.redfin.com/VA/Richmond/6720-Kensington-Ave-23226/home/55450658,CVRMLS,1917447,N,Y,37.5878982,-77.5287157
PAST SALE,April-13-2020,Single Family Residential,6506 Kensington Ave,Richmond,VA,23226,320000,3,1.0,Westhampton Heights Annex,1217,8712,1952,601,263,,Sold,,,https://www.redfin.com/VA/Richmond/6506-Kensington-Ave-23226/home/55450691,CVRMLS,2005610,N,Y,37.5855032,-77.5252093
PAST SALE,September-30-2020,Single Family Residential,6524 Hanover Ave,Richmond,VA,23226,260000,3,1.5,Westhampton Heights Annex,1273,7405,1951,431,204,,Sold,,,https://www.redfin.com/VA/Richmond/6524-Hanover-Ave-23226/home/55450983,CVRMLS,2027035,N,Y,37.5846328,-77.5277778
PAST SALE,December-30-2019,Single Family Residential,6520 Kensington Ave,Richmond,VA,23226,519000,3,2.5,Westhampton Heights Annex,2300,8712,1947,706,226,,Sold,,,https://www.redfin.com/VA/Richmond/6520-Kensington-Ave-23226/home/55450698,CVRMLS,1937555,N,Y,37.5861448,-77.5260766
PAST SALE,July-8-2020,Single Family Residential,6604 Patterson Ave,Richmond,VA,23226,305000,3,1.0,Monument Hills,1141,10890,1952,515,267,,Sold,,,https://www.redfin.com/VA/Richmond/6604-Patterson-Ave-23226/home/55450820,CVRMLS,2017754,N,Y,37.587789,-77.5262623
PAST SALE,January-15-2020,Single Family Residential,6812 Three Chopt Rd,Richmond,VA,23226,342000,2,1.5,College View,1697,9147,1947,690,202,,Sold,,,https://www.redfin.com/VA/Richmond/6812-Three-Chopt-Rd-23226/home/55450878,CVRMLS,1939153,N,Y,37.5877812,-77.5316336
PAST SALE,December-5-2019,Single Family Residential,6810 Three Chopt Rd,Richmond,VA,23226,305000,3,1.5,College View,1691,9147,1947,731,180,,Sold,,,https://www.redfin.com/VA/Richmond/6810-Three-Chopt-Rd-23226/home/55450879,CVRMLS,1934780,N,Y,37.5876265,-77.5316638
PAST SALE,February-6-2020,Single Family Residential,6715 Stuart Ave,Richmond,VA,23226,497500,3,2.5,Westhampton Heights Annex,2296,7405,2011,668,217,,Sold,,,https://www.redfin.com/VA/Richmond/6715-Stuart-Ave-23226/home/55450893,CVRMLS,1935987,N,Y,37.5864195,-77.5292838
PAST SALE,May-4-2020,Single Family Residential,6805 Stuart Ave,Richmond,VA,23226,325000,3,2.0,College View,1505,6534,1937,580,216,,Sold,,,https://www.redfin.com/VA/Richmond/6805-Stuart-Ave-23226/home/55450884,CVRMLS,2007079,N,Y,37.5876758,-77.5311509
PAST SALE,March-24-2021,Single Family Residential,6720 Hanover Ave,Richmond,VA,23226,235000,3,1.0,College View,944,7405,1952,256,249,,Sold,,,https://www.redfin.com/VA/Richmond/6720-Hanover-Ave-23226/home/55450910,CVRMLS,2104564,N,Y,37.5862254,-77.5301218
PAST SALE,February-7-2020,Single Family Residential,6509 Stuart Ave,Richmond,VA,23226,550000,3,2.5,Westhampton Heights Annex,2200,7405,1951,667,250,,Sold,,,https://www.redfin.com/VA/Richmond/6509-Stuart-Ave-23226/home/55450924,CVRMLS,1938744,N,Y,37.5844253,-77.5263145
PAST SALE,August-3-2020,Single Family Residential,819 Orchard Rd,Richmond,VA,23226,310000,3,1.5,Westhampton Heights Annex,1572,8276,1959,489,197,,Sold,,,https://www.redfin.com/VA/Richmond/819-Orchard-Rd-23226/home/55451108,CVRMLS,2017690,N,Y,37.5831503,-77.5228206
PAST SALE,May-3-2021,Single Family Residential,504 Honaker Ave,Richmond,VA,23226,643250,3,2.5,Hampton Park,2408,26136,1952,216,267,,Sold,,,https://www.redfin.com/VA/Richmond/504-Honaker-Ave-23226/home/55451187,CVRMLS,2101102,N,Y,37.5837814,-77.5302562
PAST SALE,May-21-2019,Single Family Residential,6604 Three Chopt Rd,Richmond,VA,23226,965000,4,3.5,Hampton Park,3895,17424,2015,929,248,,Sold,,,https://www.redfin.com/VA/Richmond/6604-Three-Chopt-Rd-23226/home/55451219,CVRMLS,1909561,N,Y,37.5839038,-77.5310177
PAST SALE,February-21-2020,Single Family Residential,6505 Hanover Ave,Richmond,VA,23226,257000,3,1.0,Hampton Park,972,7840,1950,653,264,,Sold,,,https://www.redfin.com/VA/Richmond/6505-Hanover-Ave-23226/home/55451231,CVRMLS,2002289,N,Y,37.5835395,-77.526958
PAST SALE,March-31-2021,Single Family Residential,507 Honaker Ave,Richmond,VA,23226,1021000,5,4.0,Hampton Park,4343,24393,1956,249,235,,Sold,,,https://www.redfin.com/VA/Richmond/507-Honaker-Ave-23226/home/55451238,CVRMLS,2101385,N,Y,37.5832514,-77.5298979
PAST SALE,February-26-2021,Single Family Residential,6511 Wessex Ln,Richmond,VA,23226,377000,3,2.0,Westhampton Heights Annex,1443,7840,1950,282,261,,Sold,,,https://www.redfin.com/VA/Richmond/6511-Wessex-Ln-23226/home/55451260,CVRMLS,2101492,N,Y,37.58326,-77.5280614
PAST SALE,June-1-2021,Multi-Family (2-4 Unit),1403 Horsepen Rd,Richmond,VA,23226,441000,4,3.0,Duntreath,2512,19166,1958,187,176,,Sold,,,https://www.redfin.com/VA/Richmond/1403-Horsepen-Rd-23226/home/59660761,CVRMLS,2109866,N,Y,37.5964395,-77.5297439
PAST SALE,,Single Family Residential,1406 Landis Dr,Richmond,VA,23226,241500,3,2.0,,1256,9976,1951,,192,,,,,https://www.redfin.com/VA/Richmond/1406-Landis-Dr-23226/home/59660515,,,N,Y,37.5973453,-77.5325854
PAST SALE,May-2-2019,Single Family Residential,8405 Kalb Rd,Henrico,VA,23229,275000,4,2.0,Brinkhaven,2184,12196,1962,948,126,,Sold,,,https://www.redfin.com/VA/Richmond/8405-Kalb-Rd-23229/home/59651800,CVRMLS,1841016,N,Y,37.6153307,-77.5570721
PAST SALE,May-23-2019,Single Family Residential,6700 Kensington,Richmond,VA,23226,519000,3,2.5,Westhampton Heights Annex,2100,8712,1940,927,247,,Sold,,,https://www.redfin.com/VA/Richmond/6700-Kensington-Ave-23226/home/55450709,CVRMLS,1911932,N,Y,37.5869871,-77.5273783
PAST SALE,November-22-2019,Single Family Residential,1616 Foster Rd,Richmond,VA,23226,239000,3,2.0,Berkshire Park,1406,9583,1954,744,170,,Sold,,,https://www.redfin.com/VA/Richmond/1616-Foster-Rd-23226/home/59659997,CVRMLS,1930345,N,Y,37.6025562,-77.5341978
PAST SALE,,Single Family Residential,1815 Rockwood Rd,Richmond,VA,23226,146851,3,1.0,,864,10131,1953,,170,,,,,https://www.redfin.com/VA/Richmond/1815-Rockwood-Rd-23226/home/59653026,,,N,Y,37.6094604,-77.5359446
PAST SALE,August-3-2020,Condo/Co-op,2671 St Elias Dr Unit B,Richmond,VA,23294,304674,3,2.5,West Broad Landing,2518,,2020,489,121,160,Sold,,,https://www.redfin.com/VA/Henrico/2671-St-Elias-Dr-23294/unit-B/home/170956108,CVRMLS,2007016,N,Y,37.6143718,-77.5248726
PAST SALE,October-25-2021,Condo/Co-op,2679 St Elias Dr Unit B,Henrico,VA,23294,389000,3,2.5,West Broad Landing,2452,,2020,41,159,180,Sold,,,https://www.redfin.com/VA/Henrico/2679-St-Elias-Dr-23294/unit-B/home/172322466,CVRMLS,2120682,N,Y,37.6142418,-77.5246093
PAST SALE,October-27-2021,Single Family Residential,504 Glendale Dr,Henrico,VA,23229,365000,3,2.0,Ridgeview,1541,10890,1957,39,237,,Sold,,,https://www.redfin.com/VA/Richmond/504-Glendale-Dr-23229/home/59665592,CVRMLS,2129556,N,Y,37.5876107,-77.5648375
PAST SALE,May-29-2020,Single Family Residential,7701 Dartmoor Rd,Henrico,VA,23229,525000,4,4.0,Westham,2217,25264,1956,555,237,,Sold,,,https://www.redfin.com/VA/Richmond/7701-Dartmoor-Rd-23229/home/59671877,CVRMLS,2007101,N,Y,37.5833101,-77.5411849
PAST SALE,July-27-2020,Condo/Co-op,2667 St Elias Dr Unit A,Richmond,VA,23294,263926,3,2.5,West Broad Landing,1608,,2020,496,164,160,Sold,,,https://www.redfin.com/VA/Henrico/2667-St-Elias-Dr-23294/unit-A/home/171289386,CVRMLS,2010891,N,Y,37.6143787,-77.5249333
PAST SALE,,Single Family Residential,604 Silverspring Dr,Richmond,VA,23229,595000,3,2.5,,2358,14810,1948,,252,,,,,https://www.redfin.com/VA/Richmond/604-Silverspring-Dr-23229/home/59672607,,,N,Y,37.5848081,-77.5556256
PAST SALE,October-22-2021,Single Family Residential,6602 Three Chopt Rd,Richmond,VA,23226,835000,4,3.5,Hampton Park,3482,20908,1953,44,240,,Sold,,,https://www.redfin.com/VA/Richmond/6602-Three-Chopt-Rd-23226/home/55451220,CVRMLS,2128258,N,Y,37.5836122,-77.5309729
PAST SALE,September-21-2020,Condo/Co-op,2620 Lassen Walk Unit B,Henrico,VA,23294,339694,3,2.5,West Broad Landing,2518,,2020,440,135,160,Sold,,,https://www.redfin.com/VA/HENRICO/2620-LASSEN-WALK-23294/unit-B/home/171361936,CVRMLS,2011738,N,Y,37.6157,-77.5314
PAST SALE,July-28-2021,Single Family Residential,1200 Elmhurst Dr,Henrico,VA,23229,350000,3,2.0,Beverly Hills,1224,18730,1952,130,286,,Sold,,,https://www.redfin.com/VA/Richmond/1200-Elmhurst-Dr-23229/home/59666225,CVRMLS,2118787,N,Y,37.5958102,-77.5562884
PAST SALE,April-29-2021,Single Family Residential,1803 Briardale Ln,Henrico,VA,23229,270000,3,2.0,Windsordale,1452,10018,1962,220,186,,Sold,,,https://www.redfin.com/VA/Richmond/1803-Briardale-Ln-23229/home/59651579,CVRMLS,2107753,N,Y,37.6130111,-77.5646062
PAST SALE,September-16-2020,Condo/Co-op,2620 Lassen Walk Unit A,Henrico,VA,23294,274990,2,2.5,West Broad Landing,1608,,2020,445,171,54,Sold,,,https://www.redfin.com/VA/HENRICO/2620-LASSEN-WALK-23294/unit-A/home/172760886,CVRMLS,2025052,N,Y,37.6157,-77.5314
PAST SALE,June-1-2021,Single Family Residential,1007 Westham Pkwy,Henrico,VA,23229,435000,4,2.5,Westhampton Hills,2292,10890,1956,187,190,,Sold,,,https://www.redfin.com/VA/Richmond/1007-Westham-Pkwy-23229/home/59667022,CVRMLS,2102185,N,Y,37.5918421,-77.5378258
PAST SALE,September-25-2020,Condo/Co-op,2618 Lassen Walk Unit B,Henrico,VA,23294,314609,3,2.5,West Broad Landing,2518,,2020,436,125,54,Sold,,,https://www.redfin.com/VA/HENRICO/2618-LASSEN-WALK-23294/unit-B/home/172435160,CVRMLS,2025048,N,Y,37.6157,-77.5314
PAST SALE,January-11-2021,Single Family Residential,6523 Wessex Ln,Richmond,VA,23226,305000,3,2.0,Westhampton Heights Annex,1274,7840,1950,328,239,,Sold,,,https://www.redfin.com/VA/Richmond/6523-Wessex-Ln-23226/home/55451217,CVRMLS,2035765,N,Y,37.5840024,-77.5291005
PAST SALE,,Single Family Residential,620 Westham Woods Dr,Richmond,VA,23229,466000,4,2.5,,2448,18092,1980,,190,,,,,https://www.redfin.com/VA/Richmond/620-Westham-Woods-Dr-23229/home/59665892,,,N,Y,37.5890568,-77.5591804
PAST SALE,,Single Family Residential,1008 Stilwell Rd,Richmond,VA,23226,233000,3,1.0,,1008,8099,1952,,231,,,,,https://www.redfin.com/VA/Richmond/1008-Stilwell-Rd-23226/home/59668026,,,N,Y,37.5902855,-77.5260471
PAST SALE,May-16-2019,Single Family Residential,2008 Marroit Rd,Henrico,VA,23229,225000,3,2.0,Cavalier Park,1461,15245,1955,934,154,,Sold,,,https://www.redfin.com/VA/Richmond/2008-Marroit-Rd-23229/home/59653064,CVRMLS,1911653,N,Y,37.6137882,-77.5414442
PAST SALE,August-24-2021,Single Family Residential,404 Horsepen Rd,Henrico,VA,23229,445000,3,2.0,Westham,1651,16117,1956,103,270,,Sold,,,https://www.redfin.com/VA/Richmond/404-Horsepen-Rd-23229/home/59672082,CVRMLS,2121898,N,Y,37.5846123,-77.5403339
PAST SALE,September-30-2020,Single Family Residential,8015 Spottswood Rd,Henrico,VA,23229,752000,5,4.5,Spottswood Park,3628,17859,1941,431,207,,Sold,,,https://www.redfin.com/VA/Richmond/8015-Spottswood-Rd-23229/home/59665822,CVRMLS,2023470,N,Y,37.5866243,-77.5555383
PAST SALE,March-9-2020,Single Family Residential,7210 Brigham Rd,Richmond,VA,23226,179200,2,1.0,Fort Hill,1004,13503,1951,636,178,,Sold,,,https://www.redfin.com/VA/Richmond/7210-Brigham-Rd-23226/home/59660476,CVRMLS,2003472,N,Y,37.6039785,-77.5313779
PAST SALE,November-22-2019,Single Family Residential,7709 Mendota Dr,Henrico,VA,23229,168000,2,2.0,Cavalier Park,1295,,1955,744,130,,Sold,,,https://www.redfin.com/VA/Richmond/7709-Mendota-Dr-23229/home/59653142,CVRMLS,1933073,N,Y,37.6152174,-77.5438273
PAST SALE,July-26-2021,Single Family Residential,7504 Westfield Rd,Henrico,VA,23229,290000,3,1.5,Tuckahoe Hills,1283,10890,1954,132,226,,Sold,,,https://www.redfin.com/VA/Richmond/7504-Westfield-Rd-23229/home/59660181,CVRMLS,2116624,N,Y,37.5985096,-77.5384976
PAST SALE,August-23-2021,Single Family Residential,2211 Mendota Dr,Richmond,VA,23229,286550,3,2.0,Cavalier Park,1395,12196,1955,104,205,,Sold,,,https://www.redfin.com/VA/Richmond/2211-Mendota-Dr-23229/home/59653132,CVRMLS,2121488,N,Y,37.6142481,-77.544723
PAST SALE,August-26-2021,Single Family Residential,7607 Three Chopt Rd,Henrico,VA,23229,246000,2,1.5,Sterlingwood,1188,12196,1948,101,207,,Sold,,,https://www.redfin.com/VA/Richmond/7607-Three-Chopt-Rd-23229/home/59659687,CVRMLS,2121378,N,Y,37.5973443,-77.5402443
PAST SALE,April-5-2021,Single Family Residential,1300 Severn Rd,Richmond,VA,23229,425000,3,2.5,Forest Heights,1685,11761,1951,244,252,,Sold,,,https://www.redfin.com/VA/Richmond/1300-Severn-Rd-23229/home/59659718,CVRMLS,2104206,N,Y,37.5964551,-77.5461114
PAST SALE,,Single Family Residential,1727 Rockwood Rd,Richmond,VA,23226,189000,3,1.0,,864,9508,1952,,219,,,,,https://www.redfin.com/VA/Richmond/1727-Rockwood-Rd-23226/home/59652978,,,N,Y,37.6074949,-77.5360454
PAST SALE,December-12-2019,Single Family Residential,1202 Elmhurst Dr,Henrico,VA,23229,267500,3,2.0,Beverly Hills,1224,13503,1952,724,219,,Sold,,,https://www.redfin.com/VA/Richmond/1202-Elmhurst-Dr-23229/home/59658994,CVRMLS,1934883,N,Y,37.5960145,-77.5561876
PAST SALE,November-17-2020,Single Family Residential,8803 Weldon Dr,Henrico,VA,23229,250000,3,1.0,Ridgecrest,1245,13068,1955,383,201,,Sold,,,https://www.redfin.com/VA/Richmond/8803-Weldon-Dr-23229/home/59659148,CVRMLS,2027854,N,Y,37.5979185,-77.5706847
PAST SALE,,Single Family Residential,1121 Bridle Ln,Richmond,VA,23229,295000,4,2.0,,1320,10897,1953,,223,,,,,https://www.redfin.com/VA/Richmond/1121-Bridle-Ln-23229/home/59658998,,,N,Y,37.5964868,-77.5605202
PAST SALE,,Single Family Residential,8702 Wytheland Rd,Richmond,VA,23229,260000,3,1.0,,1125,15954,1955,,231,,,,,https://www.redfin.com/VA/Richmond/8702-Wytheland-Rd-23229/home/59658738,,,N,Y,37.5960991,-77.5677407
PAST SALE,March-12-2020,Single Family Residential,1104 Hillside Ave,Henrico,VA,23229,265000,3,1.5,North Rollingwood,1234,11325,1942,633,215,,Sold,,,https://www.redfin.com/VA/Richmond/1104-Hillside-Ave-23229/home/59666428,CVRMLS,1937679,N,Y,37.5939739,-77.5424692
PAST SALE,June-29-2020,Single Family Residential,1317 Dinwiddie Ave,Richmond,VA,23229,316000,3,2.0,Beverly Hills,1704,10454,1954,524,185,,Sold,,,https://www.redfin.com/VA/Richmond/1317-Dinwiddie-Ave-23229/home/59659468,CVRMLS,2014260,N,Y,37.5986298,-77.5503659
PAST SALE,,Single Family Residential,8709 Rolando Dr,Richmond,VA,23229,256000,3,1.0,,1125,12150,1955,,228,,,,,https://www.redfin.com/VA/Richmond/8709-Rolando-Dr-23229/home/59658592,,,N,Y,37.5981259,-77.5688825
PAST SALE,,Single Family Residential,7604 Biscayne Rd,Richmond,VA,23294,215000,2,2.0,,2338,14862,1952,,92,,,,,https://www.redfin.com/VA/Richmond/7604-Biscayne-Rd-23294/home/59653457,,,N,Y,37.6167412,-77.5312277
PAST SALE,June-12-2019,Single Family Residential,8401 Copley Dr,Richmond,VA,23229,250000,4,1.5,Beverly Hills,1224,12196,1953,907,204,,Sold,,,https://www.redfin.com/VA/Richmond/8401-Copley-Dr-23229/home/59659027,CVRMLS,1909083,N,Y,37.5961973,-77.5590536
PAST SALE,May-16-2019,Single Family Residential,1810 Aisquith Rd,Henrico,VA,23229,240000,4,2.0,Skipwith Farms,1945,15245,1956,934,123,,Sold,,,https://www.redfin.com/VA/Richmond/1810-Aisquith-Rd-23229/home/59652514,CVRMLS,1909542,N,Y,37.6101769,-77.5441856
PAST SALE,,Single Family Residential,8415 Valley Wood Rd,Richmond,VA,23229,535000,4,2.5,,2260,11039,1988,,237,,,,,https://www.redfin.com/VA/Richmond/8415-Valley-Wood-Rd-23229/home/59671719,,,N,Y,37.5846424,-77.5644271
PAST SALE,October-22-2020,Single Family Residential,7412 Biscayne Rd,Henrico,VA,23294,300000,4,2.5,Whispering Pines Henr,2250,17859,1954,409,133,,Sold,,,https://www.redfin.com/VA/Richmond/7412-Biscayne-Rd-23294/home/59653371,CVRMLS,2023999,N,Y,37.6150768,-77.5317791
PAST SALE,July-13-2021,Single Family Residential,8325 Rolando Dr,Henrico,VA,23229,342750,4,2.0,Beverly Hills,1386,15245,1953,145,247,,Sold,,,https://www.redfin.com/VA/Richmond/8325-Rolando-Dr-23229/home/59666219,CVRMLS,2116223,N,Y,37.5955692,-77.558158
PAST SALE,May-7-2020,Single Family Residential,1314 Camden Dr,Richmond,VA,23229,273000,4,1.5,Ridgeway Farms,1260,10454,1954,577,217,,Sold,,,https://www.redfin.com/VA/Richmond/1314-Camden-Dr-23229/home/59659259,CVRMLS,2009525,N,Y,37.5987947,-77.5564227
PAST SALE,November-21-2019,Single Family Residential,1214 Hollins Rd,Henrico,VA,23229,243000,3,1.0,Hollinswood,1088,11761,1952,745,223,,Sold,,,https://www.redfin.com/VA/Richmond/1214-Hollins-Rd-23229/home/59659653,CVRMLS,1932877,N,Y,37.5967182,-77.5397517
PAST SALE,,Single Family Residential,8515 Julian Rd,Richmond,VA,23229,342000,4,3.0,,2555,18227,1953,,134,,,,,https://www.redfin.com/VA/Richmond/8515-Julian-Rd-23229/home/59665409,,,N,Y,37.5930141,-77.5633972
PAST SALE,June-11-2019,Single Family Residential,8302 Vernelle Ln,Henrico,VA,23229,290000,3,2.0,Michael Hills Addition,1562,13068,1955,908,186,,Sold,,,https://www.redfin.com/VA/Richmond/8302-Vernelle-Ln-23229/home/59652313,CVRMLS,1915083,N,Y,37.6084587,-77.5560664
PAST SALE,October-7-2020,Single Family Residential,1609 Brigham Rd,Richmond,VA,23226,256500,3,1.0,Fort Hill,1140,15245,1951,424,225,,Sold,,,https://www.redfin.com/VA/Richmond/1609-Brigham-Rd-23226/home/59660443,CVRMLS,2018050,N,Y,37.6026057,-77.5323614
PAST SALE,September-15-2020,Single Family Residential,8505 Rivermont Dr,Henrico,VA,23229,390000,4,2.5,Rivermont,2240,13503,1956,446,174,,Sold,,,https://www.redfin.com/VA/Richmond/8505-Rivermont-Dr-23229/home/59665483,CVRMLS,2023503,N,Y,37.589544,-77.5635469
PAST SALE,September-14-2020,Single Family Residential,8713 Rolando Dr,Henrico,VA,23229,252000,3,1.0,Ridgecrest,1389,12196,1955,447,181,,Sold,,,https://www.redfin.com/VA/Richmond/8713-Rolando-Dr-23229/home/59658590,CVRMLS,2023044,N,Y,37.5981182,-77.5694749
PAST SALE,July-12-2019,Single Family Residential,8908 Mapleton Rd,Henrico,VA,23229,210000,3,1.0,Greenbriar Hills,1088,15681,1955,877,193,,Sold,,,https://www.redfin.com/VA/Richmond/8908-Mapleton-Rd-23229/home/59658335,CVRMLS,1919050,N,Y,37.5971242,-77.5735167
PAST SALE,September-23-2020,Single Family Residential,7200 Beechwood Dr,Henrico,VA,23229,595025,3,2.5,Westham,2241,24393,1959,438,266,,Sold,,,https://www.redfin.com/VA/Richmond/7200-Beechwood-Dr-23229/home/59672498,CVRMLS,2023552,N,Y,37.584299,-77.5485298
PAST SALE,October-20-2021,Single Family Residential,1210 Santa Anna Rd,Richmond,VA,23229,310000,4,3.0,Beverly Hills,1710,12196,1952,46,181,,Sold,,,https://www.redfin.com/VA/Richmond/1210-Santa-Anna-Rd-23229/home/59659521,CVRMLS,2128571,N,Y,37.5964209,-77.5546203
PAST SALE,November-13-2019,Single Family Residential,8407 Henrico Ave,Henrico,VA,23229,275450,3,2.0,Rivermont,2093,12632,1956,753,132,,Sold,,,https://www.redfin.com/VA/Richmond/8407-Henrico-Ave-23229/home/59666240,CVRMLS,1930547,N,Y,37.591736,-77.5607709
PAST SALE,August-6-2020,Single Family Residential,8202 Larcom Ln,Henrico,VA,23229,382000,3,2.0,University Heights,1610,20037,1953,486,237,,Sold,,,https://www.redfin.com/VA/Richmond/8202-Larcom-Ln-23229/home/59666085,CVRMLS,2008358,N,Y,37.5918178,-77.5572649
PAST SALE,July-23-2021,Single Family Residential,520 Ridgeley Ln,Henrico,VA,23229,340000,3,2.0,Forest Ridge,1732,13068,1959,135,196,,Sold,,,https://www.redfin.com/VA/Richmond/520-Ridgeley-Ln-23229/home/59665569,CVRMLS,2116366,N,Y,37.587964,-77.568681
PAST SALE,August-1-2019,Single Family Residential,8006 Michael Rd,Henrico,VA,23229,415000,3,1.5,,1906,43560,1939,857,218,,Sold,,,https://www.redfin.com/VA/Richmond/8006-Michael-Rd-23229/home/59652255,CVRMLS,1916541,N,Y,37.607877,-77.549569
PAST SALE,July-17-2020,Single Family Residential,511 Glendale Dr,Henrico,VA,23229,330000,3,2.0,,1433,19602,1958,506,230,,Sold,,,https://www.redfin.com/VA/Richmond/511-Glendale-Dr-23229/home/59665608,CVRMLS,2012414,N,Y,37.5875593,-77.5638846
PAST SALE,September-16-2020,Condo/Co-op,2618 Lassen Walk Unit A,Henrico,VA,23294,274990,2,2.5,West Broad Landing,1591,,2020,445,173,54,Sold,,,https://www.redfin.com/VA/HENRICO/2618-LASSEN-WALK-23294/unit-A/home/172757909,CVRMLS,2025025,N,Y,37.6157,-77.5314
PAST SALE,September-17-2019,Single Family Residential,1814 Westhill Rd,Henrico,VA,23226,175000,3,1.0,Berkeley Park,864,12196,1952,810,203,,Sold,,,https://www.redfin.com/VA/Richmond/1814-Westhill-Rd-23226/home/59652966,CVRMLS,1918664,N,Y,37.6093742,-77.5351384
PAST SALE,August-7-2020,Single Family Residential,7910 Lycoming Rd,Henrico,VA,23229,350000,3,3.0,,2354,16988,1958,485,149,,Sold,,,https://www.redfin.com/VA/Richmond/7910-Lycoming-Rd-23229/home/59652405,CVRMLS,2019102,N,Y,37.6085374,-77.5483954
PAST SALE,June-28-2021,Single Family Residential,6618 W Franklin St,Henrico,VA,23226,451000,3,1.5,Monument Hills,1524,11325,1951,160,296,,Sold,,,https://www.redfin.com/VA/Richmond/6618-W-Franklin-St-23226/home/59668142,CVRMLS,2115071,N,Y,37.5919187,-77.5258137
PAST SALE,September-16-2020,Single Family Residential,7515 Century Dr,Henrico,VA,23229,301000,4,2.0,,1771,15681,1956,445,170,,Sold,,,https://www.redfin.com/VA/Richmond/7515-Century-Dr-23229/home/59652747,CVRMLS,2022237,N,Y,37.6080575,-77.5400652
PAST SALE,September-3-2019,Single Family Residential,6509 W Grace St,Henrico,VA,23226,227000,3,1.0,Westhaven,1044,8276,1949,824,217,,Sold,,,https://www.redfin.com/VA/Richmond/6509-W-Grace-St-23226/home/59667516,CVRMLS,1923746,N,Y,37.5910617,-77.520437
PAST SALE,February-22-2021,Single Family Residential,1811 Briardale Ln,Henrico,VA,23229,325000,3,2.0,Windsordale,1429,13503,1962,286,227,,Sold,,,https://www.redfin.com/VA/Richmond/1811-Briardale-Ln-23229/home/59651583,CVRMLS,2101464,N,Y,37.6135067,-77.5635875
PAST SALE,May-10-2021,Single Family Residential,517 Raleigh Manor Rd,Henrico,VA,23229,1050000,4,3.5,Raleigh,4847,21780,2006,209,217,108,Sold,,,https://www.redfin.com/VA/Richmond/517-Raleigh-Manor-Rd-23229/home/59603311,CVRMLS,2105202,N,Y,37.5848936,-77.5716884
PAST SALE,December-2-2019,Single Family Residential,8 Paris Ridge Ln,Henrico,VA,23229,850000,5,4.5,,4287,13068,2011,734,198,,Sold,,,https://www.redfin.com/VA/Richmond/8-Paris-Ridge-Ln-23229/home/59607361,CVRMLS,1928074,N,Y,37.5869343,-77.5501868
PAST SALE,June-12-2019,Single Family Residential,6513 Stuart Ave,Richmond,VA,23226,231160,2,1.5,Westhampton Heights Annex,1128,7405,1947,907,205,,Sold,,,https://www.redfin.com/VA/Richmond/6513-Stuart-Ave-23226/home/55450936,CVRMLS,1915655,N,Y,37.5845918,-77.5265874
PAST SALE,September-30-2020,Single Family Residential,1003 Bevridge Rd,Richmond,VA,23226,370000,3,1.5,Pine Ridge,1296,8276,1949,431,285,,Sold,,,https://www.redfin.com/VA/Richmond/1003-Bevridge-Rd-23226/home/59667904,CVRMLS,2009019,N,Y,37.5871108,-77.5218546
PAST SALE,August-7-2020,Single Family Residential,8603 Julian Rd,Henrico,VA,23229,282500,3,2.0,Glen Ridge,1871,19602,1954,485,151,,Sold,,,https://www.redfin.com/VA/Richmond/8603-Julian-Rd-23229/home/59665315,CVRMLS,2017575,N,Y,37.593001,-77.5644271
PAST SALE,October-1-2019,Single Family Residential,6901 Dartmouth Ave,Richmond,VA,23226,325000,3,2.5,Crestview,1730,8276,2001,796,188,25,Sold,,,https://www.redfin.com/VA/Richmond/6901-Dartmouth-Ave-23226/home/59660680,CVRMLS,1925040,N,Y,37.598183,-77.5231789
PAST SALE,,Single Family Residential,8805 Dena Dr,Richmond,VA,23229,288500,3,2.0,,1492,10484,1956,,193,,,,,https://www.redfin.com/VA/Richmond/8805-Dena-Dr-23229/home/59658698,,,N,Y,37.6053194,-77.5627703
PAST SALE,June-8-2020,Single Family Residential,4718 Wistar Rd,Henrico,VA,23228,168265,2,1.0,Westwood Heights,720,14810,1951,545,234,,Sold,,,https://www.redfin.com/VA/Richmond/4718-Wistar-Rd-23228/home/59644411,CVRMLS,2011529,N,Y,37.621108,-77.5222406
PAST SALE,August-25-2021,Single Family Residential,8902 Penguin Rd,Henrico,VA,23229,275000,3,1.5,Greenbrier Hills,1470,11761,1955,102,187,,Sold,,,https://www.redfin.com/VA/Richmond/8902-Penguin-Rd-23229/home/59658351,CVRMLS,2121552,N,Y,37.5962032,-77.5732259
PAST SALE,October-15-2020,Single Family Residential,6505 Stuart Ave,Richmond,VA,23226,351000,2,1.5,Westhampton Heights Annex,1235,7405,1950,416,284,,Sold,,,https://www.redfin.com/VA/Richmond/6505-Stuart-Ave-23226/home/55450928,CVRMLS,2026476,N,Y,37.5841974,-77.5260551
PAST SALE,April-22-2019,Single Family Residential,6901 Bandy Rd,Henrico,VA,23226,920000,5,4.0,,4125,47916,1967,958,223,,Sold,,,https://www.redfin.com/VA/Richmond/6901-Bandy-Rd-23226/home/59667640,CVRMLS,1905352,N,Y,37.5848881,-77.5329437
PAST SALE,June-1-2020,Single Family Residential,1510 Ethridge Dr,Henrico,VA,23226,217450,3,1.5,Fort Hill,1152,11761,1950,552,189,,Sold,,,https://www.redfin.com/VA/Richmond/1510-Ethridge-Dr-23226/home/59660414,CVRMLS,2010327,N,Y,37.5997324,-77.5303906
PAST SALE,December-5-2019,Single Family Residential,901 Orchard Rd,Richmond,VA,23226,311900,4,2.0,Pine Ridge,1496,10454,1947,731,208,,Sold,,,https://www.redfin.com/VA/Richmond/901-Orchard-Rd-23226/home/55450641,CVRMLS,1932274,N,Y,37.5846885,-77.5216446
PAST SALE,October-27-2020,Single Family Residential,461 Ziontown Rd,Henrico,VA,23229,740000,5,4.5,Zion Town,4400,16117,2006,404,168,,Sold,,,https://www.redfin.com/VA/Richmond/461-Ziontown-Rd-23229/home/59672614,CVRMLS,2014366,N,Y,37.5829472,-77.5561948
PAST SALE,November-10-2021,Condo/Co-op,2761 Acadia Dr Unit B,Henrico,VA,23294,421520,3,2.5,West Broad Landing,2518,,2021,25,167,176,Sold,,,https://www.redfin.com/VA/Richmond/2761-Acadia-DR-23294/unit-B/home/176181996,CVRMLS,2126152,N,Y,37.6162,-77.521
PAST SALE,November-21-2019,Single Family Residential,1910 Windsordale Dr,Henrico,VA,23229,219500,3,1.5,Windsordale,1400,17859,1962,745,157,,Sold,,,https://www.redfin.com/VA/Richmond/1910-Windsordale-Dr-23229/home/59651586,CVRMLS,1931108,N,Y,37.6149911,-77.5632965
PAST SALE,August-7-2020,Single Family Residential,8904 Penguin Rd,Henrico,VA,23229,252000,3,2.0,Greenbriar Hills,1728,11761,1955,485,146,,Sold,,,https://www.redfin.com/VA/Richmond/8904-Penguin-Rd-23229/home/59658354,CVRMLS,2015312,N,Y,37.5961772,-77.573472
PAST SALE,June-4-2021,Single Family Residential,8906 Mapleton Rd,Henrico,VA,23238,289000,3,2.0,GREENBRIER HILLS,1168,13939,1955,184,247,,Sold,,,https://www.redfin.com/VA/Richmond/8906-Mapleton-Rd-23229/home/59658365,BRIGHT MLS,VAHN100858,N,Y,37.5970897,-77.5731668
PAST SALE,July-12-2021,Single Family Residential,528 Cedarbrooke Ln,Henrico,VA,23229,335000,3,2.0,Forest Ridge,1446,11761,1959,146,232,,Sold,,,https://www.redfin.com/VA/Richmond/528-Cedarbrooke-Ln-23229/home/59665519,CVRMLS,2115358,N,Y,37.5885755,-77.5671138
PAST SALE,July-30-2021,Single Family Residential,1409 Severn Rd,Henrico,VA,23229,354000,3,2.0,,1344,12632,1948,128,263,,Sold,,,https://www.redfin.com/VA/Richmond/1409-Severn-Rd-23229/home/59659736,CVRMLS,2116603,N,Y,37.5984733,-77.5446782
PAST SALE,July-30-2021,Single Family Residential,8421 Valley Wood Rd,Henrico,VA,23229,485000,4,2.5,Whitehall,2116,16117,1987,128,229,8,Sold,,,https://www.redfin.com/VA/Richmond/8421-Valley-Wood-Rd-23229/home/59671724,CVRMLS,2117467,N,Y,37.5847597,-77.5651436
PAST SALE,,Single Family Residential,2419 Fon Du Lac Rd,Richmond,VA,23229,205000,4,2.5,,1960,14948,1969,,105,,,,,https://www.redfin.com/VA/Richmond/2419-Fon-Du-Lac-Rd-23229/home/59643483,,,N,Y,37.6188707,-77.5454396
PAST SALE,August-2-2021,Single Family Residential,6914 Monument Ave,Henrico,VA,23226,456000,3,2.0,Duntreath,1683,10454,1953,125,271,,Sold,,,https://www.redfin.com/VA/Richmond/6914-Monument-Ave-23226/home/59667057,CVRMLS,2116820,N,Y,37.5944596,-77.5274343
PAST SALE,,Single Family Residential,7010 Tulane Ave,Richmond,VA,23226,330000,3,2.0,,1512,8183,1947,,218,,,,,https://www.redfin.com/VA/Richmond/7010-Tulane-Ave-23226/home/59661147,,,N,Y,37.5974977,-77.5274007
PAST SALE,August-31-2021,Single Family Residential,1104 Hill Cir,Henrico,VA,23229,375000,3,2.5,,1694,10890,1942,96,221,,Sold,,,https://www.redfin.com/VA/Richmond/1104-Hill-Cir-23229/home/59666444,CVRMLS,2121692,N,Y,37.595179,-77.54404
PAST SALE,January-15-2021,Single Family Residential,1406 Dinwiddie Ave,Henrico,VA,23229,327200,3,1.5,Beverly Hills,1420,10890,1955,324,230,,Sold,,,https://www.redfin.com/VA/Richmond/1406-Dinwiddie-Ave-23229/home/59659498,CVRMLS,2036416,N,Y,37.5996178,-77.5504107
PAST SALE,August-10-2021,Single Family Residential,1013 Bevridge Rd,Henrico,VA,23226,405000,4,2.0,Pine Ridge,1706,6969,1958,117,237,,Sold,,,https://www.redfin.com/VA/Richmond/1013-Bevridge-Rd-23226/home/59667907,CVRMLS,2119325,N,Y,37.5880486,-77.5211184
PAST SALE,August-15-2019,Single Family Residential,8508 Spalding Dr,Henrico,VA,23229,274150,4,2.0,Beverly Hills,1495,9583,1954,843,183,,Sold,,,https://www.redfin.com/VA/Richmond/8508-Spalding-Dr-23229/home/59659082,CVRMLS,1921254,N,Y,37.5984053,-77.5609344
PAST SALE,June-21-2019,Single Family Residential,1802 Le Suer Rd,Henrico,VA,23229,330000,5,2.0,Riohondo Hills,2912,21344,1963,898,113,,Sold,,,https://www.redfin.com/VA/Richmond/1802-Le-Suer-Rd-23229/home/59652389,CVRMLS,1916720,N,Y,37.6092065,-77.5492911
PAST SALE,July-30-2019,Single Family Residential,8407 Holly Hill Rd,Henrico,VA,23229,225000,3,1.0,Beverly Hills,1408,10890,1954,859,160,,Sold,,,https://www.redfin.com/VA/Richmond/8407-Holly-Hill-Rd-23229/home/59659368,CVRMLS,1916322,N,Y,37.5987933,-77.5584267
PAST SALE,June-2-2021,Single Family Residential,6909 Vanderbilt Ave,Richmond,VA,23226,401000,4,2.5,Crestview,1782,8276,2000,186,225,25,Sold,,,https://www.redfin.com/VA/Richmond/6909-Vanderbilt-Ave-23226/home/59661129,CVRMLS,2112273,N,Y,37.5977027,-77.5244332
PAST SALE,March-3-2021,Single Family Residential,6525 Stuart Ave,Richmond,VA,23226,302500,3,1.0,Westhampton Heights Annex,962,7405,1960,277,314,,Sold,,,https://www.redfin.com/VA/Richmond/6525-Stuart-Ave-23226/home/55450940,CVRMLS,2102313,N,Y,37.5851241,-77.5273927
PAST SALE,December-29-2020,Single Family Residential,6913 Vanderbilt Ave,Richmond,VA,23226,365000,4,2.5,Charles Glen,2033,7840,2001,341,180,25,Sold,,,https://www.redfin.com/VA/Richmond/6913-Vanderbilt-Ave-23226/home/59661123,CVRMLS,2030095,N,Y,37.5978639,-77.5247915
PAST SALE,December-16-2020,Single Family Residential,8202 Mark Lawn Dr,Henrico,VA,23238,266000,3,3.5,WEST LAWN,1812,12000,1988,354,147,,Sold,,,https://www.redfin.com/VA/Richmond/8202-Mark-Lawn-Dr-23229/home/59643519,BRIGHT MLS,VAHN100774,N,Y,37.6204886,-77.5479177
PAST SALE,April-11-2019,Single Family Residential,8412 Copley Dr,Henrico,VA,23229,240000,3,2.0,Beverly Hills,1500,13068,1953,969,160,,Sold,,,https://www.redfin.com/VA/Richmond/8412-Copley-Dr-23229/home/59659036,CVRMLS,1907559,N,Y,37.5972491,-77.5591208
PAST SALE,November-19-2020,Single Family Residential,8313 Erma Ln,Henrico,VA,23229,239950,3,1.0,Michael Hills Addition,1104,11761,1955,381,217,,Sold,,,https://www.redfin.com/VA/Richmond/8313-Erma-Ln-23229/home/59652322,CVRMLS,2028707,N,Y,37.6090406,-77.5572182
PAST SALE,October-29-2020,Single Family Residential,1204 Skipwith Rd,Henrico,VA,23229,349500,4,2.0,Clovelly Gardens,,,1947,402,,,Sold,,,https://www.redfin.com/VA/Richmond/1204-Skipwith-Rd-23229/home/59660076,CVRMLS,2102121,N,Y,37.5963166,-77.5386767
PAST SALE,April-19-2019,Single Family Residential,1118 Bridle Ln,Henrico,VA,23229,233500,3,1.0,Beverly Hills,1208,15245,1954,961,193,,Sold,,,https://www.redfin.com/VA/Richmond/1118-Bridle-Ln-23229/home/59665337,CVRMLS,1905293,N,Y,37.5959281,-77.561628
PAST SALE,November-1-2019,Condo/Co-op,8409 Holly Hill Rd,Henrico,VA,23229,272200,3,2.0,Beverly Hills,1608,10890,1954,765,169,,Sold,,,https://www.redfin.com/VA/Richmond/8409-Holly-Hill-Rd-23229/home/59659367,CVRMLS,1927484,N,Y,37.5988626,-77.5586814
PAST SALE,June-10-2020,Single Family Residential,8908 Penquin Rd,Henrico,VA,23229,289995,4,2.0,Greenbriar Hills,1856,14810,1955,543,156,,Sold,,,https://www.redfin.com/VA/Richmond/8908-Penguin-Rd-23229/home/59658356,CVRMLS,2009315,N,Y,37.5962439,-77.5740988
PAST SALE,October-22-2021,Single Family Residential,1710 Chadwick Dr,Henrico,VA,23229,637500,3,2.5,Acreage,2450,91476,1953,44,260,,Sold,,,https://www.redfin.com/VA/Richmond/1710-Chadwick-Dr-23229/home/59652261,CVRMLS,2128517,N,Y,37.6072897,-77.5420806
PAST SALE,June-17-2019,Single Family Residential,2314 Pathfinder Cir,Henrico,VA,23294,280000,4,2.5,Thousand Oaks,2156,11325,1982,902,130,2,Sold,,,https://www.redfin.com/VA/Richmond/2314-Pathfinder-Cir-23294/home/59652851,CVRMLS,1912320,N,Y,37.6135301,-77.5353176
PAST SALE,July-23-2019,Single Family Residential,6800 Park Ave,Richmond,VA,23226,500000,6,4.0,Duntreath,3620,12632,1954,866,138,,Sold,,,https://www.redfin.com/VA/Richmond/6800-Park-Ave-23226/home/59667486,CVRMLS,1917633,N,Y,37.5916355,-77.527076
PAST SALE,November-21-2019,Single Family Residential,1409 Blue Jay Ln,Henrico,VA,23229,240000,3,1.5,Greenbriar Hills,1088,18730,1957,745,221,,Sold,,,https://www.redfin.com/VA/Richmond/1409-Blue-Jay-Ln-23229/home/59658714,CVRMLS,1930573,N,Y,37.6040229,-77.5726101
PAST SALE,,Single Family Residential,1922 Colgate Ave,Richmond,VA,23226,435000,4,3.5,,2983,12504,2002,,146,,,,,https://www.redfin.com/VA/Richmond/1922-Colgate-Ave-23226/home/59660655,,,N,Y,37.6014988,-77.5227758
PAST SALE,May-6-2019,Single Family Residential,310 Glendale Dr,Henrico,VA,23229,349000,4,2.5,Ridgeview,2298,15681,1990,944,152,,Sold,,,https://www.redfin.com/VA/Richmond/310-Glendale-Dr-23229/home/59665668,CVRMLS,1906852,N,Y,37.5852633,-77.5675616
PAST SALE,June-13-2019,Single Family Residential,1302 Rosecroft Rd,Henrico,VA,23229,220000,3,1.0,Ridgecrest,1245,11761,1956,906,177,,Sold,,,https://www.redfin.com/VA/Richmond/1302-Rosecroft-Rd-23229/home/59658486,CVRMLS,1909886,N,Y,37.5989247,-77.5711884
PAST SALE,,Single Family Residential,9317 Skyview Dr,Richmond,VA,23229,250000,4,2.5,,2070,20551,1967,,121,,,,,https://www.redfin.com/VA/Richmond/9317-Skyview-Dr-23229/home/59651353,,,N,Y,37.6154019,-77.5732033
PAST SALE,December-19-2019,Single Family Residential,1603 Westbury Dr,Henrico,VA,23229,279900,3,2.0,Westbury Estates,2136,15681,1958,717,131,,Sold,,,https://www.redfin.com/VA/Richmond/1603-Westbury-Dr-23229/home/59658791,CVRMLS,1932402,N,Y,37.6052544,-77.5525603
PAST SALE,July-8-2021,Single Family Residential,1207 Hollins Rd,Henrico,VA,23229,471725,3,1.5,Clovelly Gardens,1664,10454,1949,150,283,,Sold,,,https://www.redfin.com/VA/Richmond/1207-Hollins-Rd-23229/home/59660086,CVRMLS,2116328,N,Y,37.5964245,-77.5393038
PAST SALE,July-13-2021,Single Family Residential,6504 W Franklin St,Richmond,VA,23226,437000,3,1.5,Monument Hills,1428,10018,1951,145,306,,Sold,,,https://www.redfin.com/VA/Richmond/6504-W-Franklin-St-23226/home/59668169,CVRMLS,2116558,N,Y,37.5891548,-77.5211184
PAST SALE,,Single Family Residential,1506 Bexhill Rd,Richmond,VA,23229,260000,3,1.5,,1632,11885,1957,,159,,,,,https://www.redfin.com/VA/Richmond/1506-Bexhill-Rd-23229/home/59658767,,,N,Y,37.6033375,-77.5569153
PAST SALE,January-10-2020,Single Family Residential,1413 Coronet Dr,Henrico,VA,23229,195000,3,1.0,Ridgeway Farms,1008,10454,1955,695,193,,Sold,,,https://www.redfin.com/VA/Richmond/1413-Coronet-Dr-23229/home/59659401,CVRMLS,1935745,N,Y,37.5997932,-77.5535903
PAST SALE,December-18-2020,Single Family Residential,1507 Fort Hill Dr,Henrico,VA,23226,225000,2,1.0,Fort Hill,864,10890,1951,352,260,,Sold,,,https://www.redfin.com/VA/Richmond/1507-Fort-Hill-Dr-23226/home/59660388,CVRMLS,2034202,N,Y,37.5993271,-77.5311968
PAST SALE,October-25-2019,Single Family Residential,9016 Farmington Dr,Henrico,VA,23229,211000,3,1.5,Greenbriar Hills,1088,10890,1956,772,194,,Sold,,,https://www.redfin.com/VA/Richmond/9016-Farmington-Dr-23229/home/59658627,CVRMLS,1926063,N,Y,37.6014485,-77.5729105
PAST SALE,July-18-2019,Single Family Residential,7511 Parkline Dr,Henrico,VA,23229,260000,3,1.5,Tuckahoe Hills,1496,10018,1955,871,174,,Sold,,,https://www.redfin.com/VA/Richmond/7511-Parkline-Dr-23229/home/59660207,CVRMLS,1919141,N,Y,37.5998608,-77.539259
PAST SALE,January-17-2020,Single Family Residential,9302 Freestone Ave,Henrico,VA,23229,282000,4,2.0,Three Chopt Estates,2205,11325,1963,688,128,,Sold,,,https://www.redfin.com/VA/Richmond/9302-Freestone-Ave-23229/home/59642317,CVRMLS,1936656,N,Y,37.6211772,-77.5659048
PAST SALE,September-24-2019,Condo/Co-op,1300 Maywood Rd,Henrico,VA,23229,249550,4,2.0,Ridgeway Farms,1566,11325,1954,803,159,,Sold,,,https://www.redfin.com/VA/Richmond/1300-Maywood-Rd-23229/home/59659245,CVRMLS,1925302,N,Y,37.5981816,-77.5580684
PAST SALE,January-28-2021,Single Family Residential,9507 Ridgefield Rd,Henrico,VA,23229,299500,3,2.0,Pinedale Farms,1823,12632,1962,311,164,,Sold,,,https://www.redfin.com/VA/Richmond/9507-Ridgefield-Rd-23229/home/59651374,CVRMLS,2034707,N,Y,37.6175286,-77.5716362
PAST SALE,May-11-2020,Single Family Residential,6806 Edmonstone Ave,Richmond,VA,23226,450000,4,2.0,Duntreath,1842,12196,1952,573,244,,Sold,,,https://www.redfin.com/VA/Richmond/6806-Edmonstone-Ave-23226/home/59667451,CVRMLS,2008445,N,Y,37.5906831,-77.5277479
PAST SALE,December-1-2020,Single Family Residential,8403 Valley Wood Rd,Henrico,VA,23229,625000,5,3.5,Whitehall,3245,8712,1987,369,193,8,Sold,,,https://www.redfin.com/VA/Richmond/8403-Valley-Wood-Rd-23229/home/59671683,CVRMLS,2029188,N,Y,37.5846195,-77.5629671
PAST SALE,,Single Family Residential,1313 St Michaels Ln,Richmond,VA,23229,160000,3,1.0,,720,9921,1950,,222,,,,,https://www.redfin.com/VA/Richmond/1313-St-Michaels-Ln-23229/home/59658539,,,N,Y,37.5992542,-77.565054
PAST SALE,,Single Family Residential,8903 Pinyon Rd,Richmond,VA,23229,280000,3,2.0,,2239,10328,1961,,125,,,,,https://www.redfin.com/VA/Richmond/8903-Pinyon-Rd-23229/home/59642301,,,N,Y,37.6183826,-77.5658152
PAST SALE,July-19-2019,Single Family Residential,2403 Nortonia Rd,Henrico,VA,23229,175000,3,1.0,Cavalier Park,925,10890,1956,870,189,,Sold,,,https://www.redfin.com/VA/Richmond/2403-Nortonia-Rd-23229/home/59652832,CVRMLS,1919758,N,Y,37.6169055,-77.5446782
PAST SALE,June-13-2019,Single Family Residential,6917 Dartmouth Ave,Richmond,VA,23226,327000,4,2.5,Crestview,2008,6969,2001,906,163,25,Sold,,,https://www.redfin.com/VA/Richmond/6917-Dartmouth-Ave-23226/home/59660688,CVRMLS,1908035,N,Y,37.5987917,-77.5246571
PAST SALE,,Single Family Residential,910 Westham Pkwy,Richmond,VA,23229,903000,3,1.0,,1152,13281,1952,,784,,,,,https://www.redfin.com/VA/Richmond/910-Westham-Pkwy-23229/home/59666651,,,N,Y,37.5891596,-77.5410953
PAST SALE,August-20-2021,Single Family Residential,501 Cokesburg Ln,Henrico,VA,23229,350000,3,2.0,Ridgeview,1433,10890,1957,107,244,,Sold,,,https://www.redfin.com/VA/Richmond/501-Cokesburg-Ln-23229/home/59665595,CVRMLS,2122488,N,Y,37.5875528,-77.5655914
PAST SALE,July-17-2019,Single Family Residential,507 Greene Ridge Rd,Henrico,VA,23229,555000,4,2.0,Whitehall,3288,,1986,872,169,7,Sold,,,https://www.redfin.com/VA/Richmond/507-Greene-Ridge-Rd-23229/home/59671758,CVRMLS,1919563,N,Y,37.5848002,-77.5622554
PAST SALE,July-28-2021,Single Family Residential,7107 Brigham Rd,Richmond,VA,23226,255000,3,2.0,Fort Hill,1368,13503,1950,130,186,,Sold,,,https://www.redfin.com/VA/Richmond/7107-Brigham-Rd-23226/home/59660258,CVRMLS,2116450,N,Y,37.6034515,-77.5287781
PAST SALE,May-28-2021,Townhouse,501 St Albans Way,Henrico,VA,23229,600000,3,3.0,St Albans Condominium,2382,2178,1993,191,252,572,Sold,,,https://www.redfin.com/VA/Richmond/501-St-Albans-Way-23229/home/59672566,CVRMLS,2110612,N,Y,37.583854,-77.560079
PAST SALE,March-3-2020,Single Family Residential,7805 Yolanda Rd,Henrico,VA,23229,295000,4,2.0,Skipwith Farms,2252,19166,1968,642,131,,Sold,,,https://www.redfin.com/VA/Richmond/7805-Yolanda-Rd-23229/home/59652435,CVRMLS,2002445,N,Y,37.6110335,-77.5470295
PAST SALE,December-23-2019,Single Family Residential,400 Glendale Dr,Henrico,VA,23229,245500,3,1.5,Ridgeview,1205,14374,1958,713,204,,Sold,,,https://www.redfin.com/VA/Richmond/400-Glendale-Dr-23229/home/59665655,CVRMLS,1935840,N,Y,37.585874,-77.5671334
PAST SALE,February-5-2020,Single Family Residential,8113 Michael Rd,Henrico,VA,23229,327000,4,3.0,Michael Hills,2974,18295,1959,669,110,,Sold,,,https://www.redfin.com/VA/Richmond/8113-Michael-Rd-23229/home/59652289,CVRMLS,1928198,N,Y,37.6084788,-77.5520677
PAST SALE,April-14-2020,Single Family Residential,8709 Mapleton Rd,Henrico,VA,23229,250000,3,1.5,Ridgecrest,1317,12196,1955,600,190,,Sold,,,https://www.redfin.com/VA/Richmond/8709-Mapleton-Rd-23229/home/59664916,CVRMLS,2004868,N,Y,37.5952352,-77.5688601
PAST SALE,September-8-2020,Single Family Residential,6611 Monument Ave,Henrico,VA,23226,451000,3,2.5,Monument Hills,1996,10454,1950,453,226,,Sold,,,https://www.redfin.com/VA/Richmond/6611-Monument-Ave-23226/home/59668126,CVRMLS,2022071,N,Y,37.5919723,-77.5246286
PAST SALE,May-28-2020,Single Family Residential,6602 Park Ave,Richmond,VA,23226,287500,3,1.0,Monument Hills,1008,7840,1952,556,285,,Sold,,,https://www.redfin.com/VA/Richmond/6602-Park-Ave-23226/home/59668207,CVRMLS,2009927,N,Y,37.5897722,-77.5242092
PAST SALE,August-1-2019,Single Family Residential,1504 Harvard Rd,Henrico,VA,23226,237500,4,2.0,Crestview,1222,7840,1947,857,194,,Sold,,,https://www.redfin.com/VA/Richmond/1504-Harvard-Rd-23226/home/59660483,CVRMLS,1919728,N,Y,37.5973817,-77.5285951
PAST SALE,August-20-2020,Single Family Residential,6510 Edgehill Rd,Richmond,VA,23226,605000,3,2.5,College Terrace,2983,23522,1959,472,203,,Sold,,,https://www.redfin.com/VA/Richmond/6510-Edgehill-Rd-23226/home/59672761,CVRMLS,2018229,N,Y,37.5841314,-77.5327645
PAST SALE,November-5-2020,Single Family Residential,7007 Miami Ave,Henrico,VA,23226,352000,4,2.5,Crestview,2018,7840,2003,395,174,,Sold,,,https://www.redfin.com/VA/Richmond/7007-Miami-Ave-23226/home/59661140,CVRMLS,2025710,N,Y,37.597706,-77.5267624
PAST SALE,April-27-2021,Single Family Residential,7517 Schaaf Dr,Henrico,VA,23229,255000,3,1.5,Westgate,1236,9583,1956,222,206,,Sold,,,https://www.redfin.com/VA/Richmond/7517-Schaaf-Dr-23229/home/59660124,CVRMLS,2106076,N,Y,37.6055589,-77.5400652
PAST SALE,November-27-2019,Single Family Residential,913 Orchard Rd,Richmond,VA,23226,330000,3,2.0,Pine Ridge,1745,9147,1948,739,189,,Sold,,,https://www.redfin.com/VA/Richmond/913-Orchard-Rd-23226/home/59667934,CVRMLS,1933447,N,Y,37.5855533,-77.5209249
PAST SALE,May-15-2020,Single Family Residential,8703 Bedell Rd,Henrico,VA,23229,253000,3,2.0,Windsordale,1400,11761,1961,569,181,,Sold,,,https://www.redfin.com/VA/Richmond/8703-Bedell-Rd-23229/home/59651522,CVRMLS,2008294,N,Y,37.6157497,-77.5648413
PAST SALE,December-7-2018,Single Family Residential,6619 W Grace St,Henrico,VA,23226,215000,3,1.5,Westhaven,1434,9922,1948,1094,150,,Sold,,,https://www.redfin.com/VA/Richmond/6619-W-Grace-St-23226/home/59667707,CVRMLS,1831709,N,Y,37.592708,-77.5233133
PAST SALE,April-3-2020,Single Family Residential,2005 Marroit Rd,Henrico,VA,23229,270000,3,2.5,Cavalier Park,1799,12196,1973,611,150,,Sold,,,https://www.redfin.com/VA/Richmond/2005-Marroit-Rd-23229/home/59653073,CVRMLS,2006734,N,Y,37.6131118,-77.5406026
PAST SALE,July-9-2019,Single Family Residential,1904 Parma Rd,Richmond,VA,23229,229000,3,2.5,Westdale Estates,1996,12632,1958,880,115,,Sold,,,https://www.redfin.com/VA/Richmond/1904-Parma-Rd-23229/home/59651488,CVRMLS,1916631,N,Y,37.6149761,-77.5607553
