SALE TYPE,SOLD DATE,PROPERTY TYPE,ADDRESS,CITY,STATE OR PROVINCE,ZIP OR POSTAL CODE,PRICE,BEDS,BATHS,LOCATION,SQUARE FEET,LOT SIZE,YEAR BUILT,DAYS ON MARKET,$/SQUARE FEET,HOA/MONTH,STATUS,NEXT OPEN HOUSE START TIME,NEXT OPEN HOUSE END TIME,URL (SEE https://www.redfin.com/buy-a-home/comparative-market-analysis FOR INFO ON PRICING),SOURCE,MLS#,FAVORITE,INTERESTED,LATITUDE,LONGITUDE
Redfin Data,,Single Family Residential,1708 Overlook Dr,Silver Spring,MD,20903,530000,3,3.0,Silver Spring,2418,17159,1958,2,219,,Pre On-Market,,,https://www.redfin.com/MD/Silver-Spring/1708-Overlook-Dr-20903/home/10559472,Coming Soon,79073,N,Y,39.0261074,-76.97693
PAST SALE,April-30-2021,Single Family Residential,1419 Dilston Rd,Silver Spring,MD,20903,580000,5,4.0,OAKVIEW,2610,7800,1956,219,222,,Sold,,,https://www.redfin.com/MD/Silver-Spring/1419-Dilston-Rd-20903/home/10560967,BRIGHT MLS,MDMC749674,N,Y,39.0127255,-76.9825552
PAST SALE,January-29-2019,Single Family Residential,10617 Gatewood Ave,Silver Spring,MD,20903,500000,5,4.0,BURNT MILLS KNOLLS,2960,9366,1954,1041,169,,Sold,,,https://www.redfin.com/MD/Silver-Spring/10617-Gatewood-Ave-20903/home/10562609,BRIGHT MLS,1009992894,N,Y,39.0298845,-76.9878427
PAST SALE,November-5-2021,Single Family Residential,10327 Parkman Rd,Silver Spring,MD,20903,675000,4,2.5,HILLANDALE,2377,24234,1941,30,284,,Sold,,,https://www.redfin.com/MD/Silver-Spring/10327-Parkman-Rd-20903/home/10559457,BRIGHT MLS,MDMC2017890,N,Y,39.0257954,-76.9840852
PAST SALE,August-16-2019,Single Family Residential,10709 E Nolcrest Dr,Silver Spring,MD,20903,424900,4,2.0,BURNT MILLS KNOLLS,2314,9000,1954,842,184,,Sold,,,https://www.redfin.com/MD/Silver-Spring/10709-E-Nolcrest-Dr-20903/home/10562624,BRIGHT MLS,MDMC667596,N,Y,39.0324622,-76.9863802
PAST SALE,November-22-2021,Condo/Co-op,8830 Piney Branch Rd #1211,Silver Spring,MD,20903,205000,3,2.0,PINEWAY TOWERS CODM,1452,,1971,13,141,832,Sold,,,https://www.redfin.com/MD/Silver-Spring/8830-Piney-Branch-Rd-20903/unit-1211/home/11102428,BRIGHT MLS,MDMC2019252,N,Y,39.0005828,-76.9929724
PAST SALE,August-8-2019,Single Family Residential,1700 Overlook Dr,Silver Spring,MD,20903,533500,3,3.0,HILLANDALE,1950,25822,1941,850,274,,Sold,,,https://www.redfin.com/MD/Silver-Spring/1700-Overlook-Dr-20903/home/10559374,BRIGHT MLS,MDMC652390,N,Y,39.0259682,-76.97747
PAST SALE,July-12-2019,Single Family Residential,9613 Dilston Rd,Silver Spring,MD,20903,415000,3,2.0,OAKVIEW,1565,6600,1949,877,265,,Sold,,,https://www.redfin.com/MD/Silver-Spring/9613-Dilston-Rd-20903/home/10561324,BRIGHT MLS,MDMC625514,N,Y,39.0166338,-76.9841752
PAST SALE,November-30-2020,Single Family Residential,1209 La Grande Rd,Silver Spring,MD,20903,450000,3,2.5,CRESTHAVEN,1934,9483,1958,370,233,,Sold,,,https://www.redfin.com/MD/Silver-Spring/1209-La-Grande-Rd-20903/home/10563649,BRIGHT MLS,MDMC731094,N,Y,39.0256391,-76.9862452
PAST SALE,,Single Family Residential,10218 Green Forest Dr,Silver Spring,MD,20903,465000,,2.5,,2264,11250,1957,,205,,,,,https://www.redfin.com/MD/Silver-Spring/10218-Green-Forest-Dr-20903/home/10563000,,,N,Y,39.0219673,-76.9728905
PAST SALE,October-15-2020,Single Family Residential,10220 Green Forest Dr,Silver Spring,MD,20903,475000,4,3.0,HILLANDALE FOREST,1882,11250,1956,416,252,,Sold,,,https://www.redfin.com/MD/Silver-Spring/10220-Green-Forest-Dr-20903/home/10563029,BRIGHT MLS,MDMC723894,N,Y,39.0220403,-76.9731947
PAST SALE,November-19-2020,Single Family Residential,10100 Devere Ct,Silver Spring,MD,20903,495000,4,2.5,HILLANDALE HEIGHTS,1560,17833,1960,381,317,,Sold,,,https://www.redfin.com/MD/Silver-Spring/10100-Devere-Ct-20903/home/10564757,BRIGHT MLS,MDMC731442,N,Y,39.0207987,-76.99232
MLS Listing,,Single Family Residential,9803 Cahart Pl,Silver Spring,MD,20903,450000,3,1.0,OAKVIEW,1300,6552,1951,9,346,,Active,,,https://www.redfin.com/MD/Silver-Spring/9803-Cahart-Pl-20903/home/10560900,BRIGHT MLS,MDMC2023226,N,Y,39.0160725,-76.9831965
MLS Listing,,Single Family Residential,2108 Hampshire Dr,Hyattsville,MD,20783,639900,6,3.5,HOLLY HILL FARM,3220,10404,1995,27,199,33,Active,,,https://www.redfin.com/MD/Hyattsville/2108-Hampshire-Dr-20783/home/11087508,BRIGHT MLS,MDPG2017386,N,Y,39.012868,-76.972534
MLS Listing,,Condo/Co-op,8830 Piney Branch Rd #909,Silver Spring,MD,20903,164900,2,1.0,PINEWAY TOWERS CODM,825,,1971,33,200,474,Active,,,https://www.redfin.com/MD/Silver-Spring/8830-Piney-Branch-Rd-20903/unit-909/home/11102299,BRIGHT MLS,MDMC2020752,N,Y,39.0005828,-76.9929724
MLS Listing,,Single Family Residential,9615 New Hampshire Ave,Silver Spring,MD,20903,580000,4,3.0,ADELPHI HEIGHTS,1934,6251,1956,36,300,,Active,,,https://www.redfin.com/MD/Silver-Spring/9615-New-Hampshire-Ave-20903/home/10567059,BRIGHT MLS,MDMC2021412,N,Y,39.0135981,-76.977875
MLS Listing,,Single Family Residential,10301 Naglee Rd,Silver Spring,MD,20903,699000,4,3.5,HILLANDALE,2160,9263,1989,87,324,,Active,,,https://www.redfin.com/MD/Silver-Spring/10301-Naglee-Rd-20903/home/10577739,BRIGHT MLS,MDMC2014630,N,Y,39.02549,-76.9813852
PAST SALE,July-27-2021,Single Family Residential,9812 Arbor Hill Dr,Silver Spring,MD,20903,510000,5,3.0,OAKVIEW,1764,6306,1959,131,289,,Sold,,,https://www.redfin.com/MD/Silver-Spring/9812-Arbor-Hill-Dr-20903/home/10561184,BRIGHT MLS,MDMC759680,N,Y,39.0170287,-76.9866052
PAST SALE,March-19-2020,Single Family Residential,2100 Lackawanna St,Adelphi,MD,20783,440000,4,3.0,HOLLY HILL MANOR,1500,14367,1958,626,293,,Sold,,,https://www.redfin.com/MD/Adelphi/2100-Lackawanna-St-20783/home/11100415,BRIGHT MLS,MDPG559236,N,Y,39.01591,-76.97066
PAST SALE,April-26-2021,Single Family Residential,9603 Cottrell Ter,Silver Spring,MD,20903,445000,5,2.0,OAKVIEW,2132,5400,1951,223,209,,Sold,,,https://www.redfin.com/MD/Silver-Spring/9603-Cottrell-Ter-20903/home/10561547,BRIGHT MLS,MDMC742928,N,Y,39.012836,-76.9799901
PAST SALE,September-18-2020,Condo/Co-op,8830 Piney Branch Rd #504,Silver Spring,MD,20903,145000,2,2.0,PINEWAY TOWERS CODM,1054,,1971,443,138,575,Sold,,,https://www.redfin.com/MD/Silver-Spring/8830-Piney-Branch-Rd-20903/unit-504/home/11102133,BRIGHT MLS,MDMC719906,N,Y,39.0005828,-76.9929724
PAST SALE,June-28-2019,Single Family Residential,9816 Cottrell Ter,Silver Spring,MD,20903,350000,4,2.0,OAKVIEW,1947,6600,1950,891,180,,Sold,,,https://www.redfin.com/MD/Silver-Spring/9816-Cottrell-Ter-20903/home/10561728,BRIGHT MLS,MDMC661734,N,Y,39.0169129,-76.9834552
PAST SALE,July-2-2019,Single Family Residential,2007 Forest Hill Dr,Silver Spring,MD,20903,479000,5,3.0,HILLANDALE FOREST,2464,11212,1956,887,194,,Sold,,,https://www.redfin.com/MD/Silver-Spring/2007-Forest-Hill-Dr-20903/home/35617249,BRIGHT MLS,MDMC625720,N,Y,39.0231503,-76.9699093
PAST SALE,August-25-2021,Single Family Residential,8218 Tahona Dr,Silver Spring,MD,20903,430000,5,2.0,NEW HAMPSHIRE ESTS,1702,6942,1951,102,253,,Sold,,,https://www.redfin.com/MD/Silver-Spring/8218-Tahona-Dr-20903/home/10992552,BRIGHT MLS,MDMC752008,N,Y,38.9950752,-76.9894401
PAST SALE,February-14-2020,Single Family Residential,902 Burnt Crest Ln,Silver Spring,MD,20903,500000,4,3.0,CREST PARK,2245,10786,1964,660,223,,Sold,,,https://www.redfin.com/MD/Silver-Spring/902-Burnt-Crest-Ln-20903/home/10566616,BRIGHT MLS,MDMC691830,N,Y,39.0258302,-76.9937824
PAST SALE,November-1-2019,Single Family Residential,1132 W Nolcrest Dr,Silver Spring,MD,20903,485000,5,2.5,BURNT MILLS KNOLLS,3077,24999,1954,765,158,,Sold,,,https://www.redfin.com/MD/Silver-Spring/1132-W-Nolcrest-Dr-20903/home/10562450,BRIGHT MLS,MDMC675762,N,Y,39.0341887,-76.9889001
PAST SALE,April-1-2020,Single Family Residential,10220 Royal Rd,Silver Spring,MD,20903,430000,3,2.5,HILLANDALE HEIGHTS,2075,10051,1960,613,207,,Sold,,,https://www.redfin.com/MD/Silver-Spring/10220-Royal-Rd-20903/home/10565040,BRIGHT MLS,MDMC697522,N,Y,39.0221789,-76.9857502
PAST SALE,March-29-2019,Townhouse,8320 Navahoe Dr,Silver Spring,MD,20903,295000,3,2.0,NEW HAMPSHIRE,1550,4000,1950,982,190,,Sold,,,https://www.redfin.com/MD/Silver-Spring/8320-Navahoe-Dr-20903/home/10974069,BRIGHT MLS,MDPG376590,N,Y,38.996078,-76.987784
PAST SALE,October-22-2021,Townhouse,1110 Ruatan St,Silver Spring,MD,20903,270000,4,2.0,NEW HAMPSHIRE,1914,4313,1946,44,141,,Sold,,,https://www.redfin.com/MD/Silver-Spring/1110-Ruatan-St-20903/home/10958394,BRIGHT MLS,MDPG2011188,N,Y,38.9998497,-76.9845352
PAST SALE,,Single Family Residential,1253 Cresthaven Dr,Silver Spring,MD,20903,406000,,2.0,,1541,9508,1954,,263,,,,,https://www.redfin.com/MD/Silver-Spring/1253-Cresthaven-Dr-20903/home/10563619,,,N,Y,39.0286557,-76.9856998
PAST SALE,December-6-2019,Single Family Residential,1311 Xaveria Dr,Silver Spring,MD,20903,450000,3,2.5,HILLANDALE HEIGHTS,2774,12041,1960,730,162,,Sold,,,https://www.redfin.com/MD/Silver-Spring/1311-Xaveria-Dr-20903/home/10564778,BRIGHT MLS,MDMC683808,N,Y,39.0233304,-76.9844227
PAST SALE,August-20-2021,Townhouse,8309 12th Ave,Silver Spring,MD,20903,347000,3,1.5,NEW HAMPSHIRE,1150,3750,1946,107,302,,Sold,,,https://www.redfin.com/MD/Silver-Spring/8309-12th-Ave-20903/home/10989362,BRIGHT MLS,MDPG2000732,N,Y,38.9947943,-76.9866888
PAST SALE,,Townhouse,8307 Navahoe Dr,Silver Spring,MD,20903,220000,,1.5,,1432,3750,1950,,154,,,,,https://www.redfin.com/MD/Silver-Spring/8307-Navahoe-Dr-20903/home/10956445,,,N,Y,38.9951173,-76.9876852
PAST SALE,December-27-2019,Townhouse,8328 12th Ave,Silver Spring,MD,20903,310000,4,3.0,NEW HAMPSHIRE,1725,3750,1950,709,180,,Sold,,,https://www.redfin.com/MD/Silver-Spring/8328-12th-Ave-20903/home/10960270,BRIGHT MLS,MDPG550380,N,Y,38.9955816,-76.9868302
PAST SALE,,Townhouse,8417 Navahoe Dr,Silver Spring,MD,20903,250500,,1.5,,1150,4887,1950,,218,,,,,https://www.redfin.com/MD/Silver-Spring/8417-Navahoe-Dr-20903/home/10960452,,,N,Y,38.9978169,-76.9862005
PAST SALE,August-17-2021,Townhouse,8435 12th Ave,Silver Spring,MD,20903,340000,4,2.0,NEW HAMPSHIRE,1122,3750,1950,110,303,,Sold,,,https://www.redfin.com/MD/Silver-Spring/8435-12th-Ave-20903/home/10982484,BRIGHT MLS,MDPG2004718,N,Y,38.9983114,-76.984839
PAST SALE,March-27-2020,Single Family Residential,9801 Dilston Rd,Silver Spring,MD,20903,375000,4,2.0,OAKVIEW,1563,6962,1950,618,240,,Sold,,,https://www.redfin.com/MD/Silver-Spring/9801-Dilston-Rd-20903/home/10561274,BRIGHT MLS,MDMC693182,N,Y,39.0185613,-76.9813852
PAST SALE,November-26-2020,Townhouse,8407 Navahoe Dr,Silver Spring,MD,20903,306000,5,2.5,NEW HAMPSHIRE,1630,3750,1950,374,188,,Sold,,,https://www.redfin.com/MD/Silver-Spring/8407-Navahoe-Dr-20903/home/10963562,BRIGHT MLS,MDPG580060,N,Y,38.9974641,-76.9864702
PAST SALE,August-19-2021,Townhouse,8409 Navahoe Dr,Silver Spring,MD,20903,280000,3,1.5,NEW HAMPSHIRE,1150,3750,1950,108,243,,Sold,,,https://www.redfin.com/MD/Silver-Spring/8409-Navahoe-Dr-20903/home/10973972,BRIGHT MLS,MDPG2000364,N,Y,38.9975112,-76.9863773
PAST SALE,June-15-2021,Townhouse,1128 Chickasaw Dr,Silver Spring,MD,20903,325000,3,2.5,NEW HAMPSHIRE,1252,5192,1950,173,260,,Sold,,,https://www.redfin.com/MD/Silver-Spring/1128-Chickasaw-Dr-20903/home/10975092,BRIGHT MLS,MDPG604320,N,Y,38.9943876,-76.9875543
PAST SALE,December-3-2021,Single Family Residential,1925 Pagebrook Rd,Silver Spring,MD,20903,879192,5,4.0,HILLANDALE,3390,17861,1951,2,259,,Sold,,,https://www.redfin.com/MD/Silver-Spring/1925-Pagebrook-Rd-20903/home/10559380,BRIGHT MLS,MDMC2018912,N,Y,39.0293756,-76.9714845
PAST SALE,December-29-2020,Single Family Residential,10400 Royal Rd,Silver Spring,MD,20903,470000,3,3.0,CRESTHAVEN,1996,11371,1955,341,235,,Sold,,,https://www.redfin.com/MD/Silver-Spring/10400-Royal-Rd-20903/home/10563499,BRIGHT MLS,MDMC735838,N,Y,39.0261394,-76.9860652
PAST SALE,December-28-2020,Townhouse,8345 12th Ave,Silver Spring,MD,20903,350000,3,2.5,NEW HAMPSHIRE,1349,4375,1946,342,259,,Sold,,,https://www.redfin.com/MD/Silver-Spring/8345-12th-Ave-20903/home/10975857,BRIGHT MLS,MDPG566598,N,Y,38.9962011,-76.9859302
PAST SALE,July-14-2020,Condo/Co-op,8830 Piney Branch Rd #112,Silver Spring,MD,20903,175000,3,2.0,PINEWAY TOWERS CODM,1491,,1971,509,117,853,Sold,,,https://www.redfin.com/MD/Silver-Spring/8830-Piney-Branch-Rd-20903/unit-112/home/11101999,BRIGHT MLS,MDMC708820,N,Y,39.0005828,-76.9929724
PAST SALE,July-21-2021,Single Family Residential,1117 Dunoon Rd,Silver Spring,MD,20903,451501,4,2.5,HILLANDALE HEIGHTS,2499,9276,1960,137,181,,Sold,,,https://www.redfin.com/MD/Silver-Spring/1117-Dunoon-Rd-20903/home/10564827,BRIGHT MLS,MDMC758822,N,Y,39.0228674,-76.9872352
PAST SALE,January-27-2020,Single Family Residential,2018 Evansdale Dr,Hyattsville,MD,20783,390000,4,3.0,ADELPHI VILLAGE,2160,10535,1962,678,181,,Sold,,,https://www.redfin.com/MD/Hyattsville/2018-Evansdale-Dr-20783/home/11107290,BRIGHT MLS,MDPG548858,N,Y,39.0105509,-76.9735997
PAST SALE,May-20-2021,Single Family Residential,1008 Robroy Dr,Silver Spring,MD,20903,526860,4,2.5,HILLANDALE HEIGHTS,2360,9001,1960,199,223,,Sold,,,https://www.redfin.com/MD/Silver-Spring/1008-Robroy-Dr-20903/home/10564563,BRIGHT MLS,MDMC752350,N,Y,39.0228223,-76.9900251
PAST SALE,November-2-2020,Single Family Residential,9701 Dilston Rd,Silver Spring,MD,20903,475860,4,3.0,OAKVIEW,1924,7266,1950,398,247,,Sold,,,https://www.redfin.com/MD/Silver-Spring/9701-Dilston-Rd-20903/home/10561144,BRIGHT MLS,MDMC722776,N,Y,39.017899,-76.9833202
PAST SALE,,Single Family Residential,9820 Hedin Dr,Silver Spring,MD,20903,380000,,2.5,,2009,7016,1959,,189,,,,,https://www.redfin.com/MD/Silver-Spring/9820-Hedin-Dr-20903/home/10561100,,,N,Y,39.0175056,-76.9872802
PAST SALE,September-14-2021,Single Family Residential,1123 Chickasaw Dr,Silver Spring,MD,20903,425000,5,2.0,NEW HAMPSHIRE,2552,7002,1956,82,167,,Sold,,,https://www.redfin.com/MD/Silver-Spring/1123-Chickasaw-Dr-20903/home/10971319,BRIGHT MLS,MDPG2007688,N,Y,38.994728,-76.9884951
PAST SALE,March-30-2020,Single Family Residential,10119 Brock Dr,Silver Spring,MD,20903,504500,4,3.5,HILLANDALE HEIGHTS,3416,10875,1960,615,148,,Sold,,,https://www.redfin.com/MD/Silver-Spring/10119-Brock-Dr-20903/home/10564887,BRIGHT MLS,MDMC696286,N,Y,39.0206297,-76.9901151
PAST SALE,October-15-2021,Single Family Residential,2003 Forest Dale Dr,Silver Spring,MD,20903,515500,3,2.5,HILLANDALE FOREST,2277,10911,1956,51,226,,Sold,,,https://www.redfin.com/MD/Silver-Spring/2003-Forest-Dale-Dr-20903/home/10563052,BRIGHT MLS,MDMC2012464,N,Y,39.0223958,-76.9706744
PAST SALE,November-8-2019,Townhouse,1123 Quebec St,Silver Spring,MD,20903,235000,3,1.5,NEW HAMPSHIRE,1285,3760,1950,758,183,,Sold,,,https://www.redfin.com/MD/Silver-Spring/1123-Quebec-St-20903/home/10985488,BRIGHT MLS,MDPG546184,N,Y,38.996638,-76.9866052
PAST SALE,October-31-2019,Single Family Residential,1017 Devere Dr,Silver Spring,MD,20903,485000,5,3.0,HILLANDALE HEIGHTS,2560,12156,1960,766,189,,Sold,,,https://www.redfin.com/MD/Silver-Spring/1017-Devere-Dr-20903/home/10564951,BRIGHT MLS,MDMC674722,N,Y,39.0215897,-76.9893951
PAST SALE,February-5-2021,Townhouse,8511 Tahona Dr,Silver Spring,MD,20903,260000,3,1.0,NEW HAMPSHIRE,1444,3998,1950,303,180,,Sold,,,https://www.redfin.com/MD/Silver-Spring/8511-Tahona-Dr-20903/home/10989539,BRIGHT MLS,MDPG589528,N,Y,38.9982992,-76.9857052
PAST SALE,June-12-2019,Townhouse,8302 12th Ave,Silver Spring,MD,20903,250000,3,1.5,NEW HAMPSHIRE,1407,3591,1950,907,178,,Sold,,,https://www.redfin.com/MD/Silver-Spring/8302-12th-Ave-20903/home/10990423,BRIGHT MLS,MDPG504046,N,Y,38.9946096,-76.9873589
PAST SALE,May-21-2021,Townhouse,8509 Tahona Dr,Silver Spring,MD,20903,289900,3,1.0,NEW HAMPSHIRE,1150,3871,1950,198,252,,Sold,,,https://www.redfin.com/MD/Silver-Spring/8509-Tahona-Dr-20903/home/10992168,BRIGHT MLS,MDPG598386,N,Y,38.998269,-76.985781
PAST SALE,August-30-2019,Townhouse,8434 12th Ave,Silver Spring,MD,20903,250000,3,1.5,NEW HAMPSHIRE,1150,4374,1950,828,217,,Sold,,,https://www.redfin.com/MD/Silver-Spring/8434-12th-Ave-20903/home/10992455,BRIGHT MLS,MDPG536770,N,Y,38.9990345,-76.9849914
PAST SALE,July-29-2020,Single Family Residential,10205 Lariston Ln,Silver Spring,MD,20903,485000,3,2.5,HILLANDALE HEIGHTS,1569,10171,1961,494,309,,Sold,,,https://www.redfin.com/MD/Silver-Spring/10205-Lariston-Ln-20903/home/10564489,BRIGHT MLS,MDMC711418,N,Y,39.0241974,-76.9890801
PAST SALE,May-18-2021,Single Family Residential,1918 Pagebrook Rd,Silver Spring,MD,20903,606000,3,2.5,HILLANDALE,2400,15109,1951,201,253,,Sold,,,https://www.redfin.com/MD/Silver-Spring/1918-Pagebrook-Rd-20903/home/10559538,BRIGHT MLS,MDMC752754,N,Y,39.0297343,-76.970992
PAST SALE,May-8-2020,Single Family Residential,1102 Oakview Dr,Silver Spring,MD,20903,415000,4,2.5,OAKVIEW,2050,8903,1959,576,202,,Sold,,,https://www.redfin.com/MD/Silver-Spring/1102-Oakview-Dr-20903/home/10561565,BRIGHT MLS,MDMC702772,N,Y,39.016178,-76.9897101
PAST SALE,December-11-2019,Single Family Residential,1126 W Nolcrest Dr,Silver Spring,MD,20903,530000,5,3.0,BURNT MILLS KNOLLS,3224,9631,1959,725,164,,Sold,,,https://www.redfin.com/MD/Silver-Spring/1126-W-Nolcrest-Dr-20903/home/10562555,BRIGHT MLS,MDMC679926,N,Y,39.0336841,-76.9893951
PAST SALE,November-29-2021,Single Family Residential,9720 Braddock Rd,Silver Spring,MD,20903,410000,4,2.0,OAKVIEW,1599,5733,1951,6,256,,Sold,,,https://www.redfin.com/MD/Silver-Spring/9720-Braddock-Rd-20903/home/10560819,BRIGHT MLS,MDMC2023492,N,Y,39.015228,-76.9820152
PAST SALE,March-29-2019,Single Family Residential,1509 Paula Dr,Silver Spring,MD,20903,395000,3,2.0,OAKVIEW,1599,6300,1951,982,247,,Sold,,,https://www.redfin.com/MD/Silver-Spring/1509-Paula-Dr-20903/home/10561552,BRIGHT MLS,MDMC382340,N,Y,39.0135882,-76.9806202
PAST SALE,August-18-2020,Single Family Residential,915 Mcceney Ave,Silver Spring,MD,20901,1515000,4,4.5,BURNT MILLS HILLS,5184,58777,1936,474,292,,Sold,,,https://www.redfin.com/MD/Silver-Spring/915-McCeney-Ave-20901/home/10558914,BRIGHT MLS,MDMC701072,N,Y,39.0332999,-76.9906943
PAST SALE,,Single Family Residential,10419 Rodney Rd,Silver Spring,MD,20903,550000,,3.0,,3171,14612,1955,,173,,,,,https://www.redfin.com/MD/Silver-Spring/10419-Rodney-Rd-20903/home/10559355,,,N,Y,39.026841,-76.9837702
PAST SALE,October-28-2020,Single Family Residential,1016 Devere Dr,Silver Spring,MD,20903,440000,4,2.5,HILLANDALE HEIGHTS,1860,9873,1960,403,237,,Sold,,,https://www.redfin.com/MD/Silver-Spring/1016-Devere-Dr-20903/home/10564797,BRIGHT MLS,MDMC724726,N,Y,39.0220105,-76.9895751
PAST SALE,,Condo/Co-op,1000 Quebec Ter,Silver Spring,MD,20903,1500000,,,,,,,,,,,,,https://www.redfin.com/MD/Silver-Spring/1000-Quebec-Ter-20903/home/10993375,,,N,Y,38.9991051,-76.9898226
PAST SALE,June-4-2021,Single Family Residential,9711 Hedin Dr,Silver Spring,MD,20903,475000,4,2.5,OAKVIEW,1806,7038,1960,184,263,,Sold,,,https://www.redfin.com/MD/Silver-Spring/9711-Hedin-Dr-20903/home/10561318,BRIGHT MLS,MDMC752724,N,Y,39.014848,-76.9878652
PAST SALE,May-28-2021,Single Family Residential,1800 Kimberly Rd,Silver Spring,MD,20903,625000,3,2.5,HILLANDALE,2402,18670,1950,191,260,,Sold,,,https://www.redfin.com/MD/Silver-Spring/1800-Kimberly-Rd-20903/home/10559260,BRIGHT MLS,MDMC753542,N,Y,39.0311941,-76.9748148
PAST SALE,December-15-2020,Single Family Residential,10301 Parkman Rd,Silver Spring,MD,20903,699000,4,4.0,HILLANDALE,2217,18543,1941,355,315,,Sold,,,https://www.redfin.com/MD/Silver-Spring/10301-Parkman-Rd-20903/home/10559140,BRIGHT MLS,MDMC732404,N,Y,39.0245441,-76.9815202
PAST SALE,November-22-2019,Single Family Residential,9621 Dilston Rd,Silver Spring,MD,20903,360000,3,2.0,OAKVIEW,1704,6600,1949,744,211,,Sold,,,https://www.redfin.com/MD/Silver-Spring/9621-Dilston-Rd-20903/home/10561919,BRIGHT MLS,MDMC678202,N,Y,39.017234,-76.9838152
PAST SALE,October-23-2020,Single Family Residential,2009 Avenel Rd,Adelphi,MD,20783,410000,6,3.0,HOLLY HILL TERRACE,1188,10600,1959,408,345,,Sold,,,https://www.redfin.com/MD/Adelphi/2009-Avenel-Rd-20783/home/11087135,BRIGHT MLS,MDPG579738,N,Y,39.016008,-76.9718675
PAST SALE,November-12-2021,Townhouse,8456 New Hampshire Ave,Silver Spring,MD,20903,315000,3,1.5,NEW HAMPSHIRE,1150,4375,1950,23,274,,Sold,,,https://www.redfin.com/MD/Silver-Spring/8456-New-Hampshire-Ave-20903/home/10960174,BRIGHT MLS,MDPG2011174,N,Y,38.999006,-76.983936
PAST SALE,,Single Family Residential,1736 Overlook Dr,Silver Spring,MD,20903,439900,,1.5,,1472,32377,1952,,299,,,,,https://www.redfin.com/MD/Silver-Spring/1736-Overlook-Dr-20903/home/10559445,,,N,Y,39.0261018,-76.9740498
PAST SALE,April-3-2020,Single Family Residential,9708 Dilston Rd,Silver Spring,MD,20903,420000,5,3.0,OAKVIEW,1716,7578,1950,611,245,,Sold,,,https://www.redfin.com/MD/Silver-Spring/9708-Dilston-Rd-20903/home/10561035,BRIGHT MLS,MDMC694598,N,Y,39.0186396,-76.9831402
PAST SALE,November-24-2021,Townhouse,1087 Ruatan,Silver Spring,MD,20903,380000,4,3.0,NEW HAMPSHIRE ESTS,1149,4056,1952,11,331,,Sold,,,https://www.redfin.com/MD/Silver-Spring/1087-Ruatan-St-20903/home/10993634,BRIGHT MLS,MDMC2018772,N,Y,38.999781,-76.98612
PAST SALE,December-3-2021,Single Family Residential,1130 Cresthaven Dr,Silver Spring,MD,20903,585000,3,3.0,CRESTHAVEN,2541,11987,1956,2,230,,Sold,,,https://www.redfin.com/MD/Silver-Spring/1130-Cresthaven-Dr-20903/home/10563657,BRIGHT MLS,MDMC2022340,N,Y,39.0256293,-76.9877527
PAST SALE,August-25-2020,Single Family Residential,1617 Oaklawn Ct,Silver Spring,MD,20903,610000,4,3.5,HILLANDALE,2740,19205,1953,467,223,,Sold,,,https://www.redfin.com/MD/Silver-Spring/1617-Oaklawn-Ct-20903/home/10559082,BRIGHT MLS,MDMC718010,N,Y,39.0270122,-76.9789101
PAST SALE,June-11-2021,Single Family Residential,10323 Royal Rd,Silver Spring,MD,20903,586000,4,3.0,HILLANDALE HEIGHTS,2297,18682,1961,177,255,,Sold,,,https://www.redfin.com/MD/Silver-Spring/10323-Royal-Rd-20903/home/10564828,BRIGHT MLS,MDMC759228,N,Y,39.0253749,-76.9855027
PAST SALE,March-15-2021,Single Family Residential,1308 Xaveria Dr,Silver Spring,MD,20903,550000,3,2.5,HILLANDALE HEIGHTS,2515,11359,1960,265,219,,Sold,,,https://www.redfin.com/MD/Silver-Spring/1308-Xaveria-Dr-20903/home/10564548,BRIGHT MLS,MDMC738806,N,Y,39.0237119,-76.9849627
PAST SALE,December-4-2020,Single Family Residential,912 Crest Park Dr,Silver Spring,MD,20903,502500,4,3.5,CREST PARK,3237,9004,1965,366,155,,Sold,,,https://www.redfin.com/MD/Silver-Spring/912-Crest-Park-Dr-20903/home/10566575,BRIGHT MLS,MDMC725104,N,Y,39.0250092,-76.992365
PAST SALE,February-5-2021,Single Family Residential,10400 Rodney Rd,Silver Spring,MD,20903,887000,5,4.5,HILLANDALE,4262,11586,2020,303,208,,Sold,,,https://www.redfin.com/MD/Silver-Spring/10402-Rodney-Rd-20903/home/10559083,BRIGHT MLS,MDMC712402,N,Y,39.025882,-76.984964
PAST SALE,April-2-2021,Single Family Residential,10422 Gatewood Ter,Silver Spring,MD,20903,602500,4,2.5,HILLANDALE,2288,10175,1964,247,263,,Sold,,,https://www.redfin.com/MD/Silver-Spring/10422-Gatewood-Ter-20903/home/10559734,BRIGHT MLS,MDMC743126,N,Y,39.025939,-76.9701344
PAST SALE,May-25-2021,Single Family Residential,1113 Navahoe Dr,Silver Spring,MD,20903,407000,5,2.0,NEW HAMPSHIRE,1625,8834,1950,194,250,,Sold,,,https://www.redfin.com/MD/Silver-Spring/1113-Navahoe-Dr-20903/home/10970346,BRIGHT MLS,MDPG602278,N,Y,38.9941671,-76.9884951
PAST SALE,February-14-2020,Townhouse,8432 New Hampshire Ave,Silver Spring,MD,20903,270000,3,1.0,NEW HAMPSHIRE,1150,3750,1950,660,235,,Sold,,,https://www.redfin.com/MD/Silver-Spring/8432-New-Hampshire-Ave-20903/home/10963625,BRIGHT MLS,MDPG553690,N,Y,38.9980402,-76.984389
PAST SALE,September-24-2020,Single Family Residential,10411 Gatewood Ter,Silver Spring,MD,20903,543000,4,2.5,HILLANDALE,2640,9246,1964,437,206,,Sold,,,https://www.redfin.com/MD/Silver-Spring/10411-Gatewood-Ter-20903/home/10559055,BRIGHT MLS,MDMC721630,N,Y,39.0257664,-76.9714395
PAST SALE,June-10-2021,Single Family Residential,1203 Dunoon Ct,Silver Spring,MD,20903,573000,4,2.5,HILLANDALE HEIGHTS,1860,12249,1959,178,308,,Sold,,,https://www.redfin.com/MD/Silver-Spring/1203-Dunoon-Ct-20903/home/10564812,BRIGHT MLS,MDMC754662,N,Y,39.0244834,-76.9866502
PAST SALE,,Condo/Co-op,8830 Piney Branch Rd #807,Silver Spring,MD,20903,150000,,,,1290,,1971,,116,,,,,https://www.redfin.com/MD/Silver-Spring/8830-Piney-Branch-Rd-20903/unit-807/home/11102257,,,N,Y,39.0005828,-76.9929724
PAST SALE,June-11-2021,Single Family Residential,10118 Brock Dr,Silver Spring,MD,20903,540000,4,2.0,HILLANDALE HEIGHTS,2075,13074,1960,177,260,,Sold,,,https://www.redfin.com/MD/Silver-Spring/10118-Brock-Dr-20903/home/10564485,BRIGHT MLS,MDMC754984,N,Y,39.0209209,-76.9905651
PAST SALE,July-17-2020,Single Family Residential,1128 Cresthaven Dr,Silver Spring,MD,20903,555000,4,3.0,CRESTHAVEN,2354,9440,1956,506,236,,Sold,,,https://www.redfin.com/MD/Silver-Spring/1128-Cresthaven-Dr-20903/home/10563527,BRIGHT MLS,MDMC704690,N,Y,39.0253868,-76.9879102
PAST SALE,October-29-2021,Single Family Residential,1109 Navahoe Dr,Silver Spring,MD,20903,420000,5,2.5,NEW HAMPSHIRE,1979,6725,1950,37,212,,Sold,,,https://www.redfin.com/MD/Silver-Spring/1109-Navahoe-Dr-20903/home/10975577,BRIGHT MLS,MDPG608170,N,Y,38.9940074,-76.9888551
PAST SALE,January-22-2021,Single Family Residential,1106 La Grande Rd,Silver Spring,MD,20903,625000,5,3.5,CRESTHAVEN,1956,13735,1957,317,320,,Sold,,,https://www.redfin.com/MD/Silver-Spring/1106-La-Grande-Rd-20903/home/10563624,BRIGHT MLS,MDMC736830,N,Y,39.0261541,-76.9886751
PAST SALE,April-28-2020,Single Family Residential,10624 Greenacres Dr,Silver Spring,MD,20903,619000,6,3.0,HILLANDALE,3840,27781,1963,586,161,,Sold,,,https://www.redfin.com/MD/Silver-Spring/10624-Greenacres-Dr-20903/home/10559398,BRIGHT MLS,MDMC698886,N,Y,39.030725,-76.9768625
PAST SALE,September-30-2021,Single Family Residential,9004 Bexhill Ct,Hyattsville,MD,20783,580000,5,3.5,HOLLY HILL FARM,3000,13025,1996,66,193,30,Sold,,,https://www.redfin.com/MD/Hyattsville/9004-Bexhill-Ct-20783/home/11087478,BRIGHT MLS,MDPG2007776,N,Y,39.0134648,-76.9715131
PAST SALE,March-1-2021,Single Family Residential,9820 Cottrell Ter,Silver Spring,MD,20903,450000,4,2.0,OAKVIEW,1326,6185,1950,279,339,,Sold,,,https://www.redfin.com/MD/Silver-Spring/9820-Cottrell-Ter-20903/home/10561691,BRIGHT MLS,MDMC742936,N,Y,39.017213,-76.9832752
PAST SALE,September-21-2021,Single Family Residential,8418 11th Ave,Silver Spring,MD,20903,535000,4,3.0,NEW HAMPSHIRE ESTS,2340,6222,1952,75,229,,Sold,,,https://www.redfin.com/MD/Silver-Spring/8418-11th-Ave-20903/home/10992866,BRIGHT MLS,MDMC2010654,N,Y,38.9955579,-76.9905201
PAST SALE,,Single Family Residential,10704 E Nolcrest Dr,Silver Spring,MD,20903,380000,,3.0,,2013,9001,1954,,189,,,,,https://www.redfin.com/MD/Silver-Spring/10704-E-Nolcrest-Dr-20903/home/10562421,,,N,Y,39.0317364,-76.9863352
PAST SALE,December-17-2020,Single Family Residential,1618 Parham Rd,Silver Spring,MD,20903,450000,6,2.5,OAKVIEW,1639,6300,1951,353,275,,Sold,,,https://www.redfin.com/MD/Silver-Spring/1618-Parham-Rd-20903/home/10561805,BRIGHT MLS,MDMC727380,N,Y,39.0142067,-76.9793601
PAST SALE,June-11-2019,Single Family Residential,10701 Harper Ave,Silver Spring,MD,20901,760000,4,3.5,BURNT MILLS HILLS,3971,53776,1942,908,191,,Sold,,,https://www.redfin.com/MD/Silver-Spring/10701-Harper-Ave-20901/home/10558933,BRIGHT MLS,MDMC654302,N,Y,39.03158,-76.993176
PAST SALE,August-27-2019,Single Family Residential,9740 Hedin Dr,Silver Spring,MD,20903,446000,7,4.0,OAKVIEW,2522,7453,1960,831,177,,Sold,,,https://www.redfin.com/MD/Silver-Spring/9740-Hedin-Dr-20903/home/10561825,BRIGHT MLS,MDMC671830,N,Y,39.0146947,-76.9889901
PAST SALE,,Single Family Residential,10309 Parkman Rd,Silver Spring,MD,20903,448000,,3.0,,1938,14710,1951,,231,,,,,https://www.redfin.com/MD/Silver-Spring/10309-Parkman-Rd-20903/home/10559353,,,N,Y,39.024911,-76.9822852
PAST SALE,May-31-2019,Single Family Residential,10205 Mcgovern Dr,Silver Spring,MD,20903,415000,3,2.5,HILLANDALE HEIGHTS,2820,12495,1960,919,147,,Sold,,,https://www.redfin.com/MD/Silver-Spring/10205-McGovern-Dr-20903/home/10564823,BRIGHT MLS,MDMC651816,N,Y,39.0222902,-76.9863802
PAST SALE,May-19-2021,Single Family Residential,1605 Oakview Dr,Silver Spring,MD,20903,524191,4,2.5,OAKVIEW,1810,8455,1950,200,290,,Sold,,,https://www.redfin.com/MD/Silver-Spring/1605-Oakview-Dr-20903/home/10561003,BRIGHT MLS,MDMC751216,N,Y,39.0154053,-76.9803951
PAST SALE,June-14-2019,Single Family Residential,9809 Arbor Hill Dr,Silver Spring,MD,20903,350000,4,2.5,OAKVIEW,2009,7890,1960,905,174,,Sold,,,https://www.redfin.com/MD/Silver-Spring/9809-Arbor-Hill-Dr-20903/home/10561208,BRIGHT MLS,MDMC654704,N,Y,39.0167528,-76.9862902
PAST SALE,December-31-2020,Single Family Residential,9934 Cottrell Ter,Silver Spring,MD,20903,385000,4,2.0,OAKVIEW,1287,6270,1950,339,299,,Sold,,,https://www.redfin.com/MD/Silver-Spring/9934-Cottrell-Ter-20903/home/10561282,BRIGHT MLS,MDMC730892,N,Y,39.0179412,-76.9790901
PAST SALE,June-28-2019,Single Family Residential,1301 Ruppert Rd,Silver Spring,MD,20903,475000,4,2.0,BURNT MILLS KNOLLS,2427,9000,1954,891,196,,Sold,,,https://www.redfin.com/MD/Silver-Spring/1301-Ruppert-Rd-20903/home/10562431,BRIGHT MLS,MDMC651538,N,Y,39.0307448,-76.9860652
PAST SALE,July-6-2021,Single Family Residential,9707 E Light Dr,Silver Spring,MD,20903,520000,4,2.0,OAKVIEW,2232,10175,1955,152,233,,Sold,,,https://www.redfin.com/MD/Silver-Spring/9707-E-Light-Dr-20903/home/10561597,BRIGHT MLS,MDMC758838,N,Y,39.0149802,-76.9862002
PAST SALE,June-27-2019,Single Family Residential,1218 Devere Dr,Silver Spring,MD,20903,392000,4,3.0,HILLANDALE HEIGHTS,2028,10950,1961,892,193,,Sold,,,https://www.redfin.com/MD/Silver-Spring/1218-Devere-Dr-20903/home/10564882,BRIGHT MLS,MDMC662628,N,Y,39.0199494,-76.9876402
PAST SALE,June-23-2020,Single Family Residential,1002 Devere Dr,Silver Spring,MD,20903,515000,5,4.0,HILLANDALE HEIGHTS,2352,9083,1967,530,219,,Sold,,,https://www.redfin.com/MD/Silver-Spring/1002-Devere-Dr-20903/home/10564852,BRIGHT MLS,MDMC706938,N,Y,39.022144,-76.991465
PAST SALE,June-7-2019,Single Family Residential,1202 Dunoon Ct,Silver Spring,MD,20903,425000,5,3.0,HILLANDALE HEIGHTS,2360,10706,1959,912,180,,Sold,,,https://www.redfin.com/MD/Silver-Spring/1202-Dunoon-Ct-20903/home/10564954,BRIGHT MLS,MDMC645192,N,Y,39.0248998,-76.9871452
PAST SALE,,Townhouse,8406 12th Ave,Silver Spring,MD,20903,265000,3,1.5,,1150,3750,1950,,230,,,,,https://www.redfin.com/MD/Silver-Spring/8406-12th-Ave-20903/home/10964634,,,N,Y,38.997319,-76.9859902
PAST SALE,October-14-2020,Single Family Residential,1003 Crest Park Dr,Silver Spring,MD,20903,652000,4,3.0,CREST PARK,2565,11864,1963,417,254,,Sold,,,https://www.redfin.com/MD/Silver-Spring/1003-Crest-Park-Dr-20903/home/10566480,BRIGHT MLS,MDMC725570,N,Y,39.0244657,-76.9907451
PAST SALE,November-15-2021,Single Family Residential,10008 Branch View Ct,Silver Spring,MD,20903,540000,5,3.0,HILLANDALE HEIGHTS,2540,9600,1966,20,213,,Sold,,,https://www.redfin.com/MD/Silver-Spring/10008-Branch-View-Ct-20903/home/10564676,BRIGHT MLS,MDMC2014010,N,Y,39.020944,-76.9937824
PAST SALE,August-30-2019,Single Family Residential,10600 Kinloch Rd,Silver Spring,MD,20903,450000,4,1.5,HILLANDALE,1956,21337,1952,828,230,,Sold,,,https://www.redfin.com/MD/Silver-Spring/10600-Kinloch-Rd-20903/home/10559127,BRIGHT MLS,MDMC100099,N,Y,39.0295271,-76.9696393
PAST SALE,November-1-2021,Condo/Co-op,8830 Piney Branch Rd #1207,Silver Spring,MD,20903,200000,4,2.0,PINEWAY TOWERS CODM,1290,,1971,34,155,739,Sold,,,https://www.redfin.com/MD/Silver-Spring/8830-Piney-Branch-Rd-20903/unit-1207/home/11102416,BRIGHT MLS,MDMC2015864,N,Y,39.0005828,-76.9929724
PAST SALE,August-27-2021,Single Family Residential,10108 Brock Dr,Silver Spring,MD,20903,485000,6,3.0,HILLANDALE HEIGHTS,2184,10000,1960,100,222,,Sold,,,https://www.redfin.com/MD/Silver-Spring/10108-Brock-Dr-20903/home/10564701,BRIGHT MLS,MDMC2005516,N,Y,39.0202819,-76.991645
PAST SALE,,Single Family Residential,1203 La Grande Rd,Silver Spring,MD,20903,508000,,3.0,,2852,14445,1959,,178,,,,,https://www.redfin.com/MD/Silver-Spring/1203-La-Grande-Rd-20903/home/35617254,,,N,Y,39.0254001,-76.9869652
PAST SALE,July-17-2020,Single Family Residential,2203 Lackawanna St,Adelphi,MD,20783,380000,3,3.0,HOLLY HILL MANOR,2576,23123,1956,506,148,,Sold,,,https://www.redfin.com/MD/Adelphi/2203-Lackawanna-St-20783/home/11082017,BRIGHT MLS,MDPG570442,N,Y,39.0152776,-76.9695909
PAST SALE,,Condo/Co-op,8830 Piney Branch Rd #601,Silver Spring,MD,20903,200000,,,,1409,,1971,,142,,,,,https://www.redfin.com/MD/Silver-Spring/8830-Piney-Branch-Rd-20903/unit-601/home/11102163,,,N,Y,39.0005828,-76.9929724
PAST SALE,September-30-2021,Single Family Residential,9706 Armistead Rd,Silver Spring,MD,20903,455000,4,2.0,OAKVIEW,1866,8057,1951,66,244,,Sold,,,https://www.redfin.com/MD/Silver-Spring/9706-Armistead-Rd-20903/home/10561257,BRIGHT MLS,MDMC2009962,N,Y,39.0149456,-76.9809352
PAST SALE,,Single Family Residential,1408 Stateside Dr,Silver Spring,MD,20903,382500,2,1.0,,1110,22471,1953,,345,,,,,https://www.redfin.com/MD/Silver-Spring/1408-Stateside-Dr-20903/home/10557324,,,N,Y,39.0117461,-76.9820383
PAST SALE,August-21-2020,Single Family Residential,8905 Royal Crest Dr,Hyattsville,MD,20783,605000,6,4.0,HOLLY HILL FARM,3378,9930,1995,471,179,90,Sold,,,https://www.redfin.com/MD/Hyattsville/8905-Royal-Crest-Dr-20783/home/11087620,BRIGHT MLS,MDPG573950,N,Y,39.012712,-76.975706
PAST SALE,September-25-2019,Single Family Residential,8922 Tonbridge Ter,Hyattsville,MD,20783,440000,6,3.5,HOLLY HILL FARM,2952,11389,1997,802,149,30,Sold,,,https://www.redfin.com/MD/Hyattsville/8922-Tonbridge-Ter-20783/home/11087582,BRIGHT MLS,MDPG541088,N,Y,39.0132199,-76.974867
PAST SALE,December-23-2020,Single Family Residential,8920 Tonbridge Ter,Hyattsville,MD,20783,619900,5,3.5,HOLLY HILL FARM,2996,12205,1997,347,207,50,Sold,,,https://www.redfin.com/MD/Hyattsville/8920-Tonbridge-Ter-20783/home/11087586,BRIGHT MLS,MDPG582598,N,Y,39.013015,-76.974819
PAST SALE,March-12-2021,Single Family Residential,8916 Tonbridge Ter,Hyattsville,MD,20783,591000,6,3.5,HOLLY HILL FARM,2464,10359,1997,268,240,,Sold,,,https://www.redfin.com/MD/Hyattsville/8916-Tonbridge-Ter-20783/home/11087597,BRIGHT MLS,MDPG2002824,N,Y,39.012645,-76.974494
PAST SALE,September-15-2021,Single Family Residential,9619 Cottrell Ter,Silver Spring,MD,20903,456000,4,2.0,OAKVIEW,1666,6300,1951,81,274,,Sold,,,https://www.redfin.com/MD/Silver-Spring/9619-Cottrell-Ter-20903/home/10560917,BRIGHT MLS,MDMC2006534,N,Y,39.0135946,-76.9813852
PAST SALE,September-30-2021,Single Family Residential,1008 Devere Dr,Silver Spring,MD,20903,465000,4,3.0,HILLANDALE HEIGHTS,2170,9465,1960,66,214,,Sold,,,https://www.redfin.com/MD/Silver-Spring/1008-Devere-Dr-20903/home/10564449,BRIGHT MLS,MDMC2003954,N,Y,39.02196,-76.9907226
PAST SALE,April-10-2020,Single Family Residential,10500 New Hampshire Ave,Silver Spring,MD,20903,486000,4,3.0,HILLANDALE,2232,9750,1958,604,218,,Sold,,,https://www.redfin.com/MD/Silver-Spring/10500-New-Hampshire-Ave-20903/home/10559662,BRIGHT MLS,MDMC699830,N,Y,39.0269687,-76.9824202
PAST SALE,,Single Family Residential,2101 Lackawanna St,Adelphi,MD,20783,350000,,2.0,,1358,20017,1953,,258,,,,,https://www.redfin.com/MD/Adelphi/2101-Lackawanna-St-20783/home/11094237,,,N,Y,39.015397,-76.970615
PAST SALE,October-6-2021,Single Family Residential,10526 Sweetbriar Pkwy,Silver Spring,MD,20903,850000,5,3.5,HILLANDALE,2750,17903,1951,60,309,,Sold,,,https://www.redfin.com/MD/Silver-Spring/10526-Sweetbriar-Pkwy-20903/home/10559413,BRIGHT MLS,MDMC2015726,N,Y,39.0291686,-76.9744323
PAST SALE,,Multi-Family (5+ Unit),820 University Blvd E,Silver Spring,MD,20903,655500,,,,,,,,,,,,,https://www.redfin.com/MD/Silver-Spring/820-University-Blvd-E-20903/home/10949780,,,N,Y,38.9956184,-76.9925987
PAST SALE,January-31-2019,Single Family Residential,1604 Oakview Dr,Silver Spring,MD,20903,370000,5,2.5,OAKVIEW,1986,6677,1950,1039,186,,Sold,,,https://www.redfin.com/MD/Silver-Spring/1604-Oakview-Dr-20903/home/10561176,BRIGHT MLS,1009932842,N,Y,39.0158499,-76.9805189
PAST SALE,September-14-2020,Single Family Residential,10421 Naglee Rd,Silver Spring,MD,20903,750000,4,3.5,HILLANDALE,1848,24375,1944,447,406,,Sold,,,https://www.redfin.com/MD/Silver-Spring/10421-Naglee-Rd-20903/home/10559649,BRIGHT MLS,MDMC720970,N,Y,39.027047,-76.983129
PAST SALE,May-19-2020,Single Family Residential,2019 Evansdale Dr,Hyattsville,MD,20783,365000,3,2.5,ADELPHI VILLAGE,1920,11340,1962,565,190,,Sold,,,https://www.redfin.com/MD/Hyattsville/2019-Evansdale-Dr-20783/home/11097458,BRIGHT MLS,MDPG564494,N,Y,39.0101873,-76.9730077
PAST SALE,September-3-2019,Single Family Residential,9602 Riggs Rd,Adelphi,MD,20783,230000,3,2.0,GREENVIEW-,1120,11577,1974,824,205,,Sold,,,https://www.redfin.com/MD/Adelphi/9602-Riggs-Rd-20783/home/11098155,BRIGHT MLS,MDPG521836,N,Y,39.0144985,-76.9651924
PAST SALE,November-25-2019,Single Family Residential,1919 Pagebrook Rd,Silver Spring,MD,20903,365000,3,2.5,HILLANDALE,2065,29584,1951,741,177,,Sold,,,https://www.redfin.com/MD/Silver-Spring/1919-Pagebrook-Rd-20903/home/10559261,BRIGHT MLS,MDMC668240,N,Y,39.029369,-76.972005
PAST SALE,May-31-2019,Single Family Residential,1309 Cresthaven Dr,Silver Spring,MD,20903,470000,4,3.0,CRESTHAVEN,1920,10849,1956,919,245,,Sold,,,https://www.redfin.com/MD/Silver-Spring/1309-Cresthaven-Dr-20903/home/10563611,BRIGHT MLS,MDMC653746,N,Y,39.0299419,-76.9849852
PAST SALE,July-24-2019,Single Family Residential,1511 Moffet Rd,Silver Spring,MD,20903,350000,3,2.0,OAKVIEW,1560,6161,1950,865,224,,Sold,,,https://www.redfin.com/MD/Silver-Spring/1511-Moffet-Rd-20903/home/10561484,BRIGHT MLS,MDMC659182,N,Y,39.0170539,-76.9811602
PAST SALE,January-20-2021,Single Family Residential,10305 New Hampshire Ave,Silver Spring,MD,20903,750000,6,4.5,HILLANDALE,7448,18750,1938,319,101,,Sold,,,https://www.redfin.com/MD/Silver-Spring/10305-New-Hampshire-Ave-20903/home/10559655,BRIGHT MLS,MDMC723122,N,Y,39.0251809,-76.9793601
PAST SALE,November-13-2021,Single Family Residential,1006 Devere Dr,Silver Spring,MD,20903,540000,3,3.0,HILLANDALE HEIGHTS,2171,9721,1961,22,249,,Sold,,,https://www.redfin.com/MD/Silver-Spring/1006-Devere-Dr-20903/home/10564396,BRIGHT MLS,MDMC2017270,N,Y,39.022048,-76.99097
PAST SALE,June-25-2021,Townhouse,1022 Osage St,Silver Spring,MD,20903,385000,4,2.5,NEW HAMPSHIRE ESTS,1360,3437,1952,163,283,,Sold,,,https://www.redfin.com/MD/Silver-Spring/1022-Osage-St-20903/home/10992986,BRIGHT MLS,MDMC759882,N,Y,38.996262,-76.99092
PAST SALE,,Single Family Residential,1111 Osage St,Silver Spring,MD,20903,223100,,1.5,,1056,5975,1950,,211,,,,,https://www.redfin.com/MD/Silver-Spring/1111-Osage-St-20903/home/10993404,,,N,Y,38.9964318,-76.9890351
PAST SALE,September-1-2021,Single Family Residential,2004 Avenel Rd,Adelphi,MD,20783,472000,5,3.0,HOLLY HILL TERRACE,2576,13000,1975,95,183,,Sold,,,https://www.redfin.com/MD/Adelphi/2004-Avenel-Rd-20783/home/11086284,BRIGHT MLS,MDPG2005904,N,Y,39.01649,-76.972332
PAST SALE,June-28-2019,Single Family Residential,1035 Osage St,Silver Spring,MD,20903,325000,2,2.0,NEW HAMPSHIRE ESTS,1248,5480,1950,891,260,,Sold,,,https://www.redfin.com/MD/Silver-Spring/1035-Osage-St-20903/home/10993000,BRIGHT MLS,MDMC658086,N,Y,38.9960731,-76.9901151
PAST SALE,July-31-2019,Single Family Residential,10525 Sweetbriar Pkwy,Silver Spring,MD,20903,810000,5,4.5,HILLANDALE,3096,41858,1941,858,262,,Sold,,,https://www.redfin.com/MD/Silver-Spring/10525-Sweetbriar-Pkwy-20903/home/10559015,BRIGHT MLS,MDMC660808,N,Y,39.0288707,-76.9723574
PAST SALE,December-6-2019,Single Family Residential,9619 Mount Pisgah Rd,Silver Spring,MD,20903,420000,4,2.5,COLESVILLE OUTSIDE,1482,24451,1949,730,283,,Sold,,,https://www.redfin.com/MD/Silver-Spring/9619-Mt-Pisgah-Rd-20903/home/10557368,BRIGHT MLS,MDMC681306,N,Y,39.013725,-76.9769793
PAST SALE,August-27-2020,Single Family Residential,900 Balmoral Dr,Silver Spring,MD,20903,550000,4,3.0,HILLANDALE HEIGHTS,2574,12790,1962,465,214,,Sold,,,https://www.redfin.com/MD/Silver-Spring/900-Balmoral-Dr-20903/home/10564612,BRIGHT MLS,MDMC716600,N,Y,39.0238102,-76.99097
PAST SALE,November-27-2019,Single Family Residential,2024 Evansdale Dr,Hyattsville,MD,20783,451000,4,3.5,ADELPHI VILLAGE,3340,12947,1999,739,135,,Sold,,,https://www.redfin.com/MD/Hyattsville/2024-Evansdale-Dr-20783/home/11116282,BRIGHT MLS,MDPG547660,N,Y,39.0107624,-76.9728488
PAST SALE,July-13-2021,Single Family Residential,1601 Oakview Dr,Silver Spring,MD,20903,450000,3,2.5,OAKVIEW,1520,6430,1950,145,296,,Sold,,,https://www.redfin.com/MD/Silver-Spring/1601-Oakview-Dr-20903/home/10561220,BRIGHT MLS,MDMC761260,N,Y,39.0154867,-76.9811152
PAST SALE,July-20-2021,Single Family Residential,1716 Overlook Dr,Silver Spring,MD,20903,420000,3,1.5,HILLANDALE,1590,22649,1949,138,264,,Sold,,,https://www.redfin.com/MD/Silver-Spring/1716-Overlook-Dr-20903/home/10559480,BRIGHT MLS,MDMC757174,N,Y,39.0262349,-76.9755799
PAST SALE,February-22-2021,Single Family Residential,9810 Arbor Hill Dr,Silver Spring,MD,20903,399000,4,2.5,OAKVIEW,2009,6554,1959,286,199,,Sold,,,https://www.redfin.com/MD/Silver-Spring/9810-Arbor-Hill-Dr-20903/home/10561162,BRIGHT MLS,MDMC738742,N,Y,39.0168888,-76.9867852
PAST SALE,February-26-2021,Single Family Residential,9615 Cottrell Ter,Silver Spring,MD,20903,430000,5,2.0,OAKVIEW,1599,6300,1951,282,269,,Sold,,,https://www.redfin.com/MD/Silver-Spring/9615-Cottrell-Ter-20903/home/10561227,BRIGHT MLS,MDMC741120,N,Y,39.0133988,-76.9810702
PAST SALE,,Single Family Residential,1710 Edgewater Pkwy,Silver Spring,MD,20903,125000,,2.5,,2421,32071,1953,,52,,,,,https://www.redfin.com/MD/Silver-Spring/1710-Edgewater-Pkwy-20903/home/10559575,,,N,Y,39.0278839,-76.975743
PAST SALE,September-8-2021,Single Family Residential,10609 Lilac Pl,Silver Spring,MD,20903,485000,3,2.0,BURNT MILLS KNOLLS,1372,9000,1954,88,353,,Sold,,,https://www.redfin.com/MD/Silver-Spring/10609-Lilac-Pl-20903/home/10562633,BRIGHT MLS,MDMC2008610,N,Y,39.0311987,-76.9879552
PAST SALE,June-24-2021,Single Family Residential,1109 Ruppert Rd,Silver Spring,MD,20903,470000,4,2.0,BURNT MILLS KNOLLS,2300,10455,1954,164,204,,Sold,,,https://www.redfin.com/MD/Silver-Spring/1109-Ruppert-Rd-20903/home/10562502,BRIGHT MLS,MDMC759682,N,Y,39.0293286,-76.9891251
PAST SALE,January-23-2019,Single Family Residential,901 Balmoral Dr,Silver Spring,MD,20903,448500,4,3.0,HILLANDALE HEIGHTS,1926,21780,1962,1047,233,,Sold,,,https://www.redfin.com/MD/Silver-Spring/901-Balmoral-Dr-20903/home/10564469,BRIGHT MLS,MDMC356362,N,Y,39.0233725,-76.9911725
PAST SALE,November-27-2019,Single Family Residential,8403 Tahona Dr,Silver Spring,MD,20903,350000,3,1.0,NEW HAMPSHIRE ESTS,1056,5873,1950,739,331,,Sold,,,https://www.redfin.com/MD/Silver-Spring/8403-Tahona-Dr-20903/home/10993281,BRIGHT MLS,MDMC682392,N,Y,38.9978266,-76.9875502
PAST SALE,July-13-2020,Single Family Residential,1250 Cresthaven Dr,Silver Spring,MD,20903,615000,4,3.0,COLESVILLE OUTSIDE,2812,23783,1949,510,219,,Sold,,,https://www.redfin.com/MD/Silver-Spring/1250-Cresthaven-Dr-20903/home/10600130,BRIGHT MLS,MDMC711970,N,Y,39.0286783,-76.9865602
PAST SALE,August-13-2021,Single Family Residential,10301 Lariston Ln,Silver Spring,MD,20903,475000,3,2.5,HILLANDALE HEIGHTS,2013,10086,1959,114,236,,Sold,,,https://www.redfin.com/MD/Silver-Spring/10301-Lariston-Ln-20903/home/10564949,BRIGHT MLS,MDMC2006892,N,Y,39.0246526,-76.9888551
PAST SALE,August-9-2019,Single Family Residential,901 W Nolcrest Dr,Silver Spring,MD,20903,430000,4,2.0,COLESVILLE OUTSIDE,1986,12229,1967,849,217,,Sold,,,https://www.redfin.com/MD/Silver-Spring/901-W-Nolcrest-Dr-20903/home/10556596,BRIGHT MLS,MDMC658538,N,Y,39.0290369,-76.99115
PAST SALE,February-16-2021,Single Family Residential,807 Schindler Dr,Silver Spring,MD,20903,535000,4,3.0,CREST PARK,2505,11901,1962,292,214,,Sold,,,https://www.redfin.com/MD/Silver-Spring/807-Schindler-Dr-20903/home/10566489,BRIGHT MLS,MDMC740518,N,Y,39.0257574,-76.990835
PAST SALE,,Multi-Family (5+ Unit),10110 New Hampshire Ave,Silver Spring,MD,20903,5950000,,,,,,,,,,,,,https://www.redfin.com/MD/Silver-Spring/10110-New-Hampshire-Ave-20903/home/35617211,,,N,Y,39.020814,-76.978357
PAST SALE,May-6-2019,Single Family Residential,1324 Stateside Dr,Silver Spring,MD,20903,505000,4,4.0,COLESVILLE OUTSIDE,1499,20322,1951,944,337,,Sold,,,https://www.redfin.com/MD/Silver-Spring/1324-Stateside-Dr-20903/home/10557338,BRIGHT MLS,MDMC650182,N,Y,39.0123008,-76.9830502
PAST SALE,March-3-2020,Single Family Residential,1412 Stateside Dr,Silver Spring,MD,20903,390000,3,1.5,COLESVILLE OUTSIDE,1211,22471,1951,642,322,,Sold,,,https://www.redfin.com/MD/Silver-Spring/1412-Stateside-Dr-20903/home/10557843,BRIGHT MLS,MDMC688934,N,Y,39.0115874,-76.9817002
PAST SALE,December-21-2018,Single Family Residential,9313 New Hampshire Ave,Silver Spring,MD,20903,390000,4,2.0,ADELPHI HEIGHTS,1512,12671,1954,1080,258,,Sold,,,https://www.redfin.com/MD/Silver-Spring/9313-New-Hampshire-Ave-20903/home/10567134,BRIGHT MLS,MDMC101408,N,Y,39.0093694,-76.9790901
PAST SALE,March-15-2019,Single Family Residential,919 Mcceney Ave,Silver Spring,MD,20901,910000,5,4.5,BURNT MILLS HILLS,4952,63064,1945,996,184,,Sold,,,https://www.redfin.com/MD/Silver-Spring/919-McCeney-Ave-20901/home/10558962,BRIGHT MLS,MDMC164886,N,Y,39.0337062,-76.9905629
PAST SALE,December-17-2018,Townhouse,906 Navahoe Dr,Silver Spring,MD,20903,310000,3,2.5,NEW HAMPSHIRE ESTS,1088,3291,1952,1084,285,,Sold,,,https://www.redfin.com/MD/Silver-Spring/906-Navahoe-Dr-20903/home/10992412,BRIGHT MLS,1009926188,N,Y,38.99384,-76.991555
PAST SALE,,Single Family Residential,10406 Rodney Rd,Silver Spring,MD,20903,537500,,2.5,,1446,24842,1942,,372,,,,,https://www.redfin.com/MD/Silver-Spring/10406-Rodney-Rd-20903/home/10559029,,,N,Y,39.026187,-76.9847152
PAST SALE,,Single Family Residential,10400 Naglee Rd,Silver Spring,MD,20903,700000,,3.5,,3762,12032,2000,,186,,,,,https://www.redfin.com/MD/Silver-Spring/10400-Naglee-Rd-20903/home/10559044,,,N,Y,39.0259987,-76.9830502
PAST SALE,May-20-2019,Townhouse,8522 11th Ave,Silver Spring,MD,20903,292000,2,2.0,NEW HAMPSHIRE ESTS,1040,3295,1952,930,281,,Sold,,,https://www.redfin.com/MD/Silver-Spring/8522-11th-Ave-20903/home/10992605,BRIGHT MLS,MDMC654622,N,Y,38.997352,-76.990138
PAST SALE,June-5-2020,Townhouse,8646 11th Ave,Silver Spring,MD,20903,250000,2,1.5,NEW HAMPSHIRE ESTS,736,3083,1952,548,340,,Sold,,,https://www.redfin.com/MD/Silver-Spring/8646-11th-Ave-20903/home/10992572,BRIGHT MLS,MDMC702080,N,Y,38.9996118,-76.9859752
PAST SALE,February-28-2019,Single Family Residential,8406 11th Ave,Silver Spring,MD,20903,368000,7,3.0,NEW HAMPSHIRE ESTS,2300,7012,1952,1011,160,,Sold,,,https://www.redfin.com/MD/Silver-Spring/8406-11th-Ave-20903/home/10992515,BRIGHT MLS,1009964044,N,Y,38.9946013,-76.9905651
PAST SALE,July-22-2019,Single Family Residential,8314 Tahona Dr,Silver Spring,MD,20903,370000,4,2.5,NEW HAMPSHIRE ESTS,1408,7936,1951,867,263,,Sold,,,https://www.redfin.com/MD/Silver-Spring/8314-Tahona-Dr-20903/home/10993044,BRIGHT MLS,MDMC662120,N,Y,38.9973877,-76.9886301
PAST SALE,January-10-2020,Townhouse,1068 Ruatan St,Silver Spring,MD,20903,350000,5,2.0,NEW HAMPSHIRE ESTS,1380,3396,1953,695,254,,Sold,,,https://www.redfin.com/MD/Silver-Spring/1068-Ruatan-St-20903/home/10993076,BRIGHT MLS,MDMC687366,N,Y,38.999911,-76.987957
PAST SALE,October-30-2020,Vacant Land,10601 Greenacres Dr,Silver Spring,MD,20903,235000,,,HILLANDALE,,28761,,401,,,Sold,,,https://www.redfin.com/MD/Silver-Spring/10601-Greenacres-Dr-20903/home/10559369,BRIGHT MLS,MDMC698120,N,Y,39.028854,-76.976272
PAST SALE,February-14-2020,Townhouse,8526 11th Ave,Silver Spring,MD,20903,252500,2,1.0,NEW HAMPSHIRE ESTS,1082,3607,1952,660,233,,Sold,,,https://www.redfin.com/MD/Silver-Spring/8526-11th-Ave-20903/home/10992644,BRIGHT MLS,MDMC686008,N,Y,38.997457,-76.989976
PAST SALE,August-30-2019,Single Family Residential,10421 Kinloch Rd,Silver Spring,MD,20903,430000,4,3.0,HILLANDALE,1565,9947,1964,828,275,,Sold,,,https://www.redfin.com/MD/Silver-Spring/10421-Kinloch-Rd-20903/home/10559301,BRIGHT MLS,MDMC669044,N,Y,39.026954,-76.9695493
PAST SALE,,Townhouse,1012 Ruatan St,Silver Spring,MD,20903,285000,,1.5,,1488,5253,1954,,192,,,,,https://www.redfin.com/MD/Silver-Spring/1012-Ruatan-St-20903/home/10992706,,,N,Y,38.9978782,-76.9907244
PAST SALE,,Single Family Residential,10215 New Hampshire Ave,Silver Spring,MD,20903,400000,,3.0,,2270,32500,1949,,176,,,,,https://www.redfin.com/MD/Silver-Spring/10215-New-Hampshire-Ave-20903/home/10559138,,,N,Y,39.0239075,-76.9783701
PAST SALE,August-2-2019,Single Family Residential,2116 Gatewood Pl,Silver Spring,MD,20903,449000,4,3.0,HILLANDALE,1833,13905,1963,856,245,,Sold,,,https://www.redfin.com/MD/Silver-Spring/2116-Gatewood-Pl-20903/home/10559172,BRIGHT MLS,MDMC661876,N,Y,39.0271732,-76.9690092
PAST SALE,April-30-2021,Single Family Residential,1920 Kimberly Rd,Silver Spring,MD,20903,550000,4,3.0,HILLANDALE,2611,12952,1962,219,211,,Sold,,,https://www.redfin.com/MD/Silver-Spring/1920-Kimberly-Rd-20903/home/10559181,BRIGHT MLS,MDMC750820,N,Y,39.0305915,-76.9712595
PAST SALE,August-23-2019,Townhouse,8719 Carroll Ave,Silver Spring,MD,20903,287000,3,2.0,NEW HAMPSHIRE ESTS,1088,4547,1958,835,264,,Sold,,,https://www.redfin.com/MD/Silver-Spring/8719-Carroll-Ave-20903/home/10992894,BRIGHT MLS,MDMC665202,N,Y,38.997947,-76.991292
PAST SALE,September-27-2019,Single Family Residential,1924 Kimberly Rd,Silver Spring,MD,20903,497000,5,2.5,HILLANDALE,3660,11165,1962,800,136,,Sold,,,https://www.redfin.com/MD/Silver-Spring/1924-Kimberly-Rd-20903/home/10559209,BRIGHT MLS,MDMC670842,N,Y,39.0305507,-76.9708995
PAST SALE,April-3-2019,Single Family Residential,1919 Edgewater Pkwy,Silver Spring,MD,20903,460000,4,3.5,HILLANDALE,2380,10596,1965,977,193,,Sold,,,https://www.redfin.com/MD/Silver-Spring/1919-Edgewater-Pkwy-20903/home/10559348,BRIGHT MLS,MDMC561148,N,Y,39.0265826,-76.9715745
PAST SALE,December-18-2020,Single Family Residential,10506 Greenacres Dr,Silver Spring,MD,20903,795000,5,3.0,HILLANDALE,3584,32394,1956,352,222,,Sold,,,https://www.redfin.com/MD/Silver-Spring/10506-Greenacres-Dr-20903/home/10559513,BRIGHT MLS,MDMC733726,N,Y,39.0285374,-76.9772267
PAST SALE,February-1-2019,Single Family Residential,10401 Sweetbriar Pkwy,Silver Spring,MD,20903,413000,4,2.5,HILLANDALE,3015,13342,1965,1038,137,,Sold,,,https://www.redfin.com/MD/Silver-Spring/10401-Sweetbriar-Pkwy-20903/home/10559524,BRIGHT MLS,MDMC389014,N,Y,39.0250709,-76.9729022
PAST SALE,,Single Family Residential,10411 Greenacres Dr,Silver Spring,MD,20903,100000,,2.5,,1643,29517,1949,,61,,,,,https://www.redfin.com/MD/Silver-Spring/10411-Greenacres-Dr-20903/home/10559556,,,N,Y,39.0268479,-76.97675
PAST SALE,January-19-2019,Single Family Residential,2112 Edgewater Pkwy,Silver Spring,MD,20903,489000,5,2.5,HILLANDALE,2232,11536,1965,1051,219,,Sold,,,https://www.redfin.com/MD/Silver-Spring/2112-Edgewater-Pkwy-20903/home/10559579,BRIGHT MLS,1009932302,N,Y,39.0283258,-76.9696393
PAST SALE,,Single Family Residential,1003 Navahoe Dr,Silver Spring,MD,20903,330000,,2.0,,960,6600,1950,,344,,,,,https://www.redfin.com/MD/Silver-Spring/1003-Navahoe-Dr-20903/home/10993724,,,N,Y,38.9936338,-76.9907788
PAST SALE,July-31-2019,Single Family Residential,1009 Navahoe Dr,Silver Spring,MD,20903,309000,3,2.0,NEW HAMPSHIRE ESTS,960,6600,1949,858,322,,Sold,,,https://www.redfin.com/MD/Silver-Spring/1009-Navahoe-Dr-20903/home/10993737,BRIGHT MLS,MDMC439968,N,Y,38.9937192,-76.9902051
PAST SALE,April-19-2019,Townhouse,1083 Ruatan St,Silver Spring,MD,20903,294000,4,2.0,NEW HAMPSHIRE ESTS,975,3314,1952,961,302,,Sold,,,https://www.redfin.com/MD/Silver-Spring/1083-Ruatan-St-20903/home/10993743,BRIGHT MLS,MDMC488770,N,Y,38.9997428,-76.9864252
PAST SALE,,Single Family Residential,8321 Tahona Dr,Silver Spring,MD,20903,437000,,2.0,,1880,5754,1951,,232,,,,,https://www.redfin.com/MD/Silver-Spring/8321-Tahona-Dr-20903/home/10993778,,,N,Y,38.9971766,-76.9881802
PAST SALE,April-22-2021,Single Family Residential,1626 Oakview Dr,Silver Spring,MD,20903,485000,4,1.5,OAKVIEW,2026,7393,1950,227,239,,Sold,,,https://www.redfin.com/MD/Silver-Spring/1626-Oakview-Dr-20903/home/10561068,BRIGHT MLS,MDMC746396,N,Y,39.0155768,-76.9783701
PAST SALE,March-26-2021,Townhouse,8524 11th Ave,Silver Spring,MD,20903,330000,2,2.0,NEW HAMPSHIRE ESTS,1040,3479,1952,254,317,,Sold,,,https://www.redfin.com/MD/Silver-Spring/8524-11th-Ave-20903/home/10993268,BRIGHT MLS,MDMC744192,N,Y,38.9974099,-76.9900496
PAST SALE,August-12-2020,Single Family Residential,8419 11th Ave,Silver Spring,MD,20903,351000,3,1.5,NEW HAMPSHIRE ESTS,950,6968,1951,480,369,,Sold,,,https://www.redfin.com/MD/Silver-Spring/8419-11th-Ave-20903/home/10993274,BRIGHT MLS,MDMC712436,N,Y,38.9956673,-76.9900701
PAST SALE,July-7-2020,Single Family Residential,10507 Greenacres Dr,Silver Spring,MD,20903,890000,4,4.5,HILLANDALE,3486,50070,1941,516,255,,Sold,,,https://www.redfin.com/MD/Silver-Spring/10507-Greenacres-Dr-20903/home/10559631,BRIGHT MLS,MDMC704996,N,Y,39.0279025,-76.9766549
PAST SALE,,Single Family Residential,10300 Naglee Rd,Silver Spring,MD,20903,550000,,3.0,,1612,22756,1953,,341,,,,,https://www.redfin.com/MD/Silver-Spring/10300-Naglee-Rd-20903/home/10559714,,,N,Y,39.0249548,-76.9816102
PAST SALE,January-28-2020,Single Family Residential,10601 Kinloch Rd,Silver Spring,MD,20903,432000,3,2.0,HILLANDALE,1599,16500,1952,677,270,,Sold,,,https://www.redfin.com/MD/Silver-Spring/10601-Kinloch-Rd-20903/home/10559733,BRIGHT MLS,MDMC690284,N,Y,39.0292308,-76.9691442
PAST SALE,September-16-2020,Single Family Residential,10207 Greenacres Dr,Silver Spring,MD,20903,405000,3,2.0,HILLANDALE,1344,38800,1935,445,301,,Sold,,,https://www.redfin.com/MD/Silver-Spring/10207-Greenacres-Dr-20903/home/10559738,BRIGHT MLS,MDMC718766,N,Y,39.023754,-76.97666
PAST SALE,August-10-2021,Single Family Residential,9805 Hedin Dr,Silver Spring,MD,20903,495000,4,3.0,OAKVIEW,1764,6826,1958,117,281,,Sold,,,https://www.redfin.com/MD/Silver-Spring/9805-Hedin-Dr-20903/home/10560826,BRIGHT MLS,MDMC758612,N,Y,39.0164603,-76.9879552
PAST SALE,March-20-2020,Multi-Family (2-4 Unit),9805 Braddock Rd,Silver Spring,MD,20903,370000,5,2.5,OAKVIEW,1755,7580,1950,625,211,,Sold,,,https://www.redfin.com/MD/Silver-Spring/9805-Braddock-Rd-20903/home/10561148,BRIGHT MLS,MDMC696104,N,Y,39.0162522,-76.9808002
PAST SALE,April-12-2021,Single Family Residential,9905 Hedin Dr,Silver Spring,MD,20903,500000,4,2.5,OAKVIEW,2042,10231,1959,237,245,,Sold,,,https://www.redfin.com/MD/Silver-Spring/9905-Hedin-Dr-20903/home/10561158,BRIGHT MLS,MDMC747072,N,Y,39.0179283,-76.9857052
PAST SALE,November-25-2019,Single Family Residential,9811 Hedin Dr,Silver Spring,MD,20903,420000,4,3.0,OAKVIEW,1764,8505,1959,741,238,,Sold,,,https://www.redfin.com/MD/Silver-Spring/9811-Hedin-Dr-20903/home/10561189,BRIGHT MLS,MDMC683142,N,Y,39.0167452,-76.9876402
PAST SALE,May-15-2020,Single Family Residential,9616 E Light Dr,Silver Spring,MD,20903,435000,4,3.0,OAKVIEW,2267,8310,1961,569,192,,Sold,,,https://www.redfin.com/MD/Silver-Spring/9616-E-Light-Dr-20903/home/10560966,BRIGHT MLS,MDMC701488,N,Y,39.0132273,-76.9859302
PAST SALE,November-30-2020,Single Family Residential,9614 Cottrell Ter,Silver Spring,MD,20903,330000,3,1.5,OAKVIEW,1599,6090,1951,370,206,,Sold,,,https://www.redfin.com/MD/Silver-Spring/9614-Cottrell-Ter-20903/home/10561029,BRIGHT MLS,MDMC695594,N,Y,39.0130033,-76.9811152
PAST SALE,January-29-2021,Single Family Residential,9922 Cottrell Ter,Silver Spring,MD,20903,475000,3,3.0,OAKVIEW,1668,6600,1950,310,285,,Sold,,,https://www.redfin.com/MD/Silver-Spring/9922-Cottrell-Ter-20903/home/10561451,BRIGHT MLS,MDMC739252,N,Y,39.0181347,-76.9808002
PAST SALE,March-25-2020,Single Family Residential,9709 Dilston Rd,Silver Spring,MD,20903,354000,4,1.5,OAKVIEW,1287,6710,1950,620,275,,Sold,,,https://www.redfin.com/MD/Silver-Spring/9709-Dilston-Rd-20903/home/10561516,BRIGHT MLS,MDMC697536,N,Y,39.0184234,-76.9826452
PAST SALE,July-31-2019,Single Family Residential,9809 Hedin Dr,Silver Spring,MD,20903,416500,4,3.0,OAKVIEW,1764,8096,1958,858,236,,Sold,,,https://www.redfin.com/MD/Silver-Spring/9809-Hedin-Dr-20903/home/10561594,BRIGHT MLS,MDMC662772,N,Y,39.0166002,-76.9877752
PAST SALE,March-19-2021,Single Family Residential,1509 Oakview Dr,Silver Spring,MD,20903,500000,4,3.0,OAKVIEW,2484,6797,1951,261,201,,Sold,,,https://www.redfin.com/MD/Silver-Spring/1509-Oakview-Dr-20903/home/10561339,BRIGHT MLS,MDMC739842,N,Y,39.0153342,-76.9826002
PAST SALE,June-19-2020,Single Family Residential,9311 Avenel Rd,Silver Spring,MD,20903,400000,5,3.0,OAKVIEW,1578,9167,1961,534,253,,Sold,,,https://www.redfin.com/MD/Silver-Spring/9311-Avenel-Rd-20903/home/10561355,BRIGHT MLS,MDMC703786,N,Y,39.0089827,-76.9802743
PAST SALE,,Single Family Residential,1111 Oakview Dr,Silver Spring,MD,20903,330000,,2.5,,1764,9113,1959,,187,,,,,https://www.redfin.com/MD/Silver-Spring/1111-Oakview-Dr-20903/home/10561623,,,N,Y,39.0157463,-76.9890801
PAST SALE,February-19-2021,Single Family Residential,9605 Cottrell Ter,Silver Spring,MD,20903,400000,3,2.0,OAKVIEW,1599,6300,1951,289,250,,Sold,,,https://www.redfin.com/MD/Silver-Spring/9605-Cottrell-Ter-20903/home/10561412,BRIGHT MLS,MDMC738916,N,Y,39.0129365,-76.9801701
PAST SALE,January-18-2019,Single Family Residential,9803 E Light Dr,Silver Spring,MD,20903,388445,3,2.0,OAKVIEW,1611,6655,1953,1052,241,,Sold,,,https://www.redfin.com/MD/Silver-Spring/9803-E-Light-Dr-20903/home/10561708,BRIGHT MLS,MDMC388840,N,Y,39.0159905,-76.9855702
PAST SALE,April-30-2019,Single Family Residential,9800 Dilston Rd,Silver Spring,MD,20903,355000,4,1.0,OAKVIEW,1347,17581,1950,950,264,,Sold,,,https://www.redfin.com/MD/Silver-Spring/9800-Dilston-Rd-20903/home/10561743,BRIGHT MLS,MDMC620860,N,Y,39.019171,-76.981241
PAST SALE,May-12-2021,Single Family Residential,9807 Cahart Pl,Silver Spring,MD,20903,450000,3,2.0,OAKVIEW,1710,6577,1950,207,263,,Sold,,,https://www.redfin.com/MD/Silver-Spring/9807-Cahart-Pl-20903/home/10561746,BRIGHT MLS,MDMC750408,N,Y,39.0161156,-76.9827802
PAST SALE,April-10-2019,Single Family Residential,1506 Moffet Rd,Silver Spring,MD,20903,425000,4,2.5,OAKVIEW,2092,7129,1950,970,203,,Sold,,,https://www.redfin.com/MD/Silver-Spring/1506-Moffet-Rd-20903/home/10561827,BRIGHT MLS,MDMC621132,N,Y,39.0174878,-76.9816327
PAST SALE,February-22-2019,Single Family Residential,9946 Cottrell Ter,Silver Spring,MD,20903,300000,3,2.0,OAKVIEW,1575,6170,1950,1017,190,,Sold,,,https://www.redfin.com/MD/Silver-Spring/9946-Cottrell-Ter-20903/home/10561852,BRIGHT MLS,MDMC137298,N,Y,39.0177688,-76.97792
PAST SALE,April-6-2021,Single Family Residential,1617 Parham Rd,Silver Spring,MD,20903,440000,5,2.0,OAKVIEW,2132,6300,1951,243,206,,Sold,,,https://www.redfin.com/MD/Silver-Spring/1617-Parham-Rd-20903/home/10561786,BRIGHT MLS,MDMC741282,N,Y,39.0140071,-76.9797201
PAST SALE,February-19-2021,Single Family Residential,9607 Dilston Rd,Silver Spring,MD,20903,414000,3,2.0,OAKVIEW,1672,6600,1949,289,248,,Sold,,,https://www.redfin.com/MD/Silver-Spring/9607-Dilston-Rd-20903/home/10561874,BRIGHT MLS,MDMC740010,N,Y,39.0161899,-76.9844115
PAST SALE,July-24-2020,Single Family Residential,9817 E Light Dr,Silver Spring,MD,20903,418000,3,2.0,OAKVIEW,1674,6655,1954,499,250,,Sold,,,https://www.redfin.com/MD/Silver-Spring/9817-E-Light-Dr-20903/home/10561880,BRIGHT MLS,MDMC696360,N,Y,39.0170458,-76.9849852
PAST SALE,December-23-2020,Single Family Residential,1202 Oakview Dr,Silver Spring,MD,20903,496000,4,3.0,OAKVIEW,1719,7107,1958,347,289,,Sold,,,https://www.redfin.com/MD/Silver-Spring/1202-Oakview-Dr-20903/home/10561888,BRIGHT MLS,MDMC736036,N,Y,39.0161997,-76.9877752
PAST SALE,August-29-2019,Single Family Residential,1208 Schindler Dr,Silver Spring,MD,20903,454000,4,2.0,BURNT MILLS KNOLLS,1473,9994,1954,829,308,,Sold,,,https://www.redfin.com/MD/Silver-Spring/1208-Schindler-Dr-20903/home/10562515,BRIGHT MLS,MDMC670340,N,Y,39.0331279,-76.9870439
PAST SALE,June-26-2019,Single Family Residential,1013 W Nolcrest Dr,Silver Spring,MD,20903,450000,6,2.0,BURNT MILLS KNOLLS,2157,9449,1956,893,209,,Sold,,,https://www.redfin.com/MD/Silver-Spring/1013-W-Nolcrest-Dr-20903/home/10562485,BRIGHT MLS,MDMC650138,N,Y,39.030833,-76.9901299
PAST SALE,May-10-2019,Single Family Residential,1205 Ruppert Rd,Silver Spring,MD,20903,458000,5,3.0,BURNT MILLS KNOLLS,2944,8979,1954,940,156,,Sold,,,https://www.redfin.com/MD/Silver-Spring/1205-Ruppert-Rd-20903/home/10562644,BRIGHT MLS,MDMC650234,N,Y,39.0301314,-76.9873702
PAST SALE,May-31-2019,Single Family Residential,1213 Schindler Dr,Silver Spring,MD,20903,450000,5,2.0,BURNT MILLS KNOLLS,2722,10682,1954,919,165,,Sold,,,https://www.redfin.com/MD/Silver-Spring/1213-Schindler-Dr-20903/home/10562542,BRIGHT MLS,MDMC652708,N,Y,39.0330178,-76.9863352
PAST SALE,July-17-2020,Single Family Residential,1100 Schindler Dr,Silver Spring,MD,20903,420000,3,1.5,BURNT MILLS KNOLLS,1660,9223,1954,506,253,,Sold,,,https://www.redfin.com/MD/Silver-Spring/1100-Schindler-Dr-20903/home/10562557,BRIGHT MLS,MDMC704834,N,Y,39.0309108,-76.9893051
PAST SALE,March-8-2021,Single Family Residential,1122 W Nolcrest Dr,Silver Spring,MD,20903,555000,5,2.0,BURNT MILLS KNOLLS,3176,9631,1956,272,175,,Sold,,,https://www.redfin.com/MD/Silver-Spring/1122-W-Nolcrest-Dr-20903/home/10562592,BRIGHT MLS,MDMC743404,N,Y,39.0332639,-76.9895751
PAST SALE,,Single Family Residential,1110 Schindler Dr,Silver Spring,MD,20903,450000,,1.5,,1225,10010,1954,,367,,,,,https://www.redfin.com/MD/Silver-Spring/1110-Schindler-Dr-20903/home/10562600,,,N,Y,39.0317352,-76.9884501
PAST SALE,June-12-2020,Single Family Residential,1109 Schindler Dr,Silver Spring,MD,20903,515000,4,2.0,BURNT MILLS KNOLLS,1809,10676,1954,541,285,,Sold,,,https://www.redfin.com/MD/Silver-Spring/1109-Schindler-Dr-20903/home/10562615,BRIGHT MLS,MDMC705124,N,Y,39.0313792,-76.9881352
PAST SALE,June-13-2019,Single Family Residential,1110 Ruppert Rd,Silver Spring,MD,20903,410000,3,2.0,BURNT MILLS KNOLLS,1775,10673,1954,906,231,,Sold,,,https://www.redfin.com/MD/Silver-Spring/1110-Ruppert-Rd-20903/home/10562620,BRIGHT MLS,MDMC658434,N,Y,39.0298092,-76.9891251
PAST SALE,,Single Family Residential,1771 Elton Rd,Silver Spring,MD,20903,426000,,2.5,,2756,13206,1961,,155,,,,,https://www.redfin.com/MD/Silver-Spring/1771-Elton-Rd-20903/home/10563059,,,N,Y,39.0191015,-76.9718221
PAST SALE,September-6-2019,Single Family Residential,2017 Forest Hill Dr,Silver Spring,MD,20903,393400,3,3.0,HILLANDALE FOREST,2405,12662,1957,821,164,,Sold,,,https://www.redfin.com/MD/Silver-Spring/2017-Forest-Hill-Dr-20903/home/10562975,BRIGHT MLS,MDMC662998,N,Y,39.0236884,-76.9686492
PAST SALE,April-30-2021,Single Family Residential,1912 Forest Dale Dr,Silver Spring,MD,20903,550000,4,3.0,HILLANDALE FOREST,2067,16549,1957,219,266,,Sold,,,https://www.redfin.com/MD/Silver-Spring/1912-Forest-Dale-Dr-20903/home/10563099,BRIGHT MLS,MDMC726224,N,Y,39.0230941,-76.9718896
PAST SALE,December-14-2020,Single Family Residential,2002 Forest Dale Dr,Silver Spring,MD,20903,498800,5,3.0,HILLANDALE FOREST,2660,11459,1957,356,188,,Sold,,,https://www.redfin.com/MD/Silver-Spring/2002-Forest-Dale-Dr-20903/home/10563107,BRIGHT MLS,MDMC732592,N,Y,39.022765,-76.9700444
PAST SALE,January-10-2020,Single Family Residential,1300 Cresthaven Dr,Silver Spring,MD,20903,450000,6,3.5,CRESTHAVEN,3286,9208,1967,695,137,,Sold,,,https://www.redfin.com/MD/Silver-Spring/1300-Cresthaven-Dr-20903/home/10563641,BRIGHT MLS,MDMC656740,N,Y,39.0300284,-76.9857502
PAST SALE,December-28-2018,Single Family Residential,1312 Cresthaven Dr,Silver Spring,MD,20903,492000,3,2.0,CRESTHAVEN,3001,16900,1936,1073,164,,Sold,,,https://www.redfin.com/MD/Silver-Spring/1312-Cresthaven-Dr-20903/home/10563660,BRIGHT MLS,1003811758,N,Y,39.0306012,-76.9848858
PAST SALE,November-30-2020,Single Family Residential,1116 Dunoon Rd,Silver Spring,MD,20903,470000,4,3.0,HILLANDALE HEIGHTS,1790,10500,1959,370,263,,Sold,,,https://www.redfin.com/MD/Silver-Spring/1116-Dunoon-Rd-20903/home/10564595,BRIGHT MLS,MDMC721964,N,Y,39.023252,-76.9867402
PAST SALE,October-9-2019,Single Family Residential,10103 Devere Ct,Silver Spring,MD,20903,480000,5,2.5,HILLANDALE HEIGHTS,2801,13748,1960,788,171,,Sold,,,https://www.redfin.com/MD/Silver-Spring/10103-Devere-Ct-20903/home/10564623,BRIGHT MLS,MDMC676440,N,Y,39.0205724,-76.991735
PAST SALE,July-25-2019,Single Family Residential,1211 Devere Dr,Silver Spring,MD,20903,439999,5,4.5,HILLANDALE HEIGHTS,2606,14239,1960,864,169,,Sold,,,https://www.redfin.com/MD/Silver-Spring/1211-Devere-Dr-20903/home/10564628,BRIGHT MLS,MDMC664384,N,Y,39.0206793,-76.9870102
PAST SALE,September-23-2020,Single Family Residential,1312 Xaveria Dr,Silver Spring,MD,20903,535000,6,3.0,HILLANDALE HEIGHTS,1856,12688,1960,438,288,,Sold,,,https://www.redfin.com/MD/Silver-Spring/1312-Xaveria-Dr-20903/home/10564678,BRIGHT MLS,MDMC722992,N,Y,39.0241699,-76.9849402
PAST SALE,July-22-2021,Single Family Residential,1029 Cresthaven Dr,Silver Spring,MD,20903,550000,4,3.0,HILLANDALE HEIGHTS,2350,25100,1961,136,234,,Sold,,,https://www.redfin.com/MD/Silver-Spring/1029-Cresthaven-Dr-20903/home/10564853,BRIGHT MLS,MDMC763976,N,Y,39.0197771,-76.9893051
PAST SALE,October-26-2020,Single Family Residential,908 Devere Drive Devere,Silver Spring,MD,20903,345000,5,3.0,HILLANDALE HEIGHTS,1854,14941,1958,405,186,,Sold,,,https://www.redfin.com/MD/Silver-Spring/908-Devere-Dr-20903/home/10564897,BRIGHT MLS,MDMC726986,N,Y,39.0223964,-76.9926349
PAST SALE,,Single Family Residential,1110 Devere Dr,Silver Spring,MD,20903,435000,,3.0,,3049,11465,1960,,143,,,,,https://www.redfin.com/MD/Silver-Spring/1110-Devere-Dr-20903/home/10564970,,,N,Y,39.0215184,-76.9859302
PAST SALE,August-11-2020,Single Family Residential,1120 Devere Dr,Silver Spring,MD,20903,483000,4,3.0,HILLANDALE HEIGHTS,1758,28236,1960,481,275,,Sold,,,https://www.redfin.com/MD/Silver-Spring/1120-Devere-Dr-20903/home/10564918,BRIGHT MLS,MDMC714316,N,Y,39.0206207,-76.9850752
PAST SALE,November-9-2020,Single Family Residential,1113 Dunoon Rd,Silver Spring,MD,20903,550000,6,4.0,HILLANDALE HEIGHTS,2820,9000,1960,391,195,,Sold,,,https://www.redfin.com/MD/Silver-Spring/1113-Dunoon-Rd-20903/home/10564464,BRIGHT MLS,MDMC728650,N,Y,39.0233182,-76.9873252
PAST SALE,July-26-2021,Single Family Residential,10115 Brock Dr,Silver Spring,MD,20903,660000,4,2.5,HILLANDALE HEIGHTS,2508,11583,1960,132,263,,Sold,,,https://www.redfin.com/MD/Silver-Spring/10115-Brock-Dr-20903/home/10565031,BRIGHT MLS,MDMC760916,N,Y,39.0203099,-76.9904751
PAST SALE,November-1-2019,Single Family Residential,14 Schindler Ct,Silver Spring,MD,20903,475000,5,3.0,CREST PARK,2678,14176,1962,765,177,,Sold,,,https://www.redfin.com/MD/Silver-Spring/14-Schindler-Ct-20903/home/10566475,BRIGHT MLS,MDMC682624,N,Y,39.0265862,-76.9888664
PAST SALE,March-9-2021,Single Family Residential,909 Burnt Crest Ln,Silver Spring,MD,20903,425900,3,3.0,CREST PARK,1512,9068,1963,271,282,,Sold,,,https://www.redfin.com/MD/Silver-Spring/909-Burnt-Crest-Ln-20903/home/10566494,BRIGHT MLS,MDMC739950,N,Y,39.0253556,-76.9929499
PAST SALE,August-17-2020,Single Family Residential,8 Crest Park Ct,Silver Spring,MD,20903,535000,4,3.0,CREST PARK,2928,9578,1963,475,183,,Sold,,,https://www.redfin.com/MD/Silver-Spring/8-Crest-Park-Ct-20903/home/10566546,BRIGHT MLS,MDMC715266,N,Y,39.0239673,-76.992005
PAST SALE,May-29-2019,Single Family Residential,10416 Burnt Ember Dr,Silver Spring,MD,20903,450000,3,2.0,CREST PARK,1686,12000,1964,921,267,,Sold,,,https://www.redfin.com/MD/Silver-Spring/10416-Burnt-Ember-Dr-20903/home/10566611,BRIGHT MLS,MDMC654470,N,Y,39.0265863,-76.9953347
PAST SALE,July-31-2020,Single Family Residential,910 Crest Park Dr,Silver Spring,MD,20903,600000,4,2.5,CREST PARK,3182,9004,1965,492,189,,Sold,,,https://www.redfin.com/MD/Silver-Spring/910-Crest-Park-Dr-20903/home/10566625,BRIGHT MLS,MDMC715272,N,Y,39.0249996,-76.9926349
PAST SALE,February-19-2020,Single Family Residential,903 Burnt Crest Ln,Silver Spring,MD,20903,439000,5,3.0,CREST PARK,2488,9068,1963,655,176,,Sold,,,https://www.redfin.com/MD/Silver-Spring/903-Burnt-Crest-Ln-20903/home/10566640,BRIGHT MLS,MDMC691196,N,Y,39.0253496,-76.9937824
PAST SALE,December-21-2018,Single Family Residential,9403 Sierra St,Silver Spring,MD,20903,370000,3,2.5,ADELPHI HEIGHTS,1780,5694,1954,1080,208,,Sold,,,https://www.redfin.com/MD/Silver-Spring/9403-Sierra-St-20903/home/10567041,BRIGHT MLS,1009939558,N,Y,39.0102436,-76.977965
PAST SALE,January-31-2020,Single Family Residential,1003 Robroy Dr,Silver Spring,MD,20903,410000,4,2.5,HILLANDALE HEIGHTS,2375,10021,1961,674,173,,Sold,,,https://www.redfin.com/MD/Silver-Spring/1003-Robroy-Dr-20903/home/10564386,BRIGHT MLS,MDMC689750,N,Y,39.0224186,-76.99106
PAST SALE,July-31-2019,Townhouse,8332 12th Ave,Silver Spring,MD,20903,310000,3,2.5,NEW HAMPSHIRE,1150,3750,1950,858,270,,Sold,,,https://www.redfin.com/MD/Silver-Spring/8332-12th-Ave-20903/home/10965806,BRIGHT MLS,MDPG531910,N,Y,38.995821,-76.98679
PAST SALE,,Single Family Residential,10618 Gatewood Ave,Silver Spring,MD,20903,137402,,2.5,,1830,12638,1956,,75,,,,,https://www.redfin.com/MD/Silver-Spring/10618-Gatewood-Ave-20903/home/10562494,,,N,Y,39.0296776,-76.9883152
PAST SALE,March-15-2021,Single Family Residential,1212 Harper Rd,Silver Spring,MD,20903,406000,3,1.5,COLESVILLE OUTSIDE,1544,18295,1953,265,263,,Sold,,,https://www.redfin.com/MD/Silver-Spring/1212-Harper-Rd-20903/home/10556055,BRIGHT MLS,MDMC744066,N,Y,39.0296394,-76.9865602
PAST SALE,,Single Family Residential,10319 Parkman Rd,Silver Spring,MD,20903,465500,,2.0,,2288,10341,1950,,203,,,,,https://www.redfin.com/MD/Silver-Spring/10319-Parkman-Rd-20903/home/10578247,,,N,Y,39.0253331,-76.9831852
PAST SALE,September-6-2019,Single Family Residential,10511 Deneane Rd,Silver Spring,MD,20903,606000,6,4.0,HILLANDALE,3468,19632,1958,821,175,,Sold,,,https://www.redfin.com/MD/Silver-Spring/10511-Deneane-Rd-20903/home/10559418,BRIGHT MLS,MDMC663126,N,Y,39.0284697,-76.9740948
PAST SALE,November-23-2020,Single Family Residential,1907 Edgewater Pkwy,Silver Spring,MD,20903,660000,5,3.0,HILLANDALE,4058,12492,1965,377,163,,Sold,,,https://www.redfin.com/MD/Silver-Spring/1907-Edgewater-Pkwy-20903/home/10559606,BRIGHT MLS,MDMC732602,N,Y,39.0265112,-76.9721821
PAST SALE,September-6-2019,Single Family Residential,10707 E Nolcrest Dr,Silver Spring,MD,20903,450000,7,3.0,BURNT MILLS KNOLLS,2562,9000,1954,821,176,,Sold,,,https://www.redfin.com/MD/Silver-Spring/10707-E-Nolcrest-Dr-20903/home/10562465,BRIGHT MLS,MDMC668318,N,Y,39.0322817,-76.9862002
PAST SALE,,Condo/Co-op,1006 Quebec Ter,Silver Spring,MD,20903,1960000,,,,7200,,1955,,272,,,,,https://www.redfin.com/MD/Silver-Spring/1006-Quebec-Ter-20903/home/10948793,,,N,Y,38.9997756,-76.9898177
PAST SALE,September-1-2021,Single Family Residential,1900 Powder Mill Rd,Silver Spring,MD,20903,675000,4,3.0,HILLANDALE,3762,12764,1964,95,179,,Sold,,,https://www.redfin.com/MD/Silver-Spring/1900-Powder-Mill-Rd-20903/home/10559113,BRIGHT MLS,MDMC2003502,N,Y,39.0243268,-76.9725196
PAST SALE,,Single Family Residential,1242 Cresthaven Dr,Silver Spring,MD,20903,3784000,,3.0,,2708,15842,1954,,1397,,,,,https://www.redfin.com/MD/Silver-Spring/1242-Cresthaven-Dr-20903/home/10604970,,,N,Y,39.0279733,-76.9870552
PAST SALE,October-15-2019,Single Family Residential,10234 Parkman Rd,Silver Spring,MD,20903,608000,5,3.5,HILLANDALE,2830,17749,2001,782,215,,Sold,,,https://www.redfin.com/MD/Silver-Spring/10234-Parkman-Rd-20903/home/10605223,BRIGHT MLS,MDMC670318,N,Y,39.0237119,-76.9808902
PAST SALE,November-19-2021,Single Family Residential,1254 Cresthaven Dr,Silver Spring,MD,20903,820000,6,2.5,COLESVILLE OUTSIDE,2830,40946,1948,16,290,,Sold,,,https://www.redfin.com/MD/Silver-Spring/1254-Cresthaven-Dr-20903/home/10557377,BRIGHT MLS,MDMC754928,N,Y,39.0289783,-76.9863802
PAST SALE,October-30-2020,Single Family Residential,1204 Schindler Dr,Silver Spring,MD,20903,455000,3,1.5,BURNT MILLS KNOLLS,1306,10946,1955,401,348,,Sold,,,https://www.redfin.com/MD/Silver-Spring/1204-Schindler-Dr-20903/home/10562569,BRIGHT MLS,MDMC722384,N,Y,39.0327547,-76.9875502
PAST SALE,December-30-2019,Single Family Residential,2012 Forest Dale Dr,Silver Spring,MD,20903,425000,5,3.0,HILLANDALE FOREST,2485,12908,1958,706,171,,Sold,,,https://www.redfin.com/MD/Silver-Spring/2012-Forest-Dale-Dr-20903/home/10563103,BRIGHT MLS,MDMC686862,N,Y,39.0229078,-76.9688292
PAST SALE,January-31-2019,Single Family Residential,1804 Madre St,Silver Spring,MD,20903,390000,4,3.0,ADELPHI HEIGHTS,1734,7317,1956,1039,225,,Sold,,,https://www.redfin.com/MD/Silver-Spring/1804-Madre-St-20903/home/10567097,BRIGHT MLS,MDMC388970,N,Y,39.0123164,-76.977875
PAST SALE,June-18-2019,Single Family Residential,1004 Navahoe Dr,Silver Spring,MD,20903,410000,5,3.0,NEW HAMPSHIRE ESTS,1872,7039,1952,901,219,,Sold,,,https://www.redfin.com/MD/Silver-Spring/1004-Navahoe-Dr-20903/home/10993366,BRIGHT MLS,MDMC652424,N,Y,38.9940703,-76.9904751
PAST SALE,,Single Family Residential,614 University Blvd E,Silver Spring,MD,20901,320000,,1.0,,1428,6796,1940,,224,,,,,https://www.redfin.com/MD/Silver-Spring/614-University-Blvd-E-20901/home/11070356,,,N,Y,39.0009738,-76.9951858
PAST SALE,,Single Family Residential,1006 Ruatan St,Silver Spring,MD,20903,410970,,4.5,,4692,26238,1868,,88,,,,,https://www.redfin.com/MD/Silver-Spring/1006-Ruatan-St-20903/home/11090023,,,N,Y,38.9977046,-76.9909025
PAST SALE,November-26-2019,Condo/Co-op,8830 Piney Branch Rd #1112,Silver Spring,MD,20903,164900,3,2.0,PINEWAY TOWERS CODM,1442,,1971,740,114,786,Sold,,,https://www.redfin.com/MD/Silver-Spring/8830-Piney-Branch-Rd-20903/unit-1112/home/11102401,BRIGHT MLS,MDMC684512,N,Y,39.0005828,-76.9929724
PAST SALE,May-30-2019,Condo/Co-op,8830 Piney Branch Rd #301,Silver Spring,MD,20903,100000,3,2.0,PINEWAY TOWERS CODM,1409,,1971,920,71,768,Sold,,,https://www.redfin.com/MD/Silver-Spring/8830-Piney-Branch-Rd-20903/unit-301/home/11102038,BRIGHT MLS,MDMC559740,N,Y,39.0005828,-76.9929724
PAST SALE,March-20-2019,Condo/Co-op,8830 Piney Branch Rd #312,Silver Spring,MD,20903,147600,3,2.0,PINEWAY TOWERS CODM,1442,,1971,991,102,771,Sold,,,https://www.redfin.com/MD/Silver-Spring/8830-Piney-Branch-Rd-20903/unit-312/home/11102072,BRIGHT MLS,MDMC621158,N,Y,39.0005828,-76.9929724
PAST SALE,March-9-2020,Condo/Co-op,8830 Piney Branch Rd #409,Silver Spring,MD,20903,104900,1,1.0,PINEWAY TOWERS CODM,825,,1971,636,127,475,Sold,,,https://www.redfin.com/MD/Silver-Spring/8830-Piney-Branch-Rd-20903/unit-409/home/11102106,BRIGHT MLS,MDMC695866,N,Y,39.0005828,-76.9929724
PAST SALE,December-11-2018,Condo/Co-op,8830 Piney Branch Rd #512,Silver Spring,MD,20903,149500,3,2.0,PINEWAY TOWERS CODM,1142,,1971,1090,131,771,Sold,,,https://www.redfin.com/MD/Silver-Spring/8830-Piney-Branch-Rd-20903/unit-512/home/11102160,BRIGHT MLS,1009935168,N,Y,39.0005828,-76.9929724
PAST SALE,,Condo/Co-op,8830 Piney Branch Rd #802,Silver Spring,MD,20903,160000,,,,1442,,1971,,111,,,,,https://www.redfin.com/MD/Silver-Spring/8830-Piney-Branch-Rd-20903/unit-802/home/11102248,,,N,Y,39.0005828,-76.9929724
PAST SALE,January-23-2019,Condo/Co-op,8830 Piney Branch Rd #904,Silver Spring,MD,20903,140000,3,2.0,PINEWAY TOWERS CODM,1054,,1971,1047,133,564,Sold,,,https://www.redfin.com/MD/Silver-Spring/8830-Piney-Branch-Rd-20903/unit-904/home/11102284,BRIGHT MLS,MDMC390678,N,Y,39.0005828,-76.9929724
PAST SALE,October-30-2020,Condo/Co-op,8830 Piney Branch Rd #1005,Silver Spring,MD,20903,180000,3,2.0,PINEWAY TOWERS CODM,1277,,1971,401,141,731,Sold,,,https://www.redfin.com/MD/Silver-Spring/8830-Piney-Branch-Rd-20903/unit-1005/home/11102338,BRIGHT MLS,MDMC716184,N,Y,39.0005828,-76.9929724
PAST SALE,April-21-2021,Condo/Co-op,8830 Piney North Branch Rd #1102,Silver Spring,MD,20903,185000,3,2.0,PINEWAY TOWERS CODM,1442,,1971,228,128,826,Sold,,,https://www.redfin.com/MD/Silver-Spring/8830-Piney-Branch-Rd-20903/unit-1102/home/11102373,BRIGHT MLS,MDMC737510,N,Y,39.0005828,-76.9929724
PAST SALE,December-27-2019,Condo/Co-op,8830 Piney Branch Rd #1105,Silver Spring,MD,20903,144000,3,2.0,PINEWAY TOWERS CODM,1277,,1971,709,113,689,Sold,,,https://www.redfin.com/MD/Silver-Spring/8830-Piney-Branch-Rd-20903/unit-1105/home/11102384,BRIGHT MLS,MDMC679558,N,Y,39.0005828,-76.9929724
PAST SALE,March-6-2019,Condo/Co-op,8830 Piney Branch Rd #1212,Silver Spring,MD,20903,150000,3,2.0,PINEWAY TOWERS CODM,1442,,1971,1005,104,786,Sold,,,https://www.redfin.com/MD/Silver-Spring/8830-Piney-Branch-Rd-20903/unit-1212/home/11102430,BRIGHT MLS,MDMC559468,N,Y,39.0005828,-76.9929724
PAST SALE,February-21-2020,Single Family Residential,10204 Green Forest Dr,Silver Spring,MD,20903,400000,7,3.0,HILLANDALE FOREST,2656,12000,1957,653,151,,Sold,,,https://www.redfin.com/MD/Silver-Spring/10204-Green-Forest-Dr-20903/home/10563140,BRIGHT MLS,MDMC687806,N,Y,39.021506,-76.9713045
PAST SALE,July-17-2020,Single Family Residential,10308 Nolcrest Dr,Silver Spring,MD,20903,575000,4,3.0,CREST PARK,2799,10992,1963,506,205,,Sold,,,https://www.redfin.com/MD/Silver-Spring/10308-Nolcrest-Dr-20903/home/10566606,BRIGHT MLS,MDMC711074,N,Y,39.0267077,-76.9932199
PAST SALE,August-11-2021,Single Family Residential,2018 Edgewater Pkwy,Silver Spring,MD,20903,615000,4,3.0,HILLANDALE,2753,21069,1953,116,223,,Sold,,,https://www.redfin.com/MD/Silver-Spring/2018-Edgewater-Pkwy-20903/home/10559544,BRIGHT MLS,MDMC2003634,N,Y,39.0278073,-76.9707194
PAST SALE,January-15-2019,Single Family Residential,9712 New Hampshire Ave,Silver Spring,MD,20903,350000,5,2.0,OAKVIEW,1170,8283,1950,1055,299,,Sold,,,https://www.redfin.com/MD/Silver-Spring/9712-New-Hampshire-Ave-20903/home/10561779,BRIGHT MLS,MDMC103192,N,Y,39.0159518,-76.978145
PAST SALE,June-30-2020,Single Family Residential,10703 Gatewood Ave,Silver Spring,MD,20903,420000,3,1.5,BURNT MILLS KNOLLS,1535,8985,1956,523,274,,Sold,,,https://www.redfin.com/MD/Silver-Spring/10703-Gatewood-Ave-20903/home/10562524,BRIGHT MLS,MDMC703660,N,Y,39.0310412,-76.9894189
PAST SALE,November-29-2019,Townhouse,1036 Ruatan St,Silver Spring,MD,20903,319900,3,2.5,NEW HAMPSHIRE ESTS,1224,4185,1962,737,261,,Sold,,,https://www.redfin.com/MD/Silver-Spring/1036-Ruatan-St-20903/home/10993561,BRIGHT MLS,MDMC683052,N,Y,38.9988515,-76.9898906
PAST SALE,July-9-2021,Single Family Residential,10309 Naglee Rd,Silver Spring,MD,20903,775000,5,4.0,HILLANDALE,2534,9750,1941,149,306,,Sold,,,https://www.redfin.com/MD/Silver-Spring/10309-Naglee-Rd-20903/home/10559167,BRIGHT MLS,MDMC755950,N,Y,39.025937,-76.9821502
PAST SALE,,Single Family Residential,1107 W Nolcrest Dr,Silver Spring,MD,20903,320000,,2.0,,1537,11954,1956,,208,,,,,https://www.redfin.com/MD/Silver-Spring/1107-W-Nolcrest-Dr-20903/home/10562605,,,N,Y,39.0318166,-76.9891701
PAST SALE,,Single Family Residential,1207 Oakview Dr,Silver Spring,MD,20903,485000,,2.5,,1719,8630,1958,,282,,,,,https://www.redfin.com/MD/Silver-Spring/1207-Oakview-Dr-20903/home/10561406,,,N,Y,39.0158087,-76.9875052
PAST SALE,April-30-2019,Single Family Residential,2008 Avenel Rd,Adelphi,MD,20783,335000,3,3.0,HOLLY HILL TERRACE,1288,13000,1975,950,260,,Sold,,,https://www.redfin.com/MD/Adelphi/2008-Avenel-Rd-20783/home/11086288,BRIGHT MLS,MDPG504292,N,Y,39.0164558,-76.9719796
PAST SALE,October-28-2019,Single Family Residential,902 Balmoral Dr,Silver Spring,MD,20903,435000,3,2.5,HILLANDALE HEIGHTS,2160,12702,1962,769,201,,Sold,,,https://www.redfin.com/MD/Silver-Spring/902-Balmoral-Dr-20903/home/10564476,BRIGHT MLS,MDMC100045,N,Y,39.0237047,-76.9907451
PAST SALE,December-28-2018,Single Family Residential,9717 Hedin Dr,Silver Spring,MD,20903,390000,3,2.5,OAKVIEW,1598,6909,1960,1073,244,,Sold,,,https://www.redfin.com/MD/Silver-Spring/9717-Hedin-Dr-20903/home/10560792,BRIGHT MLS,1009993158,N,Y,39.0143527,-76.9880902
PAST SALE,,Single Family Residential,12 Schindler Ct,Silver Spring,MD,20903,670000,,5.0,,2731,11397,1978,,245,,,,,https://www.redfin.com/MD/Silver-Spring/12-Schindler-Ct-20903/home/10566667,,,N,Y,39.0268451,-76.9887651
PAST SALE,September-26-2019,Single Family Residential,10419 Gatewood Ter,Silver Spring,MD,20903,515000,4,3.5,HILLANDALE,2575,9086,1965,801,200,,Sold,,,https://www.redfin.com/MD/Silver-Spring/10419-Gatewood-Ter-20903/home/10559237,BRIGHT MLS,MDMC673830,N,Y,39.0259004,-76.9708544
PAST SALE,July-30-2020,Single Family Residential,9736 Hedin Dr,Silver Spring,MD,20903,492500,4,3.0,OAKVIEW,1764,8033,1960,493,279,,Sold,,,https://www.redfin.com/MD/Silver-Spring/9736-Hedin-Dr-20903/home/10561237,BRIGHT MLS,MDMC712916,N,Y,39.0143269,-76.9891026
PAST SALE,July-24-2020,Single Family Residential,2010 Forest Hill Dr,Silver Spring,MD,20903,510000,6,4.0,HILLANDALE FOREST,2296,11250,1956,499,222,,Sold,,,https://www.redfin.com/MD/Silver-Spring/2010-Forest-Hill-Dr-20903/home/10563135,BRIGHT MLS,MDMC692100,N,Y,39.023716,-76.9699543
PAST SALE,,Single Family Residential,1404 Stateside Dr,Silver Spring,MD,20903,410000,,3.0,,1671,22471,1951,,245,,,,,https://www.redfin.com/MD/Silver-Spring/1404-Stateside-Dr-20903/home/10557815,,,N,Y,39.011904,-76.9823752
PAST SALE,March-31-2020,Single Family Residential,1615 Oakview Dr,Silver Spring,MD,20903,419900,7,4.0,OAKVIEW,2431,6154,1950,614,173,,Sold,,,https://www.redfin.com/MD/Silver-Spring/1615-Oakview-Dr-20903/home/10561532,BRIGHT MLS,MDMC694746,N,Y,39.0152373,-76.9789101
PAST SALE,October-20-2020,Townhouse,1067 Ruatan St,Silver Spring,MD,20903,360000,4,2.0,NEW HAMPSHIRE ESTS,1870,3458,1952,411,193,,Sold,,,https://www.redfin.com/MD/Silver-Spring/1067-Ruatan-St-20903/home/10993235,BRIGHT MLS,MDMC717152,N,Y,38.99956,-76.987431
PAST SALE,,Townhouse,8334 Navahoe Dr,Silver Spring,MD,20903,320000,,1.5,,1294,5108,1950,,247,,,,,https://www.redfin.com/MD/Silver-Spring/8334-Navahoe-Dr-20903/home/10956830,,,N,Y,38.9966494,-76.9874152
PAST SALE,January-31-2020,Single Family Residential,10310 Parkman Rd,Silver Spring,MD,20903,825000,5,4.5,HILLANDALE,4134,9750,2019,674,200,,Sold,,,https://www.redfin.com/MD/Silver-Spring/10310-Parkman-Rd-20903/home/143866388,BRIGHT MLS,MDMC677014,N,Y,39.0243593,-76.9823656
PAST SALE,September-17-2021,Townhouse,8246 New Hampshire Ave,Silver Spring,MD,20903,312000,3,2.5,NEW HAMPSHIRE,1374,3750,1946,79,227,,Sold,,,https://www.redfin.com/MD/Silver-Spring/8246-New-Hampshire-Ave-20903/home/10977225,BRIGHT MLS,MDPG2008870,N,Y,38.9951681,-76.985919
PAST SALE,November-12-2021,Single Family Residential,1506 Paula Dr,Silver Spring,MD,20903,480000,4,2.0,OAKVIEW,1599,6300,1951,23,300,,Sold,,,https://www.redfin.com/MD/Silver-Spring/1506-Paula-Dr-20903/home/10561091,BRIGHT MLS,MDMC2017888,N,Y,39.0139786,-76.9805301
PAST SALE,August-15-2021,Single Family Residential,10206 Lariston Ln,Silver Spring,MD,20903,503000,4,2.5,HILLANDALE HEIGHTS,2528,11480,1960,112,199,,Sold,,,https://www.redfin.com/MD/Silver-Spring/10206-Lariston-Ln-20903/home/10564839,BRIGHT MLS,MDMC2008894,N,Y,39.0243786,-76.9896201
PAST SALE,May-4-2021,Single Family Residential,10807 E Nolcrest Dr,Silver Spring,MD,20903,445000,3,2.5,BURNT MILLS KNOLLS,1225,9000,1956,215,363,,Sold,,,https://www.redfin.com/MD/Silver-Spring/10807-E-Nolcrest-Dr-20903/home/10562545,BRIGHT MLS,MDMC750948,N,Y,39.0335556,-76.9875502
PAST SALE,March-11-2020,Single Family Residential,1504 Dilston Rd,Silver Spring,MD,20903,425000,3,3.0,OAKVIEW,2200,7800,1956,634,193,,Sold,,,https://www.redfin.com/MD/Silver-Spring/1504-Dilston-Rd-20903/home/10561544,BRIGHT MLS,MDMC693640,N,Y,39.0128793,-76.9817902
PAST SALE,July-12-2021,Townhouse,8252 New Hampshire Ave,Silver Spring,MD,20903,340000,3,1.5,NEW HAMPSHIRE,1150,3750,1946,146,296,,Sold,,,https://www.redfin.com/MD/Silver-Spring/8252-New-Hampshire-Ave-20903/home/10989000,BRIGHT MLS,MDPG608210,N,Y,38.9954708,-76.9857615
PAST SALE,January-16-2019,Townhouse,8417 12th Ave,Silver Spring,MD,20903,280000,4,3.0,NEW HAMPSHIRE,1490,3750,1950,1054,188,,Sold,,,https://www.redfin.com/MD/Silver-Spring/8417-12th-Ave-20903/home/10976070,BRIGHT MLS,1009940074,N,Y,38.9975909,-76.985199
PAST SALE,December-2-2021,Single Family Residential,1904 Forest Dale Dr,Silver Spring,MD,20903,480000,3,3.0,HILLANDALE FOREST,2272,14572,1956,3,211,,Sold,,,https://www.redfin.com/MD/Silver-Spring/1904-Forest-Dale-Dr-20903/home/10562992,BRIGHT MLS,MDMC2020756,N,Y,39.0228711,-76.9731047
PAST SALE,July-7-2021,Single Family Residential,1001 Devere Dr,Silver Spring,MD,20903,550000,5,3.0,HILLANDALE HEIGHTS,2703,17957,1965,151,203,,Sold,,,https://www.redfin.com/MD/Silver-Spring/1001-Devere-Dr-20903/home/10565055,BRIGHT MLS,MDMC756188,N,Y,39.021862,-76.9919825
PAST SALE,September-11-2020,Single Family Residential,1213 Devere Dr,Silver Spring,MD,20903,477500,6,3.0,HILLANDALE HEIGHTS,1998,17700,1960,450,239,,Sold,,,https://www.redfin.com/MD/Silver-Spring/1213-Devere-Dr-20903/home/10564817,BRIGHT MLS,MDMC706356,N,Y,39.0206246,-76.9872352
PAST SALE,December-22-2020,Single Family Residential,2215 Hampshire Dr,Hyattsville,MD,20783,470000,3,3.0,HOLLY HILL FARM,1934,10301,1997,348,243,30,Sold,,,https://www.redfin.com/MD/Hyattsville/2215-Hampshire-Dr-20783/home/11087553,BRIGHT MLS,MDPG587166,N,Y,39.0137483,-76.9741606
PAST SALE,November-15-2021,Townhouse,8723 Carroll Ave,Silver Spring,MD,20903,285000,3,2.5,NEW HAMPSHIRE ESTS,1878,5097,1958,20,152,,Sold,,,https://www.redfin.com/MD/Silver-Spring/8723-Carroll-Ave-20903/home/10992483,BRIGHT MLS,MDMC2019578,N,Y,38.9981183,-76.991195
PAST SALE,August-13-2021,Single Family Residential,10510 Greenacres Dr,Silver Spring,MD,20903,750000,4,4.0,HILLANDALE,2731,34064,1941,114,275,,Sold,,,https://www.redfin.com/MD/Silver-Spring/10510-Greenacres-Dr-20903/home/10559484,BRIGHT MLS,MDMC758782,N,Y,39.029046,-76.977065
PAST SALE,September-30-2021,Single Family Residential,2136 Edgewater Pkwy,Silver Spring,MD,20903,650000,4,3.0,HILLANDALE,2722,12685,1966,66,239,,Sold,,,https://www.redfin.com/MD/Silver-Spring/2136-Edgewater-Pkwy-20903/home/10559427,BRIGHT MLS,MDMC2011456,N,Y,39.0295046,-76.9683791
PAST SALE,November-5-2021,Single Family Residential,902 W Nolcrest Dr,Silver Spring,MD,20903,595000,4,2.5,COLESVILLE OUTSIDE,1840,17335,1968,30,323,,Sold,,,https://www.redfin.com/MD/Silver-Spring/902-W-Nolcrest-Dr-20903/home/10555330,BRIGHT MLS,MDMC2015814,N,Y,39.0285716,-76.991285
PAST SALE,,Single Family Residential,2208 Muskogee St,Adelphi,MD,20783,360000,,2.5,,1694,19428,1962,,213,,,,,https://www.redfin.com/MD/Adelphi/2208-Muskogee-St-20783/home/11079794,,,N,Y,39.0176852,-76.9685482
PAST SALE,May-3-2019,Townhouse,8740 Carroll Ave Unit D-1,Silver Spring,MD,20903,213000,4,2.0,GOLDEN TERRACE,1008,,1958,947,211,,Sold,,,https://www.redfin.com/MD/Silver-Spring/8740-Carroll-Ave-20903/unit-D-1/home/11098782,BRIGHT MLS,MDMC624814,N,Y,38.9991117,-76.9912366
PAST SALE,November-25-2019,Single Family Residential,8107 Hammond Ave,Takoma Park,MD,20912,339000,4,2.0,TAKOMA PARK,2116,6000,1950,741,160,,Sold,,,https://www.redfin.com/MD/Takoma-Park/8107-Hammond-Ave-20912/home/11145704,BRIGHT MLS,MDMC680622,N,Y,38.99112,-76.990953
PAST SALE,October-5-2021,Single Family Residential,1014 Robroy Dr,Silver Spring,MD,20903,588500,3,2.5,HILLANDALE HEIGHTS,2360,9005,1960,61,249,,Sold,,,https://www.redfin.com/MD/Silver-Spring/1014-Robroy-Dr-20903/home/10564982,BRIGHT MLS,MDMC2015460,N,Y,39.022926,-76.9891701
