SALE TYPE,SOLD DATE,PROPERTY TYPE,ADDRESS,CITY,STATE OR PROVINCE,ZIP OR POSTAL CODE,PRICE,BEDS,BATHS,LOCATION,SQUARE FEET,LOT SIZE,YEAR BUILT,DAYS ON MARKET,$/SQUARE FEET,HOA/MONTH,STATUS,NEXT OPEN HOUSE START TIME,NEXT OPEN HOUSE END TIME,URL (SEE https://www.redfin.com/buy-a-home/comparative-market-analysis FOR INFO ON PRICING),SOURCE,MLS#,FAVORITE,INTERESTED,LATITUDE,LONGITUDE
MLS Listing,,Single Family Residential,162 Four Andrews Dr #50,Harmony,NC,28634,221240,4,3.0,Rock Gate Estates,1812,27312,2022,2,122,,Active,,,https://www.redfin.com/NC/Harmony/162-4-Andrews-Dr-28634/unit-50/home/171853943,CANOPYMLS,3810593,N,Y,35.9071296,-80.7676264
MLS Listing,,Single Family Residential,168 Four Andrews Dr #49,Harmony,NC,28634,226490,4,2.5,Rock Gate Estates,2009,27312,2022,2,113,,Active,,,https://www.redfin.com/NC/Harmony/168-4-Andrews-Dr-28634/unit-49/home/171853991,CANOPYMLS,3810885,N,Y,35.9070569,-80.7680562
MLS Listing,,Single Family Residential,180 Jo Creek Dr #47,Harmony,NC,28634,223490,4,3.0,Rock Gate Estates,1812,30361,2022,2,123,,Active,,,https://www.redfin.com/NC/Harmony/180-Jo-Creek-Ln-28634/unit-47/home/177488254,CANOPYMLS,3810884,N,Y,35.905344,-80.7681971
MLS Listing,,Single Family Residential,174 Four Andrews Dr #48,Harmony,NC,28634,213740,3,2.5,Rock Gate Estates,1606,27312,2022,2,133,,Active,,,https://www.redfin.com/NC/Harmony/174-4-Andrews-Dr-28634/unit-48/home/171854313,CANOPYMLS,3810880,N,Y,35.9069843,-80.768486
MLS Listing,,Single Family Residential,181 Four Andrews Dr #44,Harmony,NC,28634,215490,3,2.5,Rock Gate Estates,1606,52097,2022,2,134,,Active,,,https://www.redfin.com/NC/Harmony/181-4-Andrews-Dr-28634/unit-44/home/171918463,CANOPYMLS,3810878,N,Y,35.9059962,-80.7692322
MLS Listing,,Vacant Land,TBD Cranfill Rd,Harmony,NC,28634,150000,,,Harmony,,673437,,6,,,Active,,,https://www.redfin.com/NC/Harmony/258-Cranfill-Rd-28634/home/44323849,CANOPYMLS,3809456,N,Y,35.9339545,-80.7548928
MLS Listing,,Single Family Residential,444 Cranfill Rd,Harmony,NC,28634,240000,2,1.0,Harmony,756,727452,1948,6,317,,Active,,,https://www.redfin.com/NC/Harmony/444-Cranfill-Rd-28634/home/44325758,CANOPYMLS,3809437,N,Y,35.9437886,-80.7605533
MLS Listing,,Single Family Residential,563 Houstonville Rd W,Hamptonville,NC,27020,179900,3,2.0,Hamptonville,1288,152460,1997,7,140,,Active,,,https://www.redfin.com/NC/Hamptonville/563-Houstonville-Rd-W-27020/home/44373468,CANOPYMLS,3809269,N,Y,35.99941,-80.798088
MLS Listing,,Single Family Residential,142 Jo Creek Dr #31,Harmony,NC,28634,221990,4,3.0,Rock Gate Estates,1812,26571,2022,16,123,,Active,,,https://www.redfin.com/NC/Harmony/142-Jo-Creek-Ln-28634/unit-31/home/171919375,CANOPYMLS,3806987,N,Y,35.9058087,-80.7679185
MLS Listing,,Single Family Residential,130 Jo Creek Dr #33,Harmony,NC,28634,213690,3,2.5,Rock Gate Estates,1606,26005,2022,16,133,,Active,,,https://www.redfin.com/NC/Harmony/130-Jo-Creek-Ln-28634/unit-33/home/171850209,CANOPYMLS,3806995,N,Y,35.9059633,-80.7670567
MLS Listing,,Single Family Residential,175 Four Andrews Dr #43,Harmony,NC,28634,222990,4,3.0,Rock Gate Estates,1812,27617,2022,16,123,,Active,,,https://www.redfin.com/NC/Harmony/175-4-Andrews-Dr-28634/unit-43/home/171918809,CANOPYMLS,3807670,N,Y,35.9062913,-80.7684264
MLS Listing,,Single Family Residential,151 Jo Creek Dr #27,Harmony,NC,28634,229990,4,2.5,Rock Gate Estates,2009,30491,2022,16,114,,Active,,,https://www.redfin.com/NC/Harmony/151-Jo-Creek-Ln-28634/unit-27/home/177278595,CANOPYMLS,3807689,N,Y,35.904904,-80.7691235
MLS Listing,,Single Family Residential,118 Anderson Acres Dr #23,Harmony,NC,28634,214990,4,3.0,Rock Gate Estates,1812,26745,2022,16,119,,Active,,,https://www.redfin.com/NC/Harmony/118-Anderson-Acres-Dr-28634/unit-23/home/171850217,CANOPYMLS,3807653,N,Y,35.9041094,-80.7676167
MLS Listing,,Single Family Residential,123 Zach Dr #12,Harmony,NC,28634,206240,3,2.5,Rock Gate Estates,1606,26005,2022,16,128,,Active,,,https://www.redfin.com/NC/Harmony/123-Zach-Dr-28634/unit-12/home/171919907,CANOPYMLS,3806981,N,Y,35.9044963,-80.7652869
MLS Listing,,Single Family Residential,152 Jo Creek Dr #28,Harmony,NC,28634,217990,4,3.0,Rock Gate Estates,1812,55800,2022,16,120,,Active,,,https://www.redfin.com/NC/Harmony/152-Jo-Creek-Ln-28634/unit-28/home/171919516,CANOPYMLS,3807668,N,Y,35.9052119,-80.7692926
MLS Listing,,Single Family Residential,125 Zach Dr #13,Harmony,NC,28634,214990,4,3.0,Rock Gate Estates,1812,31885,2022,16,119,,Active,,,https://www.redfin.com/NC/Harmony/125-Zach-Dr-28634/unit-13/home/171919908,CANOPYMLS,3807651,N,Y,35.9041543,-80.7655093
MLS Listing,,Single Family Residential,148 Jo Creek Dr #30,Harmony,NC,28634,213490,3,2.5,Rock Gate Estates,1606,27181,2022,16,133,,Active,,,https://www.redfin.com/NC/Harmony/148-Jo-Creek-Ln-28634/unit-30/home/177278594,CANOPYMLS,3807677,N,Y,35.90576,-80.7683557
MLS Listing,,Single Family Residential,3406 Harmony Hwy,Harmony,NC,28634,259900,4,2.5,Harmony,2567,85813,1930,16,101,,Active,,,https://www.redfin.com/NC/Harmony/3406-Harmony-Hwy-28634/home/44573127,CANOPYMLS,3807571,N,Y,35.960274,-80.7712561
MLS Listing,,Mobile/Manufactured Home,154 Turkey Foot Rd,Harmony,NC,28634,139900,3,3.0,,,,1999,23,,,Active,,,https://www.redfin.com/NC/Harmony/154-Turkey-Foot-Rd-28634/home/44355891,Triad MLS,1049052,N,Y,35.9991918,-80.703877
MLS Listing,,Single Family Residential,1592 County Line Rd,Harmony,NC,28634,450000,3,2.0,,,,1970,65,,,Active,,,https://www.redfin.com/NC/Harmony/1592-County-Line-Rd-28634/home/94743317,Triad MLS,1044477,N,Y,35.9544752,-80.6895193
MLS Listing,,Vacant Land,000 E Memorial Hwy,Harmony,NC,28634,149000,,,Harmony,,313632,,93,,,Active,,,https://www.redfin.com/NC/Harmony/3223-Harmony-Hwy-28634/home/176653049,CANOPYMLS,3782773,N,Y,35.9496883,-80.7732975
MLS Listing,,Vacant Land,147 Jo Creek Dr,Harmony,NC,28634,10000,,,Rock Gate Estates,,21344,,97,,,Active,,,https://www.redfin.com/NC/Harmony/147-Jo-Creek-Ln-28634/home/163252479,CANOPYMLS,3780908,N,Y,35.9050497,-80.7680915
MLS Listing,,Single Family Residential,141 Allen Rd,Harmony,NC,28634,290000,3,2.0,Harmony,3241,371131,1900,111,89,,Active,,,https://www.redfin.com/NC/Harmony/141-Allen-Rd-28634/home/44325353,CANOPYMLS,3774387,N,Y,35.9845333,-80.7977358
MLS Listing,,Ranch,00 Rock Springs Rd,Harmony,NC,28634,476045,,,Harmony,,,,254,,,Active,,,https://www.redfin.com/NC/HARMONY/ROCK-SPRINGS-RD-28634/home/44348782,Triad MLS,1017523,N,Y,35.981833,-80.704287
MLS Listing,,Single Family Residential,Lot 25 Rock Springs Rd,Harmony,NC,28634,22500,,,Harmony,,,,254,,,Active,,,https://www.redfin.com/NC/Harmony/25-Rock-Springs-Rd-28634/unit-Rock-Springs/home/174783851,Triad MLS,1017510,N,Y,35.9654086,-80.7108012
