SALE TYPE,SOLD DATE,PROPERTY TYPE,ADDRESS,CITY,STATE OR PROVINCE,ZIP OR POSTAL CODE,PRICE,BEDS,BATHS,LOCATION,SQUARE FEET,LOT SIZE,YEAR BUILT,DAYS ON MARKET,$/SQUARE FEET,HOA/MONTH,STATUS,NEXT OPEN HOUSE START TIME,NEXT OPEN HOUSE END TIME,URL (SEE https://www.redfin.com/buy-a-home/comparative-market-analysis FOR INFO ON PRICING),SOURCE,MLS#,FAVORITE,INTERESTED,LATITUDE,LONGITUDE
MLS Listing,,Single Family Residential,8623 Hawkins Creamery Rd,Gaithersburg,MD,20882,495000,5,3.0,HICKORY RIDGE,2160,26269,1966,30,229,,Active,,,https://www.redfin.com/MD/Gaithersburg/8623-Hawkins-Creamery-Rd-20882/home/10929457,BRIGHT MLS,MDMC2009622,N,Y,39.2664343,-77.1770714
PAST SALE,October-27-2021,Single Family Residential,20910 Lochaven Ct,Gaithersburg,MD,20882,735000,4,3.0,GOSHEN ESTATES,2930,54133,1973,39,251,,Sold,,,https://www.redfin.com/MD/Gaithersburg/20910-Lochaven-Ct-20882/home/10483860,BRIGHT MLS,MDMC2016804,N,Y,39.1990101,-77.1800367
PAST SALE,June-28-2019,Single Family Residential,21031 Woodfield Rd,Gaithersburg,MD,20882,460000,5,3.0,BURNHAM HILLS,2727,50929,1956,891,169,,Sold,,,https://www.redfin.com/MD/Gaithersburg/21031-Woodfield-Rd-20882/home/10483161,BRIGHT MLS,MDMC653584,N,Y,39.201879,-77.158561
PAST SALE,August-31-2020,Single Family Residential,7304 Rosewood Manor Ln,Gaithersburg,MD,20882,555000,4,2.5,ROSEWOOD ESTATES,2708,42659,1991,461,205,35,Sold,,,https://www.redfin.com/MD/Gaithersburg/7304-Rosewood-Manor-Ln-20882/home/10488340,BRIGHT MLS,MDMC716540,N,Y,39.1912506,-77.1464941
PAST SALE,January-5-2021,Single Family Residential,23831 Log House Rd,Gaithersburg,MD,20882,595000,4,3.5,DAMASCUS OUTSIDE,3858,32670,1989,334,154,,Sold,,,https://www.redfin.com/MD/Gaithersburg/23831-Log-House-Rd-20882/home/10937333,BRIGHT MLS,MDMC732864,N,Y,39.2482831,-77.2024531
PAST SALE,March-20-2019,Single Family Residential,9836 Mainsail Dr,Gaithersburg,MD,20879,490000,5,3.5,GOSHEN ESTATES,3378,13061,1987,991,145,19,Sold,,,https://www.redfin.com/MD/Gaithersburg/9836-Mainsail-Dr-20879/home/10838719,BRIGHT MLS,MDMC547368,N,Y,39.1928842,-77.204699
PAST SALE,May-22-2020,Single Family Residential,8112 Whirlwind Ct,Laytonsville,MD,20882,560000,4,2.5,GOSHEN ESTATES,3328,71386,1978,562,168,,Sold,,,https://www.redfin.com/MD/Gaithersburg/8112-Whirlwind-Ct-20882/home/10484082,BRIGHT MLS,MDMC703996,N,Y,39.1915331,-77.1674565
PAST SALE,,Single Family Residential,21041 Goshen Rd,Gaithersburg,MD,20882,573000,,3.0,,2824,61024,1974,,203,,,,,https://www.redfin.com/MD/Gaithersburg/21041-Goshen-Rd-20882/home/10484037,,,N,Y,39.202128,-77.1839902
PAST SALE,February-6-2020,Single Family Residential,10100 Nightingale St,Gaithersburg,MD,20882,480000,4,2.5,SWEEPSTAKES PARK,2352,23028,1986,668,204,,Sold,,,https://www.redfin.com/MD/Gaithersburg/10100-Nightingale-St-20882/home/10938435,BRIGHT MLS,MDMC691232,N,Y,39.256835,-77.2083661
PAST SALE,May-5-2021,Single Family Residential,9804 Mainsail Dr,Gaithersburg,MD,20879,614000,5,3.0,GOSHEN ESTATES,3174,12816,1986,214,193,19,Sold,,,https://www.redfin.com/MD/Gaithersburg/9804-Mainsail-Dr-20879/home/10838780,BRIGHT MLS,MDMC745754,N,Y,39.1927493,-77.2020488
PAST SALE,April-3-2020,Single Family Residential,21509 Quick Fox Ln,Gaithersburg,MD,20882,680000,5,3.5,OVERLOOK HILLS,4568,87120,1993,611,149,,Sold,,,https://www.redfin.com/MD/Gaithersburg/21509-Quick-Fox-Ln-20882/home/10488645,BRIGHT MLS,MDMC696320,N,Y,39.2068931,-77.2000499
PAST SALE,June-30-2021,Single Family Residential,8620 Stableview Ct,Gaithersburg,MD,20882,1150000,4,5.5,GOSHEN HUNT HILLS,5768,91040,1986,158,199,,Sold,,,https://www.redfin.com/MD/Gaithersburg/8620-Stableview-Ct-20882/home/10485547,BRIGHT MLS,MDMC754880,N,Y,39.2112314,-77.1789135
PAST SALE,April-8-2020,Single Family Residential,8704 Woodfield Ct,Gaithersburg,MD,20882,530000,4,2.5,HICKORY RIDGE,3056,27225,1973,606,173,,Sold,,,https://www.redfin.com/MD/Gaithersburg/8704-Woodfield-Ct-20882/home/10931013,BRIGHT MLS,MDMC699374,N,Y,39.2686185,-77.1783886
PAST SALE,June-30-2021,Single Family Residential,8316 Plum Creek Dr,Gaithersburg,MD,20882,1175000,6,6.0,GOSHEN ESTATES,6692,93654,2005,158,176,,Sold,,,https://www.redfin.com/MD/Gaithersburg/8316-Plum-Creek-Dr-20882/home/10489616,BRIGHT MLS,MDMC756664,N,Y,39.1926908,-77.1708488
PAST SALE,July-12-2021,Single Family Residential,9204 Heather Field Ct,Laytonsville,MD,20882,770000,4,3.5,SENECA SPRINGS,4679,28836,2002,146,165,39,Sold,,,https://www.redfin.com/MD/Laytonsville/9204-Heather-Field-Ct-20882/home/11170267,BRIGHT MLS,MDMC757702,N,Y,39.2724404,-77.188229
PAST SALE,,Single Family Residential,24318 Club View Dr,Damascus,MD,20872,431000,,3.5,,3720,17164,1983,,116,,,,,https://www.redfin.com/MD/Damascus/24318-Club-View-Dr-20872/home/10937624,,,N,Y,39.25595,-77.2056872
PAST SALE,January-10-2020,Single Family Residential,8620 Hawkins Creamery Rd,Gaithersburg,MD,20882,519000,4,3.0,DAMASCUS OUTSIDE,2514,22215,1975,695,206,,Sold,,,https://www.redfin.com/MD/Gaithersburg/8620-Hawkins-Creamery-Rd-20882/home/10929285,BRIGHT MLS,MDMC688122,N,Y,39.266088,-77.177915
PAST SALE,July-26-2019,Single Family Residential,20307 Rosethorn Ave,Gaithersburg,MD,20882,652000,4,3.5,ROSEWOOD ESTATES,3592,82286,1995,863,182,,Sold,,,https://www.redfin.com/MD/Gaithersburg/20307-Rosethorn-Ave-20882/home/10488609,BRIGHT MLS,MDMC656612,N,Y,39.189067,-77.1496623
PAST SALE,,Single Family Residential,20505 Addenbrook Way,Gaithersburg,MD,20879,690000,,4.5,,5181,9433,1993,,133,,,,,https://www.redfin.com/MD/Gaithersburg/20505-Addenbrook-Way-20879/home/10489347,,,N,Y,39.1921055,-77.1570095
PAST SALE,November-29-2019,Single Family Residential,8610 Lochaven Dr,Gaithersburg,MD,20882,605000,4,3.5,GOSHEN ESTATES,4500,53933,1977,737,134,,Sold,,,https://www.redfin.com/MD/Gaithersburg/8610-Lochaven-Dr-20882/home/10483913,BRIGHT MLS,MDMC100351,N,Y,39.1971588,-77.1779476
PAST SALE,October-26-2020,Townhouse,9511 White Pillar Ter,Gaithersburg,MD,20882,314900,3,1.5,THE PLANTATIONS,1680,2790,1988,405,187,92,Sold,,,https://www.redfin.com/MD/Gaithersburg/9511-White-Pillar-Ter-20882/home/10942005,BRIGHT MLS,MDMC721988,N,Y,39.248283,-77.1959061
PAST SALE,June-18-2021,Single Family Residential,24105 Log House Rd,Gaithersburg,MD,20882,460000,4,2.5,THE PLANTATIONS,1868,8346,1979,170,246,14,Sold,,,https://www.redfin.com/MD/Gaithersburg/24105-Log-House-Rd-20882/home/10935593,BRIGHT MLS,MDMC760448,N,Y,39.2513278,-77.2021836
PAST SALE,January-26-2021,Single Family Residential,8348 Hawkins Creamery Rd,Gaithersburg,MD,20882,480000,3,3.0,UPPER SENECA CREST,1692,21661,1964,313,284,,Sold,,,https://www.redfin.com/MD/Gaithersburg/8348-Hawkins-Creamery-Rd-20882/home/10934246,BRIGHT MLS,MDMC737126,N,Y,39.260264,-77.1691639
PAST SALE,April-13-2020,Single Family Residential,7810 Warfield Rd,Gaithersburg,MD,20886,845000,6,6.5,GOSHEN ESTATES,7529,79930,1987,601,112,,Sold,,,https://www.redfin.com/MD/Gaithersburg/7810-Warfield-Rd-20882/home/10485398,BRIGHT MLS,MDMC693060,N,Y,39.1936752,-77.1596157
PAST SALE,November-3-2021,Single Family Residential,25520 Jonnie Ct,Gaithersburg,MD,20882,530000,4,3.0,DAMASCUS OUTSIDE,1795,31284,1971,32,295,,Sold,,,https://www.redfin.com/MD/Gaithersburg/25520-Jonnie-Ct-20882/home/10930109,BRIGHT MLS,MDMC2005502,N,Y,39.2770091,-77.170422
PAST SALE,June-30-2021,Single Family Residential,9824 Mainsail Dr,Gaithersburg,MD,20879,620000,5,3.5,GOSHEN ESTATES,3718,15476,1987,158,167,19,Sold,,,https://www.redfin.com/MD/Gaithersburg/9824-Mainsail-Dr-20879/home/10838800,BRIGHT MLS,MDMC759854,N,Y,39.193169,-77.2036659
PAST SALE,,Single Family Residential,23623 Rolling Fork Way,Gaithersburg,MD,20882,510000,,3.0,,3002,12536,1987,,170,,,,,https://www.redfin.com/MD/Gaithersburg/23623-Rolling-Fork-Way-20882/home/10942222,,,N,Y,39.2449923,-77.1954905
MLS Listing,,Single Family Residential,8617 Augusta Farm Ln,Gaithersburg,MD,20882,1025000,5,4.5,GREENHILLS FARM,6302,95832,2003,2,163,125,Active,December-5-2021 02:00 PM,December-5-2021 04:00 PM,https://www.redfin.com/MD/Laytonsville/8617-Augusta-Farm-Ln-20882/home/11172123,BRIGHT MLS,MDMC2025640,N,Y,39.2190767,-77.1794077
MLS Listing,,Single Family Residential,9220 Clematis Ct,Gaithersburg,MD,20882,860000,5,4.5,WOODFIELD ESTATES,4094,77643,1994,2,210,21,Active,,,https://www.redfin.com/MD/Gaithersburg/9220-Clematis-Ct-20882/home/10944467,BRIGHT MLS,MDMC2024356,N,Y,39.252028,-77.18543
MLS Listing,,Single Family Residential,9734 Wightman Rd,Gaithersburg,MD,20879,599900,5,3.0,GOSHEN ESTATES,2237,55699,1976,3,268,,Active,,,https://www.redfin.com/MD/Gaithersburg/9734-Wightman-Rd-20879/home/10775300,BRIGHT MLS,MDMC2024412,N,Y,39.197458,-77.201533
MLS Listing,,Single Family Residential,4300 Sundown Rd,Gaithersburg,MD,20882,539900,4,3.0,LAYTONSVILLE OUTSIDE,2520,50094,1957,34,214,,Active,,,https://www.redfin.com/MD/Gaithersburg/4300-Sundown-Rd-20882/home/10483315,BRIGHT MLS,MDMC2001399,N,Y,39.221517,-77.0859227
MLS Listing,,Vacant Land,20325 Wiley Ct,Gaithersburg,MD,20882,350000,,,LAYTONSVILLE OUTSIDE,,46762,,38,,155,Active,,,https://www.redfin.com/MD/Gaithersburg/20325-Wiley-Ct-20882/home/28463056,BRIGHT MLS,MDMC2021264,N,Y,39.1959482,-77.129714
MLS Listing,,Vacant Land,21704 Woodfield Rd,Gaithersburg,MD,20882,1050000,,,GOSHEN HUNT HILLS,,422096,,44,,,Active,,,https://www.redfin.com/MD/Gaithersburg/21704-Woodfield-Rd-20882/home/165941729,BRIGHT MLS,MDMC2020476,N,Y,39.2111885,-77.173838
MLS Listing,,Vacant Land,8215 Bondage Dr,Gaithersburg,MD,20882,124990,,,GOSHEN ESTATES,,283140,,60,,,Active,,,https://www.redfin.com/MD/Gaithersburg/8215-Bondage-Dr-20882/home/177159449,BRIGHT MLS,MDMC2018900,N,Y,39.2015044,-77.1724283
MLS Listing,,Vacant Land,5901 Sundown Rd,Laytonsville,MD,20882,650000,,,FAIRHILL,,819799,,63,,,Active,,,https://www.redfin.com/MD/Laytonsville/5901-Sundown-Rd-20882/home/143774624,BRIGHT MLS,MDMC2019182,N,Y,39.216575,-77.11765
MLS Listing,,Single Family Residential,23307 Woodfield Rd,Gaithersburg,MD,20882,850000,4,4.0,DAMASCUS OUTSIDE,4340,133729,1990,66,196,,Active,,,https://www.redfin.com/MD/Gaithersburg/23307-Woodfield-Rd-20882/home/10944173,BRIGHT MLS,MDMC2018424,N,Y,39.2402108,-77.1808903
MLS Listing,,Single Family Residential,7304 Rocky Rd,Gaithersburg,MD,20882,715900,3,2.0,LAYTONSVILLE OUTSIDE,1967,147233,2022,102,364,,Active,,,https://www.redfin.com/MD/Gaithersburg/7304-Rocky-Rd-20882/home/10483944,BRIGHT MLS,MDMC2013074,N,Y,39.229596,-77.151182
MLS Listing,,Single Family Residential,6808 Sunset Dr,Gaithersburg,MD,20882,625000,4,3.0,LAYTONSVILLE TOWN,2675,45302,1977,124,234,,Active,,,https://www.redfin.com/MD/Gaithersburg/6808-Sunset-Dr-20882/home/10483990,BRIGHT MLS,MDMC2005578,N,Y,39.2098654,-77.1397023
MLS Listing,,Vacant Land,21020 Layton Ridge Dr. Layton Ridge Dr,Gaithersburg,MD,20882,1150000,,,LAYTONSVILLE OUTSIDE,,2119630,,141,,,Active,,,https://www.redfin.com/MD/Gaithersburg/21020-Layton-Ridge-Dr-20882/home/10487055,BRIGHT MLS,MDMC2005852,N,Y,39.2019911,-77.1515879
MLS Listing,,Vacant Land,8218 Seneca View Dr,Gaithersburg,MD,20882,1200000,,,DAMASCUS OUTSIDE,,969210,,150,,,Active,,,https://www.redfin.com/MD/Gaithersburg/8218-Seneca-View-Dr-20882/home/175618315,BRIGHT MLS,MDMC2002832,N,Y,39.2648069,-77.1691506
MLS Listing,,Single Family Residential,7231 Annapolis Rock Rd,Damascus,MD,20872,950000,5,4.5,LAYTONSVILLE OUTSIDE,5135,202118,2021,170,185,,Active,,,https://www.redfin.com/MD/Damascus/7231-Annapolis-Rock-Rd-20872/home/169560827,BRIGHT MLS,MDMC2001238,N,Y,39.2728572,-77.1492072
MLS Listing,,Vacant Land,20309 Wiley Ct,Laytonsville,MD,20882,299900,,,LAYTONSVILLE OUTSIDE,,46586,,352,,155,Active,,,https://www.redfin.com/MD/Laytonsville/20309-Wiley-Ct-20882/home/113865269,BRIGHT MLS,MDMC738614,N,Y,39.195225,-77.127912
MLS Listing,,Single Family Residential,21620 Laytonsville Rd,Gaithersburg,MD,20882,945700,4,2.5,LAYTONSVILLE PRESERVE,2625,81234,2021,386,360,71,Active,,,https://www.redfin.com/MD/Gaithersburg/21620-Laytonsville-Rd-20882/home/85694483,BRIGHT MLS,MDMC735276,N,Y,39.2111266,-77.1433188
MLS Listing,,Vacant Land,Zion,Brookeville,MD,20833,75000,,,OLNEY OUT RES (2),,21780,,453,,,Active,,,https://www.redfin.com/MD/BROOKEVILLE/ZION-RD-20833/home/10487115,BRIGHT MLS,MDMC724772,N,Y,39.216759,-77.08966
MLS Listing,,Vacant Land,24200 Hilton Pl,Gaithersburg,MD,20882,150000,,,UPPER SENECA CREST,,47367,,719,,,Active,,,https://www.redfin.com/MD/Gaithersburg/24200-Hilton-Pl-20882/home/10934146,BRIGHT MLS,MDMC689980,N,Y,39.253979,-77.164244
PAST SALE,November-15-2019,Single Family Residential,9706 Hickory Spring Ln,Gaithersburg,MD,20882,485000,4,3.5,THE PLANTATIONS,3128,10528,2000,751,155,32,Sold,,,https://www.redfin.com/MD/Gaithersburg/9706-Hickory-Spring-Ln-20882/home/10945070,BRIGHT MLS,MDMC670532,N,Y,39.2540949,-77.1999601
PAST SALE,April-16-2021,Single Family Residential,21917 Foxlair Rd,Gaithersburg,MD,20882,640000,5,2.5,FOXLAIR ACRES,2352,70735,1978,233,272,,Sold,,,https://www.redfin.com/MD/Gaithersburg/21917-Foxlair-Rd-20882/home/10484017,BRIGHT MLS,MDMC747210,N,Y,39.216562,-77.1935094
PAST SALE,,Single Family Residential,24208 Clematis Dr,Gaithersburg,MD,20882,100000,3,0.5,,1428,218236,1980,,70,,,,,https://www.redfin.com/MD/Gaithersburg/24208-Clematis-Dr-20882/home/138941680,,,N,Y,39.2533236,-77.1828221
PAST SALE,October-14-2020,Townhouse,2 Tobacco Leaf Ct,Gaithersburg,MD,20882,306000,3,2.5,THE PLANTATIONS,1510,3200,1985,417,203,20,Sold,,,https://www.redfin.com/MD/Gaithersburg/2-Tobacco-Leaf-Ct-20882/home/10940335,BRIGHT MLS,MDMC725002,N,Y,39.2563522,-77.2095106
PAST SALE,July-30-2019,Single Family Residential,9700 Hawkins Creamery Rd,Laytonsville,MD,20882,785000,4,4.5,COUNTY VIEW,8198,137214,2004,859,96,29,Sold,,,https://www.redfin.com/MD/Gaithersburg/9700-Hawkins-Creamery-Rd-20882/home/11201358,BRIGHT MLS,MDMC622484,N,Y,39.2689787,-77.2004318
PAST SALE,November-22-2021,Single Family Residential,25504 Jarl Dr,Gaithersburg,MD,20882,490000,5,3.5,DAMASCUS OUTSIDE,2879,22958,1967,13,170,,Sold,,,https://www.redfin.com/MD/Gaithersburg/25504-Jarl-Dr-20882/home/10928977,BRIGHT MLS,MDMC2013146,N,Y,39.2751872,-77.1687595
PAST SALE,June-29-2021,Single Family Residential,23304 Wilderness Walk Ct,Damascus,MD,20882,850000,4,3.5,DAMASCUS OUTSIDE,4100,104980,1987,159,207,,Sold,,,https://www.redfin.com/MD/Gaithersburg/23304-Wilderness-Walk-Ct-20882/home/10936677,BRIGHT MLS,MDMC756130,N,Y,39.2390238,-77.2060914
PAST SALE,September-23-2019,Single Family Residential,8233 Hawkins Creamery Rd,Gaithersburg,MD,20882,430000,5,4.5,DAMASCUS OUTSIDE,3185,122404,1971,804,135,,Sold,,,https://www.redfin.com/MD/Gaithersburg/8233-Hawkins-Creamery-Rd-20882/home/10929216,BRIGHT MLS,MDMC650534,N,Y,39.254692,-77.167942
PAST SALE,April-28-2021,Townhouse,9514 Melrose Square Way,Gaithersburg,MD,20882,400000,3,3.0,THE PLANTATIONS,1928,2790,1987,221,207,93,Sold,,,https://www.redfin.com/MD/Gaithersburg/9514-Melrose-Square-Way-20882/home/10941113,BRIGHT MLS,MDMC747124,N,Y,39.249585,-77.196927
PAST SALE,,Single Family Residential,8232 Hilton Rd,Gaithersburg,MD,20882,455000,,3.0,,1932,28577,1972,,236,,,,,https://www.redfin.com/MD/Gaithersburg/8232-Hilton-Rd-20882/home/10934104,,,N,Y,39.258512,-77.170837
PAST SALE,March-15-2019,Single Family Residential,20801 Fairway View Dr,Laytonsville,MD,20882,810000,6,6.0,GOLF ESTATES,6632,104544,2004,996,122,127,Sold,,,https://www.redfin.com/MD/Laytonsville/20801-Fairway-View-Dr-20882/home/11172188,BRIGHT MLS,MDMC151760,N,Y,39.1967875,-77.1274952
PAST SALE,May-28-2021,Single Family Residential,9136 Goshen Valley Dr,Laytonsville,MD,20882,965000,5,4.5,GREENHILLS FARM,5917,87120,1991,191,163,,Sold,,,https://www.redfin.com/MD/Gaithersburg/9136-Goshen-Valley-Dr-20882/home/10488139,BRIGHT MLS,MDMC751656,N,Y,39.217354,-77.187118
PAST SALE,,Single Family Residential,8405 Hawkins Creamery Rd,Gaithersburg,MD,20882,445000,,2.0,,1954,25300,1965,,228,,,,,https://www.redfin.com/MD/Gaithersburg/8405-Hawkins-Creamery-Rd-20882/home/10933176,,,N,Y,39.26324,-77.1729381
PAST SALE,December-27-2019,Single Family Residential,21525 Quick Fox Ln,Gaithersburg,MD,20882,549500,4,3.5,OVERLOOK HILLS,4821,137650,1993,709,114,,Sold,,,https://www.redfin.com/MD/Gaithersburg/21525-Quick-Fox-Ln-20882/home/10488636,BRIGHT MLS,MDMC679590,N,Y,39.2084039,-77.1990842
PAST SALE,March-23-2020,Single Family Residential,22301 Rolling Hill Ln,Gaithersburg,MD,20882,779000,4,3.5,BROOK HOLLOW,4443,440392,2000,622,175,,Sold,,,https://www.redfin.com/MD/Gaithersburg/22301-Rolling-Hill-Ln-20882/home/10484860,BRIGHT MLS,MDMC695536,N,Y,39.222527,-77.125645
PAST SALE,October-29-2021,Single Family Residential,24908 Woodfield School Rd,Gaithersburg,MD,20882,605000,5,3.0,DAMASCUS OUTSIDE,2956,94961,1970,37,205,,Sold,,,https://www.redfin.com/MD/Gaithersburg/24908-Woodfield-School-Rd-20882/home/10929593,BRIGHT MLS,MDMC2016624,N,Y,39.2655498,-77.1814473
PAST SALE,July-14-2020,Single Family Residential,22428 Goshen School Rd,Gaithersburg,MD,20882,555000,5,4.0,WARD FARM ESTATES,2643,64032,1963,509,210,,Sold,,,https://www.redfin.com/MD/Gaithersburg/22428-Goshen-School-Rd-20882/home/10483741,BRIGHT MLS,MDMC706928,N,Y,39.2253526,-77.178015
PAST SALE,October-30-2019,Single Family Residential,25010 Johnson Farm Rd,Laytonsville,MD,20882,780000,4,5.0,DAMASCUS OUTSIDE,7858,41338,2004,767,99,89,Sold,,,https://www.redfin.com/MD/Laytonsville/25010-Johnson-Farm-Dr-20882/home/11193422,BRIGHT MLS,MDMC656098,N,Y,39.2659723,-77.1917171
PAST SALE,June-15-2021,Single Family Residential,9821 Watkins Rd,Gaithersburg,MD,20882,505000,4,2.0,DAMASCUS OUTSIDE,2795,43560,1961,173,181,,Sold,,,https://www.redfin.com/MD/Gaithersburg/9821-Watkins-Rd-20882/home/10932170,BRIGHT MLS,MDMC754900,N,Y,39.2336668,-77.2042498
PAST SALE,,Vacant Land,20820 Woodfield Rd,Gaithersburg,MD,20882,145000,,,,,226948,,,,,,,,https://www.redfin.com/MD/Gaithersburg/20820-Woodfield-Rd-20882/home/166250434,,,N,Y,39.1996287,-77.1577716
PAST SALE,June-5-2020,Single Family Residential,252 Barberry Ln,Laytonsville,MD,20882,987000,5,4.5,LAYTONSVILLE TOWN,,50379,2019,548,,50,Sold,,,https://www.redfin.com/MD/Laytonsville/252-Barberry-Ln-20882/home/148723713,BRIGHT MLS,MDMC690652,N,Y,39.2085497,-77.138071
PAST SALE,,Single Family Residential,10020 Sweepstakes Rd,Damascus,MD,20872,410000,,3.0,,2065,28897,1968,,199,,,,,https://www.redfin.com/MD/Damascus/10020-Sweepstakes-Rd-20872/home/10942272,,,N,Y,39.2600875,-77.2066304
PAST SALE,October-9-2020,Single Family Residential,24021 Pecan Grove Ln,Gaithersburg,MD,20882,519000,4,3.5,THE PLANTATIONS,2588,9093,1985,422,201,79,Sold,,,https://www.redfin.com/MD/Gaithersburg/24021-Pecan-Grove-Ln-20882/home/10940731,BRIGHT MLS,MDMC722536,N,Y,39.2517309,-77.1968382
PAST SALE,August-30-2019,Single Family Residential,20304 Rosemeadow Ct,Gaithersburg,MD,20882,570000,4,3.5,ROSEWOOD MANOR,4842,19320,1989,828,118,25,Sold,,,https://www.redfin.com/MD/Gaithersburg/20304-Rosemeadow-Ct-20882/home/10487476,BRIGHT MLS,MDMC672672,N,Y,39.1888135,-77.152044
PAST SALE,August-21-2020,Vacant Land,20812 Woodfield,Gaithersburg,MD,20882,150000,,,GOSHEN ESTATES,,111022,,471,,,Sold,,,https://www.redfin.com/MD/Gaithersburg/20812-Woodfield-Rd-20882/home/166091034,BRIGHT MLS,MDMC746480,N,Y,39.198243,-77.157161
PAST SALE,July-7-2020,Single Family Residential,9005 Magruder Knolls Ct,Gaithersburg,MD,20882,775000,5,4.5,DAMASCUS OUTSIDE,4936,87556,2005,516,157,140,Sold,,,https://www.redfin.com/MD/Gaithersburg/9005-Magruder-Knolls-Ct-20882/home/11201325,BRIGHT MLS,MDMC708762,N,Y,39.24368,-77.190331
PAST SALE,July-9-2021,Single Family Residential,24120 Doreen Dr,Gaithersburg,MD,20882,518000,3,3.0,DAMASCUS OUTSIDE,3002,47026,1963,149,173,,Sold,,,https://www.redfin.com/MD/Gaithersburg/24120-Doreen-Dr-20882/home/10931945,BRIGHT MLS,MDMC2004254,N,Y,39.2515058,-77.1942123
PAST SALE,October-29-2021,Single Family Residential,9200 Heather Fld,Laytonsville,MD,20882,925000,4,4.5,SENECA SPRINGS,6558,54580,2002,37,141,25,Sold,,,https://www.redfin.com/MD/Gaithersburg/9200-Heather-Field-Ct-20882/home/11170275,BRIGHT MLS,MDMC2015208,N,Y,39.2717591,-77.1884827
PAST SALE,June-25-2021,Single Family Residential,7309 Rosewood Manor Ln,Gaithersburg,MD,20882,630000,4,3.5,ROSEWOOD ESTATES,2218,46827,1992,163,284,39,Sold,,,https://www.redfin.com/MD/Gaithersburg/7309-Rosewood-Manor-Ln-20882/home/10488593,BRIGHT MLS,MDMC757536,N,Y,39.1924991,-77.1503364
PAST SALE,August-20-2020,Single Family Residential,8214 Hawkins Creamery Rd,Gaithersburg,MD,20882,445000,3,2.0,DAMASCUS OUTSIDE,1382,63005,1952,472,322,,Sold,,,https://www.redfin.com/MD/Gaithersburg/8214-Hawkins-Creamery-Rd-20882/home/10936464,BRIGHT MLS,MDMC710864,N,Y,39.2539009,-77.1699661
PAST SALE,September-20-2021,Single Family Residential,9220 Damascus Hills Ln,Damascus,MD,20872,475000,0,,SENECA SPRINGS,3272,423839,1951,76,145,,Sold,,,https://www.redfin.com/MD/Damascus/9220-Damascus-Hills-LN-20872/home/174289229,BRIGHT MLS,MDMC742232,N,Y,39.27662114,-77.18694812
PAST SALE,October-7-2019,Single Family Residential,8213 Bondage Dr,Gaithersburg,MD,20882,700000,4,2.5,GOSHEN ESTATES,3564,114998,1978,790,196,,Sold,,,https://www.redfin.com/MD/Gaithersburg/8213-Bondage-Dr-20882/home/10484315,BRIGHT MLS,MDMC100387,N,Y,39.2013294,-77.1700176
PAST SALE,September-23-2021,Single Family Residential,9431 Warfield Rd,Gaithersburg,MD,20882,535000,4,2.0,GOSHEN ESTATES,3013,62086,1966,73,178,,Sold,,,https://www.redfin.com/MD/Gaithersburg/9431-Warfield-Rd-20882/home/10483589,BRIGHT MLS,MDMC2009490,N,Y,39.1986114,-77.1947091
PAST SALE,October-22-2021,Single Family Residential,24021 Bush Hill Rd,Gaithersburg,MD,20882,429000,3,3.0,THE PLANTATIONS,1507,13092,1981,44,285,14,Sold,,,https://www.redfin.com/MD/Gaithersburg/24021-Bush-Hill-Rd-20882/home/10936522,BRIGHT MLS,MDMC748168,N,Y,39.2497354,-77.2011505
PAST SALE,December-26-2019,Single Family Residential,5900 Sundown Rd,Gaithersburg,MD,20882,1100000,4,5.5,FAIRHILL,8000,909097,1995,710,138,,Sold,,,https://www.redfin.com/MD/Gaithersburg/5900-Sundown-Rd-20882/home/147184087,BRIGHT MLS,1006209150,N,Y,39.214173,-77.115573
PAST SALE,October-15-2021,Single Family Residential,24109 Newbury Rd,Gaithersburg,MD,20882,420000,4,2.0,THE PLANTATIONS,1860,9000,1983,51,226,14,Sold,,,https://www.redfin.com/MD/Gaithersburg/24109-Newbury-Rd-20882/home/10939039,BRIGHT MLS,MDMC2015704,N,Y,39.2522219,-77.2074231
PAST SALE,October-28-2021,Single Family Residential,23804 Woodfield Rd,Gaithersburg,MD,20882,474900,3,2.5,DAMASCUS OUTSIDE,1920,20298,1900,38,247,,Sold,,,https://www.redfin.com/MD/Gaithersburg/23804-Woodfield-Rd-20882/home/10928954,BRIGHT MLS,MDMC2015144,N,Y,39.2469299,-77.1912701
PAST SALE,May-21-2021,Vacant Land,25108 Highland Manor Ct,Gaithersburg,MD,20882,239990,,,COUNTY VIEW,,46173,,198,,40,Sold,,,https://www.redfin.com/MD/Gaithersburg/25108-Highland-Manor-CT-20882/home/174690491,BRIGHT MLS,MDMC748094,N,Y,39.27002334,-77.20227367
PAST SALE,September-30-2020,Single Family Residential,7607 Augustine Way,Gaithersburg,MD,20879,598000,4,3.5,GOSHEN ESTATES,4201,10053,1994,431,142,50,Sold,,,https://www.redfin.com/MD/Gaithersburg/7607-Augustine-Way-20879/home/10489352,BRIGHT MLS,MDMC719210,N,Y,39.1920477,-77.156313
PAST SALE,July-24-2020,Single Family Residential,21313 Birdie Ln,Laytonsville,MD,20882,1060700,5,5.0,LAYTONSVILLE TOWN,4500,3,2020,499,236,64,Sold,,,https://www.redfin.com/MD/Laytonsville/21313-Birdie-Ln-20882/home/165941698,BRIGHT MLS,MDMC718092,N,Y,39.2082874,-77.1279746
PAST SALE,May-22-2020,Single Family Residential,224 Barberry Ln,Laytonsville,MD,20882,998000,6,6.5,LAYTONSVILLE TOWN,5300,,2019,562,188,50,Sold,,,https://www.redfin.com/MD/Laytonsville/224-Barberry-Ln-20882/home/160475319,BRIGHT MLS,MDMC678130,N,Y,39.2070055,-77.135062
PAST SALE,July-30-2021,Single Family Residential,21129 Golf Estates Dr,Gaithersburg,MD,20882,1200000,5,4.5,GOLF ESTATES,6990,88862,1998,128,172,,Sold,,,https://www.redfin.com/MD/Gaithersburg/21129-Golf-Estates-Dr-20882/home/10484944,BRIGHT MLS,MDMC757048,N,Y,39.2058682,-77.1273258
PAST SALE,,Single Family Residential,8300 Goshen View Dr,Gaithersburg,MD,20882,902000,,4.5,,3912,105851,1988,,231,,,,,https://www.redfin.com/MD/Gaithersburg/8300-Goshen-View-Dr-20882/home/10485265,,,N,Y,39.2093359,-77.1712307
PAST SALE,February-24-2020,Townhouse,10124 Nightingale St,Gaithersburg,MD,20882,335000,3,2.5,SWEEPSTAKES PARK,1588,6000,1990,650,211,,Sold,,,https://www.redfin.com/MD/Gaithersburg/10124-Nightingale-St-20882/home/10938406,BRIGHT MLS,MDMC691912,N,Y,39.257435,-77.209564
PAST SALE,August-18-2020,Single Family Residential,24008 Log House Rd,Gaithersburg,MD,20882,450000,4,2.5,THE PLANTATIONS,2480,9750,1979,474,181,14,Sold,,,https://www.redfin.com/MD/Gaithersburg/24008-Log-House-Rd-20882/home/10935674,BRIGHT MLS,MDMC713678,N,Y,39.2507639,-77.2028574
PAST SALE,July-12-2019,Single Family Residential,8124 Brink Rd,Gaithersburg,MD,20882,379900,3,3.5,LAYTONSVILLE OUTSIDE,2822,82764,2002,877,135,,Sold,,,https://www.redfin.com/MD/Gaithersburg/8124-Brink-Rd-20882/home/11172133,BRIGHT MLS,MDMC649444,N,Y,39.2075414,-77.1673217
PAST SALE,July-19-2021,Single Family Residential,7621 Augustine Way,Gaithersburg,MD,20879,651726,4,3.5,GOSHEN ESTATES,3302,7285,1995,139,197,50,Sold,,,https://www.redfin.com/MD/Gaithersburg/7621-Augustine-Way-20879/home/10489320,BRIGHT MLS,MDMC2002796,N,Y,39.1916441,-77.1584249
PAST SALE,April-17-2020,Single Family Residential,4 Hickory Spring Ct,Gaithersburg,MD,20882,525000,4,4.0,THE PLANTATIONS,3304,10417,2000,597,159,,Sold,,,https://www.redfin.com/MD/Gaithersburg/4-Hickory-Spring-Ct-20882/home/10945083,BRIGHT MLS,MDMC697228,N,Y,39.2534132,-77.1993671
PAST SALE,June-1-2021,Single Family Residential,8513 Goshen View Dr,Gaithersburg,MD,20882,702500,4,2.5,GOSHEN HUNT HILLS,2557,61413,1979,187,275,,Sold,,,https://www.redfin.com/MD/Gaithersburg/8513-Goshen-View-Dr-20882/home/10484190,BRIGHT MLS,MDMC752870,N,Y,39.2096725,-77.176757
PAST SALE,,Single Family Residential,24233 Club View Dr,Gaithersburg,MD,20882,340000,,1.5,,1284,10000,1983,,265,,,,,https://www.redfin.com/MD/Gaithersburg/24233-Club-View-Dr-20882/home/10938129,,,N,Y,39.254243,-77.2050583
PAST SALE,October-1-2021,Single Family Residential,25123 Vista Ridge Rd,Gaithersburg,MD,20882,1050000,5,3.5,SENECA SPRINGS,5554,87120,2000,65,189,39,Sold,,,https://www.redfin.com/MD/Laytonsville/25123-Vista-Ridge-Rd-20882/home/10947046,BRIGHT MLS,MDMC2010474,N,Y,39.271944,-77.198679
PAST SALE,April-30-2021,Single Family Residential,21524 Laytonsville Rd,Gaithersburg,MD,20882,400000,3,2.0,LAYTONSVILLE TOWN,2003,27007,1900,219,200,,Sold,,,https://www.redfin.com/MD/Gaithersburg/21524-Laytonsville-Rd-20882/home/10483450,BRIGHT MLS,MDMC716958,N,Y,39.2096671,-77.1425851
PAST SALE,,Single Family Residential,25512 Jarl Dr,Gaithersburg,MD,20882,385000,,2.5,,2150,27795,1966,,179,,,,,https://www.redfin.com/MD/Gaithersburg/25512-Jarl-Dr-20882/home/10928452,,,N,Y,39.2757684,-77.168782
PAST SALE,July-28-2021,Single Family Residential,7463 Rosewood Manor Ln,Gaithersburg,MD,20882,822000,5,3.5,ROSEWOOD MANOR,3876,12155,1989,130,212,25,Sold,,,https://www.redfin.com/MD/Gaithersburg/7463-Rosewood-Manor-Ln-20882/home/10487510,BRIGHT MLS,MDMC2003016,N,Y,39.1885503,-77.1550548
PAST SALE,,Vacant Land,5001 Brookeville Rd,Gaithersburg,MD,20882,105000,,,,,23086,,,,,,,,https://www.redfin.com/MD/Gaithersburg/5001-Brookeville-Rd-20882/home/10482920,,,N,Y,39.185152,-77.101155
PAST SALE,December-27-2019,Single Family Residential,9505 Pecan Grove Ter,Gaithersburg,MD,20882,450000,4,3.0,THE PLANTATIONS,3305,10605,1986,709,136,73,Sold,,,https://www.redfin.com/MD/Gaithersburg/9505-Pecan-Grove-Ter-20882/home/10940656,BRIGHT MLS,MDMC100341,N,Y,39.2508572,-77.195805
PAST SALE,November-1-2019,Single Family Residential,21505 Quick Fox Ln,Gaithersburg,MD,20882,626000,4,2.5,OVERLOOK HILLS,2824,92783,1992,765,222,,Sold,,,https://www.redfin.com/MD/Gaithersburg/21505-Quick-Fox-Ln-20882/home/10488644,BRIGHT MLS,MDMC678490,N,Y,39.2064161,-77.1995334
PAST SALE,October-30-2020,Vacant Land,7444 Damascus Rd,Gaithersburg,MD,20882,183100,,,SENECA VALLEY ESTATES,,87120,,401,,,Sold,,,https://www.redfin.com/MD/Gaithersburg/7444-Damascus-Rd-20882/home/10485153,BRIGHT MLS,MDMC727504,N,Y,39.269346,-77.152936
PAST SALE,October-31-2019,Single Family Residential,9910 Brink Rd,Gaithersburg,MD,20882,784500,4,4.5,GAITHERSBURG OUTSIDE,4351,231304,1966,766,180,,Sold,,,https://www.redfin.com/MD/Gaithersburg/9910-Brink-Rd-20882/home/10735367,BRIGHT MLS,MDMC676158,N,Y,39.1996252,-77.2065731
PAST SALE,June-9-2020,Townhouse,9509 Melrose Square Way,Gaithersburg,MD,20882,266000,3,2.5,THE PLANTATIONS,1500,1800,1986,544,177,92,Sold,,,https://www.redfin.com/MD/Gaithersburg/9509-Melrose-Square-Way-20882/home/10941205,BRIGHT MLS,MDMC693212,N,Y,39.249778,-77.197457
PAST SALE,June-19-2020,Single Family Residential,8712 Hawkins Creamery Rd,Gaithersburg,MD,20882,415000,4,2.5,DAMASCUS OUTSIDE,2150,22251,1969,534,193,,Sold,,,https://www.redfin.com/MD/Gaithersburg/8712-Hawkins-Creamery-Rd-20882/home/10932044,BRIGHT MLS,MDMC697954,N,Y,39.267142,-77.180575
PAST SALE,December-23-2019,Single Family Residential,244 Barberry Ln,Laytonsville,MD,20882,911110,5,5.5,LAYTONSVILLE TOWN,4150,87991,2019,713,220,50,Sold,,,https://www.redfin.com/MD/Laytonsville/244-Barberry-Ln-20882/home/166402574,BRIGHT MLS,MDMC680932,N,Y,39.207652,-77.1379146
PAST SALE,February-28-2020,Single Family Residential,245 Barberry Ln,Laytonsville,MD,20882,985921,5,5.5,LAYTONSVILLE TOWN,6716,5858,2019,646,147,75,Sold,,,https://www.redfin.com/MD/Laytonsville/245-Barberry-Ln-20882/home/166402580,BRIGHT MLS,MDMC739528,N,Y,39.2084622,-77.1365189
PAST SALE,July-29-2021,Single Family Residential,7453 Rosewood Manor Ln,Gaithersburg,MD,20882,690000,5,3.5,ROSEWOOD MANOR,2948,10870,1989,129,234,25,Sold,,,https://www.redfin.com/MD/Gaithersburg/7453-Rosewood-Manor-Ln-20882/home/10487506,BRIGHT MLS,MDMC763364,N,Y,39.1892198,-77.1553244
PAST SALE,July-2-2021,Single Family Residential,8015 Goodhurst Dr,Gaithersburg,MD,20882,660500,3,2.5,GOSHEN HUNT HILLS,3480,86369,1977,156,190,,Sold,,,https://www.redfin.com/MD/Gaithersburg/8015-Goodhurst-Dr-20882/home/10484163,BRIGHT MLS,MDMC751534,N,Y,39.2107691,-77.1652773
PAST SALE,June-18-2021,Single Family Residential,9836 Watkins Rd,Gaithersburg,MD,20882,880000,4,4.5,DAMASCUS OUTSIDE,2176,175111,2002,170,404,,Sold,,,https://www.redfin.com/MD/Gaithersburg/9836-Watkins-Rd-20882/home/11170411,BRIGHT MLS,MDMC755680,N,Y,39.2321613,-77.2023857
PAST SALE,,Vacant Land,6915 Howard St,Laytonsville,MD,20882,137500,,,,,26571,,,,,,,,https://www.redfin.com/MD/Laytonsville/6915-Howard-St-20882/home/166445569,,,N,Y,39.208915,-77.141405
PAST SALE,March-26-2020,Single Family Residential,21221 Golf Estates Dr,Laytonsville,MD,20882,795000,4,5.5,GOLF ESTATES,6006,91040,1998,619,132,,Sold,,,https://www.redfin.com/MD/Laytonsville/21221-Golf-Estates-Dr-20882/home/10488256,BRIGHT MLS,MDMC683648,N,Y,39.207526,-77.124413
PAST SALE,November-30-2020,Single Family Residential,26006 Stanley Hills Way,Damascus,MD,20872,895000,5,4.5,DAMASCUS HILLS,6714,77798,2013,370,133,42,Sold,,,https://www.redfin.com/MD/Damascus/26006-Stanley-Hills-Way-20872/home/49737224,BRIGHT MLS,MDMC720912,N,Y,39.2823659,-77.1857231
PAST SALE,July-31-2019,Single Family Residential,22410 Sweetleaf Ln,Gaithersburg,MD,20882,620000,4,2.5,WARD FARM ESTATES,3400,112820,1992,858,182,47,Sold,,,https://www.redfin.com/MD/Gaithersburg/22410-Sweetleaf-Ln-20882/home/10486087,BRIGHT MLS,MDMC625116,N,Y,39.224602,-77.186104
PAST SALE,November-2-2021,Single Family Residential,20216 Sweet Meadow Ln,Gaithersburg,MD,20882,818000,4,3.5,LAYTONSVILLE KNOLLS,4030,44483,1992,33,203,,Sold,,,https://www.redfin.com/MD/Gaithersburg/20216-Sweet-Meadow-Ln-20882/home/10488310,BRIGHT MLS,MDMC2018474,N,Y,39.1918993,-77.1342474
PAST SALE,December-9-2019,Single Family Residential,8304 Mariner Ct,Gaithersburg,MD,20882,450000,4,4.0,UPPER SENECA CREST,4432,54024,1978,727,102,,Sold,,,https://www.redfin.com/MD/Gaithersburg/8304-Mariner-Ct-20882/home/10934231,BRIGHT MLS,MDMC684108,N,Y,39.257609,-77.173424
PAST SALE,July-17-2019,Single Family Residential,8801 Warfield Rd,Gaithersburg,MD,20882,606000,4,2.5,GOSHEN ESTATES,3245,46294,1980,872,187,,Sold,,,https://www.redfin.com/MD/Gaithersburg/8801-Warfield-Rd-20882/home/10483901,BRIGHT MLS,MDMC659604,N,Y,39.1944023,-77.1811823
PAST SALE,August-10-2021,Single Family Residential,21726 Mobley Farm Dr,Gaithersburg,MD,20882,825000,4,3.5,LAYTONSVILLE TOWN,5144,41519,1989,117,160,,Sold,,,https://www.redfin.com/MD/Gaithersburg/21726-Mobley-Farm-Dr-20882/home/10487903,BRIGHT MLS,MDMC759790,N,Y,39.2142145,-77.1418613
PAST SALE,,Single Family Residential,8360 Hawkins Creamery Rd,Gaithersburg,MD,20882,600000,,3.0,,2956,22151,1963,,203,,,,,https://www.redfin.com/MD/Gaithersburg/8360-Hawkins-Creamery-Rd-20882/home/10934064,,,N,Y,39.2609928,-77.1696132
PAST SALE,January-18-2019,Single Family Residential,24328 Log House Rd,Gaithersburg,MD,20882,399900,5,3.0,THE PLANTATIONS,1833,16564,1980,1052,218,,Sold,,,https://www.redfin.com/MD/Gaithersburg/24328-Log-House-Rd-20882/home/10936197,BRIGHT MLS,1009993842,N,Y,39.2562985,-77.2009259
PAST SALE,March-10-2020,Townhouse,9705 Ambergate Ct,Gaithersburg,MD,20882,250000,3,1.5,THE PLANTATIONS,1082,2000,1980,635,231,20,Sold,,,https://www.redfin.com/MD/Gaithersburg/9705-Ambergate-Ct-20882/home/10935643,BRIGHT MLS,MDMC692382,N,Y,39.25154,-77.201183
PAST SALE,August-16-2019,Single Family Residential,7912 Warfield Rd,Gaithersburg,MD,20882,680000,4,3.5,GOSHEN ESTATES,3764,104544,1988,842,181,,Sold,,,https://www.redfin.com/MD/Gaithersburg/7912-Warfield-Rd-20882/home/10485405,BRIGHT MLS,MDMC654842,N,Y,39.1941608,-77.1620085
PAST SALE,November-23-2021,Townhouse,3 Bush Hill Ct,Gaithersburg,MD,20882,315000,3,2.0,THE PLANTATIONS,1160,2000,1981,12,272,22,Sold,,,https://www.redfin.com/MD/Gaithersburg/3-Bush-Hill-Ct-20882/home/10938612,BRIGHT MLS,MDMC2013512,N,Y,39.254168,-77.201018
PAST SALE,October-6-2020,Single Family Residential,22337 Rolling Hill Ln,Gaithersburg,MD,20882,765000,4,3.5,BROOK HOLLOW,3444,91912,1988,425,222,,Sold,,,https://www.redfin.com/MD/Gaithersburg/22337-Rolling-Hill-Ln-20882/home/10484843,BRIGHT MLS,MDMC720890,N,Y,39.2234494,-77.1307642
PAST SALE,July-17-2020,Single Family Residential,24304 Club View Dr,Gaithersburg,MD,20882,460000,4,2.5,THE PLANTATIONS,2016,9250,1983,506,228,14,Sold,,,https://www.redfin.com/MD/Gaithersburg/24304-Club-View-Dr-20882/home/10938165,BRIGHT MLS,MDMC710942,N,Y,39.2553062,-77.2056423
PAST SALE,May-22-2019,Single Family Residential,273 Barberry Ln,Laytonsville,MD,20882,1146082,6,6.5,LAYTONSVILLE TOWN,,92783,2019,928,,50,Sold,,,https://www.redfin.com/MD/Laytonsville/273-Barberry-Ln-20882/home/165941664,BRIGHT MLS,MDMC660404,N,Y,39.2091495,-77.135639
PAST SALE,March-30-2021,Single Family Residential,232 Barberry Ln,Laytonsville,MD,20882,952599,5,4.5,LAYTONSVILLE TOWN,3933,69344,2020,250,242,50,Sold,,,https://www.redfin.com/MD/Laytonsville/232-Barberry-Ln-20882/home/165941637,BRIGHT MLS,MDMC723658,N,Y,39.2070025,-77.1364449
PAST SALE,May-31-2019,Single Family Residential,20904 Brooke Knolls Rd,Gaithersburg,MD,20882,445000,4,3.0,LAYTONSVILLE OUTSIDE,2340,26506,1964,919,190,,Sold,,,https://www.redfin.com/MD/Gaithersburg/20904-Brooke-Knolls-Rd-20882/home/10483370,BRIGHT MLS,MDMC635222,N,Y,39.1995559,-77.140899
PAST SALE,January-24-2020,Single Family Residential,21416 Laytonsville Rd,Gaithersburg,MD,20882,380000,3,1.5,LAYTONSVILLE TOWN,2075,21780,1903,681,183,,Sold,,,https://www.redfin.com/MD/Gaithersburg/21416-Laytonsville-Rd-20882/home/10485483,BRIGHT MLS,MDMC661726,N,Y,39.208029,-77.14212099
PAST SALE,November-5-2021,Single Family Residential,8208 Plum Creek Dr,Gaithersburg,MD,20882,715000,5,2.5,GOSHEN ESTATES,4250,63513,1977,30,168,,Sold,,,https://www.redfin.com/MD/Gaithersburg/8208-Plum-Creek-Dr-20882/home/10484073,BRIGHT MLS,MDMC2016366,N,Y,39.193941,-77.1679058
PAST SALE,October-28-2021,Single Family Residential,7512 Planter Ln,Gaithersburg,MD,20882,530000,4,3.0,SENECA OVERLOOK,2924,74965,1974,38,181,,Sold,,,https://www.redfin.com/MD/Gaithersburg/7512-Planter-Ln-20882/home/10483811,BRIGHT MLS,MDMC2004990,N,Y,39.2605811,-77.1535943
PAST SALE,March-26-2021,Single Family Residential,24301 Empress Ct,Gaithersburg,MD,20882,808500,4,3.5,DAMASCUS OUTSIDE,4379,87120,1998,254,185,,Sold,,,https://www.redfin.com/MD/Gaithersburg/24301-Empress-Ct-20882/home/11185668,BRIGHT MLS,MDMC743102,N,Y,39.2575158,-77.1989494
PAST SALE,November-18-2020,Townhouse,9579 White Pillar Ter,Gaithersburg,MD,20882,330000,3,3.0,THE PLANTATIONS,1760,1800,1988,382,188,91,Sold,,,https://www.redfin.com/MD/Gaithersburg/9579-White-Pillar-Ter-20882/home/10941904,BRIGHT MLS,MDMC720048,N,Y,39.246941,-77.196838
PAST SALE,July-26-2021,Single Family Residential,23627 Rolling Fork Way,Gaithersburg,MD,20882,600000,5,3.5,THE PLANTATIONS,1989,14513,1987,132,302,78,Sold,,,https://www.redfin.com/MD/Gaithersburg/23627-Rolling-Fork-Way-20882/home/10942219,BRIGHT MLS,MDMC2003414,N,Y,39.245187,-77.1954456
PAST SALE,August-5-2021,Single Family Residential,6815 Warfield Rd,Gaithersburg,MD,20882,875000,4,3.5,LAYTONSVILLE PRESERVE,3356,66982,2015,122,261,71,Sold,,,https://www.redfin.com/MD/Gaithersburg/6815-Warfield-Rd-20882/home/85694536,BRIGHT MLS,MDMC2004452,N,Y,39.2035504,-77.1417621
PAST SALE,May-31-2019,Single Family Residential,24109 Woodfield School Rd,Laytonsville,MD,20882,696100,6,4.5,WOODFIELD ESTATES,4728,89734,1999,919,147,13,Sold,,,https://www.redfin.com/MD/Gaithersburg/24109-Woodfield-School-Rd-20882/home/10946623,BRIGHT MLS,MDMC622352,N,Y,39.2512997,-77.1913141
PAST SALE,November-20-2020,Single Family Residential,5808 Riggs Rd,Gaithersburg,MD,20882,617500,3,4.0,LAYTONSVILLE OUTSIDE,2717,212573,1989,380,227,,Sold,,,https://www.redfin.com/MD/Gaithersburg/5808-Riggs-Rd-20882/home/10483924,BRIGHT MLS,MDMC730310,N,Y,39.2037587,-77.1187988
PAST SALE,August-5-2019,Single Family Residential,5400 Griffith Rd,Laytonsville,MD,20882,625700,3,2.5,LAYTONSVILLE OUTSIDE,2574,103237,1995,853,243,,Sold,,,https://www.redfin.com/MD/Gaithersburg/5400-Griffith-Rd-20882/home/10485192,BRIGHT MLS,MDMC657136,N,Y,39.2291001,-77.107233
PAST SALE,,Single Family Residential,7000 Brink Rd,Gaithersburg,MD,20882,515000,,2.5,,2700,26571,1800,,191,,,,,https://www.redfin.com/MD/Gaithersburg/7000-Brink-Rd-20882/home/10483426,,,N,Y,39.2118002,-77.1428826
PAST SALE,August-27-2020,Single Family Residential,9113 Huntmaster Rd,Laytonsville,MD,20882,686000,4,3.5,GREENHILLS FARM,4109,87120,1993,465,167,,Sold,,,https://www.redfin.com/MD/Gaithersburg/9113-Huntmaster-Rd-20882/home/10489450,BRIGHT MLS,MDMC702386,N,Y,39.211713,-77.1868205
PAST SALE,March-30-2020,Single Family Residential,21746 Mobley Farm Dr,Laytonsville,MD,20882,799000,4,4.5,LAYTONSVILLE TOWN,4561,89734,2000,615,175,,Sold,,,https://www.redfin.com/MD/Laytonsville/21746-Mobley-Farm-Dr-20882/home/10487909,BRIGHT MLS,1002032506,N,Y,39.2173173,-77.1423596
PAST SALE,June-18-2021,Single Family Residential,6017 Riggs Rd,Laytonsville,MD,20882,880000,5,4.5,GOLF ESTATES,4380,87120,2003,170,201,77,Sold,,,https://www.redfin.com/MD/Laytonsville/6017-Riggs-Rd-20882/home/11172194,BRIGHT MLS,MDMC757492,N,Y,39.195395,-77.124762
PAST SALE,,Single Family Residential,9740 Ambergate Ct,Gaithersburg,MD,20882,475000,,2.0,,2200,15965,1979,,216,,,,,https://www.redfin.com/MD/Gaithersburg/9740-Ambergate-Ct-20882/home/10935660,,,N,Y,39.2506989,-77.2022734
PAST SALE,October-26-2021,Single Family Residential,25212 Bonny Brook Ln,Laytonsville,MD,20882,830000,4,3.5,SENECA SPRINGS,5174,39639,2002,40,160,25,Sold,,,https://www.redfin.com/MD/Laytonsville/25212-Bonny-Brook-Ln-20882/home/11170223,BRIGHT MLS,MDMC2017604,N,Y,39.274163,-77.189563
PAST SALE,,Single Family Residential,24037 Sugar Cane Ln,Gaithersburg,MD,20882,495000,,2.5,,2520,10440,1983,,196,,,,,https://www.redfin.com/MD/Gaithersburg/24037-Sugar-Cane-Ln-20882/home/10939575,,,N,Y,39.2519723,-77.2061813
PAST SALE,June-2-2020,Single Family Residential,8420 Rocky Rd,Gaithersburg,MD,20882,397000,3,2.0,LAYTONSVILLE OUTSIDE,1152,43560,1947,551,345,,Sold,,,https://www.redfin.com/MD/Gaithersburg/8420-Rocky-Rd-20882/home/10483299,BRIGHT MLS,MDMC704310,N,Y,39.2289383,-77.173646
PAST SALE,May-29-2020,Single Family Residential,3 Hickory Spring Ct,Gaithersburg,MD,20882,580000,4,2.5,THE PLANTATIONS,3462,10287,2000,555,168,32,Sold,,,https://www.redfin.com/MD/Gaithersburg/3-Hickory-Spring-Ct-20882/home/10945075,BRIGHT MLS,MDMC703886,N,Y,39.2536232,-77.1998478
PAST SALE,May-14-2021,Single Family Residential,7445 Rosewood Manor Ln,Gaithersburg,MD,20882,750000,6,4.5,ROSEWOOD MANOR,4488,15880,1988,205,167,25,Sold,,,https://www.redfin.com/MD/Gaithersburg/7445-Rosewood-Manor-Ln-20882/home/10487504,BRIGHT MLS,MDMC750788,N,Y,39.1897044,-77.1553693
PAST SALE,August-21-2020,Single Family Residential,20812 Brooke Knolls Rd,Gaithersburg,MD,20882,592000,4,3.0,LAYTONSVILLE OUTSIDE,3853,26356,1965,471,154,,Sold,,,https://www.redfin.com/MD/Gaithersburg/20812-Brooke-Knolls-Rd-20882/home/10483309,BRIGHT MLS,MDMC714478,N,Y,39.1989121,-77.1415731
PAST SALE,May-30-2019,Single Family Residential,24244 Hipsley Mill Rd,Gaithersburg,MD,20882,475000,4,3.0,LAYTONSVILLE OUTSIDE,3584,87120,1976,920,133,,Sold,,,https://www.redfin.com/MD/Gaithersburg/24244-Hipsley-Mill-Rd-20882/home/10484057,BRIGHT MLS,MDMC655236,N,Y,39.2550685,-77.1375845
PAST SALE,June-18-2021,Vacant Land,Woodfield Rd,Gaithersburg,MD,20882,100000,,,WARD FARM ESTATES,,55063,,170,,,Sold,,,https://www.redfin.com/MD/GAITHERSBURG/WOODFIELD-RD-20882/home/10483334,BRIGHT MLS,MDMC719286,N,Y,39.203045,-77.159162
PAST SALE,,Vacant Land,8020 Brink Rd,Gaithersburg,MD,20882,262000,,,,,94525,,,,,,,,https://www.redfin.com/MD/Gaithersburg/8020-Brink-Rd-20882/home/10483337,,,N,Y,39.208503,-77.163884
PAST SALE,,Single Family Residential,7012 Warfield Rd,Gaithersburg,MD,20882,430000,,2.0,,1396,24829,1950,,308,,,,,https://www.redfin.com/MD/Gaithersburg/7012-Warfield-Rd-20882/home/10483338,,,N,Y,39.1990377,-77.1426966
PAST SALE,June-18-2021,Vacant Land,Riggs Rd,Gaithersburg,MD,20882,677750,,,LAYTONSVILLE OUTSIDE,,3004769,,170,,,Sold,,,https://www.redfin.com/MD/GAITHERSBURG/RIGGS-RD-20882/home/10483114,BRIGHT MLS,MDMC713918,N,Y,39.208266,-77.105771
PAST SALE,March-12-2021,Single Family Residential,22330 Goshen School Rd,Laytonsville,MD,20882,545000,4,3.0,LAYTONSVILLE OUTSIDE,2358,121532,1955,268,231,,Sold,,,https://www.redfin.com/MD/Gaithersburg/22330-Goshen-School-Rd-20882/home/10483375,BRIGHT MLS,MDMC743116,N,Y,39.2231476,-77.1854669
PAST SALE,January-10-2019,Single Family Residential,24509 Woodfield School Rd,Gaithersburg,MD,20882,665000,5,4.5,WOODFIELD ESTATES,6000,87120,1989,1060,111,20,Sold,,,https://www.redfin.com/MD/Gaithersburg/24509-Woodfield-School-Rd-20882/home/10943937,BRIGHT MLS,1002770780,N,Y,39.258144,-77.185418
PAST SALE,January-17-2019,Single Family Residential,9321 Warfield Rd,Gaithersburg,MD,20882,426000,5,4.5,GOSHEN ESTATES,3007,62254,1968,1053,142,,Sold,,,https://www.redfin.com/MD/Gaithersburg/9321-Warfield-Rd-20882/home/10483495,BRIGHT MLS,1002088838,N,Y,39.1981285,-77.1922113
PAST SALE,June-14-2019,Single Family Residential,21120 Goshen Rd,Gaithersburg,MD,20882,510000,5,3.5,GOSHEN ESTATES,3592,84506,1965,905,142,,Sold,,,https://www.redfin.com/MD/Gaithersburg/21120-Goshen-Rd-20882/home/10483515,BRIGHT MLS,MDMC620656,N,Y,39.202738,-77.1869552
PAST SALE,June-30-2020,Single Family Residential,6504 Griffith Rd,Gaithersburg,MD,20882,750000,4,4.5,LAYTONSVILLE OUTSIDE,5081,102366,1993,523,148,,Sold,,,https://www.redfin.com/MD/Gaithersburg/6504-Griffith-Rd-20882/home/10484849,BRIGHT MLS,MDMC709000,N,Y,39.2243589,-77.131753
PAST SALE,,Single Family Residential,23722 Pleasant View Ln,Gaithersburg,MD,20882,800000,,3.5,,5553,139828,2004,,144,,,,,https://www.redfin.com/MD/Gaithersburg/23722-Pleasant-View-Ln-20882/home/11201305,,,N,Y,39.2469884,-77.1933343
PAST SALE,June-7-2019,Single Family Residential,2 Goshen Ct,Gaithersburg,MD,20882,585000,4,3.5,GOSHEN ESTATES,3028,176854,1969,912,193,,Sold,,,https://www.redfin.com/MD/Gaithersburg/2-Goshen-Ct-20882/home/10483532,BRIGHT MLS,1002335422,N,Y,39.2029737,-77.1729381
PAST SALE,February-28-2019,Single Family Residential,9301 Warfield Rd,Gaithersburg,MD,20882,825000,7,3.5,GOSHEN ESTATES,4972,146797,1962,1011,166,,Sold,,,https://www.redfin.com/MD/Gaithersburg/9301-Warfield-Rd-20882/home/10483534,BRIGHT MLS,1002261020,N,Y,39.1978737,-77.1913577
PAST SALE,January-24-2020,Single Family Residential,21001 Delta Dr,Gaithersburg,MD,20882,1145000,6,6.5,GOSHEN ESTATES,7049,93654,2007,681,162,,Sold,,,https://www.redfin.com/MD/Gaithersburg/21001-Delta-Dr-20882/home/10483578,BRIGHT MLS,MDMC657264,N,Y,39.2004101,-77.1633901
PAST SALE,,Single Family Residential,7409 Rosewood Manor Ln,Gaithersburg,MD,20882,529000,,3.5,,3248,10795,1988,,163,,,,,https://www.redfin.com/MD/Gaithersburg/7409-Rosewood-Manor-Ln-20882/home/10487472,,,N,Y,39.1899429,-77.1528529
PAST SALE,April-24-2020,Single Family Residential,9211 Warfield Rd,Gaithersburg,MD,20882,574900,4,3.0,GOSHEN ESTATES,3140,43995,1963,590,183,,Sold,,,https://www.redfin.com/MD/Gaithersburg/9211-Warfield-Rd-20882/home/10483619,BRIGHT MLS,MDMC684150,N,Y,39.1966696,-77.1898753
PAST SALE,January-31-2020,Single Family Residential,9420 Brink Rd,Laytonsville,MD,20882,700000,5,4.0,GOSHEN ESTATES,4560,165528,1966,674,154,,Sold,,,https://www.redfin.com/MD/Gaithersburg/9420-Brink-Rd-20882/home/10483595,BRIGHT MLS,MDMC672914,N,Y,39.1997022,-77.1939679
PAST SALE,January-31-2020,Single Family Residential,20820 Goshen Rd,Gaithersburg,MD,20882,499500,4,2.5,GOSHEN ESTATES,2427,119354,1964,674,206,,Sold,,,https://www.redfin.com/MD/Gaithersburg/20820-Goshen-Rd-20882/home/10483596,BRIGHT MLS,MDMC687862,N,Y,39.1985468,-77.1852032
PAST SALE,December-7-2020,Single Family Residential,8200 Exodus Dr,Gaithersburg,MD,20882,565000,4,3.0,GOSHEN ESTATES,3512,54450,1972,363,161,,Sold,,,https://www.redfin.com/MD/Gaithersburg/8200-Exodus-Dr-20882/home/10483639,BRIGHT MLS,MDMC731502,N,Y,39.1987813,-77.1679508
PAST SALE,April-30-2019,Single Family Residential,14 Goshen Ct,Laytonsville,MD,20882,569000,5,3.5,GOSHEN ESTATES,4848,60870,1968,950,117,,Sold,,,https://www.redfin.com/MD/Gaithersburg/14-Goshen-Ct-20882/home/10483643,BRIGHT MLS,MDMC216932,N,Y,39.2041899,-77.1729156
PAST SALE,March-31-2020,Single Family Residential,28904 Greenberry Dr,Laytonsville,MD,20882,520000,5,3.5,GRIFFITH PARK,3134,23805,1972,614,166,,Sold,,,https://www.redfin.com/MD/Gaithersburg/28904-Greenberry-Dr-20882/home/10483679,BRIGHT MLS,MDMC691240,N,Y,39.2275311,-77.1256628
PAST SALE,November-30-2020,Single Family Residential,8704 Deanna Dr,Gaithersburg,MD,20882,549000,4,2.5,WARD FARM ESTATES,3155,41250,1973,370,174,,Sold,,,https://www.redfin.com/MD/Gaithersburg/8704-Deanna-Dr-20882/home/10483706,BRIGHT MLS,MDMC727626,N,Y,39.2297963,-77.1790217
PAST SALE,,Single Family Residential,22609 Robin Ct,Gaithersburg,MD,20882,525000,,4.5,,3753,43849,1966,,140,,,,,https://www.redfin.com/MD/Gaithersburg/22609-Robin-Ct-20882/home/10483738,,,N,Y,39.227623,-77.18136
PAST SALE,November-30-2020,Single Family Residential,22420 Goshen School Rd,Gaithersburg,MD,20882,750000,4,3.0,WARD FARM ESTATES,3606,72191,1964,370,208,,Sold,,,https://www.redfin.com/MD/Gaithersburg/22420-Goshen-School-Rd-20882/home/10483721,BRIGHT MLS,MDMC720310,N,Y,39.225333,-77.179085
PAST SALE,April-30-2019,Single Family Residential,22712 Robin Ct,Laytonsville,MD,20882,539000,5,3.5,WARD FARM ESTATES,3442,87120,1987,950,157,,Sold,,,https://www.redfin.com/MD/Gaithersburg/22712-Robin-Ct-20882/home/10483727,BRIGHT MLS,MDMC489278,N,Y,39.227515,-77.1794976
PAST SALE,July-29-2019,Single Family Residential,24609 Etchison Dr,Gaithersburg,MD,20882,360000,3,2.0,SENECA OVERLOOK,1894,26288,1973,860,190,,Sold,,,https://www.redfin.com/MD/Gaithersburg/24609-Etchison-Dr-20882/home/10483775,BRIGHT MLS,MDMC664476,N,Y,39.2603018,-77.1502015
PAST SALE,June-9-2021,Single Family Residential,8610 Plum Creek Dr,Gaithersburg,MD,20882,634501,4,2.5,GOSHEN ESTATES,2440,61556,1975,179,260,,Sold,,,https://www.redfin.com/MD/Gaithersburg/8610-Plum-Creek-Dr-20882/home/10483837,BRIGHT MLS,MDMC757294,N,Y,39.1946134,-77.1768019
PAST SALE,March-18-2020,Single Family Residential,8532 Plum Creek Dr,Gaithersburg,MD,20882,585000,4,2.5,GOSHEN ESTATES,4002,56953,1973,627,146,,Sold,,,https://www.redfin.com/MD/Gaithersburg/8532-Plum-Creek-Dr-20882/home/10483841,BRIGHT MLS,MDMC691270,N,Y,39.193669,-77.1758584
PAST SALE,,Single Family Residential,8701 Lochaven Dr,Gaithersburg,MD,20882,425000,,2.5,,2758,48732,1973,,154,,,,,https://www.redfin.com/MD/Gaithersburg/8701-Lochaven-Dr-20882/home/10483887,,,N,Y,39.1982758,-77.1799019
PAST SALE,June-10-2019,Single Family Residential,20711 Sabbath Ct,Gaithersburg,MD,20882,512000,4,2.5,GOSHEN ESTATES,2816,47765,1974,909,182,,Sold,,,https://www.redfin.com/MD/Gaithersburg/20711-Sabbath-Ct-20882/home/10483894,BRIGHT MLS,MDMC625192,N,Y,39.1962364,-77.1807751
PAST SALE,April-9-2021,Single Family Residential,24200 Hawkins Landing Dr,Laytonsville,MD,20882,875000,4,3.5,WOODFIELD ESTATES,4344,74658,2003,240,201,88,Sold,,,https://www.redfin.com/MD/Gaithersburg/24200-Hawkins-Landing-Dr-20882/home/11185878,BRIGHT MLS,MDMC744842,N,Y,39.2465399,-77.1744432
PAST SALE,,Single Family Residential,21024 Zion Rd,Gaithersburg,MD,20882,242500,,1.0,,1312,42688,1900,,185,,,,,https://www.redfin.com/MD/Gaithersburg/21024-Zion-Rd-20882/home/10483939,,,N,Y,39.2021695,-77.0982418
PAST SALE,,Single Family Residential,25601 Jarl Dr,Gaithersburg,MD,20882,407500,,2.0,,1936,35925,1973,,210,,,,,https://www.redfin.com/MD/Gaithersburg/25601-Jarl-Dr-20882/home/10483168,,,N,Y,39.2768179,-77.1676363
PAST SALE,March-31-2020,Single Family Residential,9401 Huntmaster Rd,Laytonsville,MD,20882,515000,5,2.5,FOXLAIR ACRES,2826,73233,1979,614,182,,Sold,,,https://www.redfin.com/MD/Gaithersburg/9401-Huntmaster-Rd-20882/home/10484011,BRIGHT MLS,MDMC691862,N,Y,39.2151799,-77.192469
PAST SALE,April-26-2021,Single Family Residential,21804 Goshen School Rd,Gaithersburg,MD,20882,551100,4,2.5,FOXLAIR ACRES,2410,49662,1978,223,229,,Sold,,,https://www.redfin.com/MD/Gaithersburg/21804-Goshen-School-Rd-20882/home/10484014,BRIGHT MLS,MDMC747132,N,Y,39.2148899,-77.191301
PAST SALE,March-20-2020,Single Family Residential,8317 Plum Creek Dr,Laytonsville,MD,20882,636500,5,3.5,GOSHEN ESTATES,4319,126324,1984,625,147,,Sold,,,https://www.redfin.com/MD/Gaithersburg/8317-Plum-Creek-Dr-20882/home/10484091,BRIGHT MLS,MDMC679928,N,Y,39.1937922,-77.1705118
PAST SALE,,Single Family Residential,22919 Wildcat Rd,Gaithersburg,MD,20882,805291,,3.5,,4194,208652,1978,,192,,,,,https://www.redfin.com/MD/Gaithersburg/22919-Wildcat-Rd-20882/home/10931465,,,N,Y,39.23159,-77.202349
PAST SALE,,Single Family Residential,7611 Hawkins Creamery Rd,Gaithersburg,MD,20882,400000,,2.0,,1600,88427,1979,,250,,,,,https://www.redfin.com/MD/Gaithersburg/7611-Hawkins-Creamery-Rd-20882/home/10484138,,,N,Y,39.248275,-77.155203
PAST SALE,June-25-2021,Single Family Residential,20804 Apollo Ln,Gaithersburg,MD,20882,585000,5,3.0,GOSHEN ESTATES,2200,77198,1977,163,266,,Sold,,,https://www.redfin.com/MD/Gaithersburg/20804-Apollo-Ln-20882/home/10484147,BRIGHT MLS,MDMC760284,N,Y,39.1986689,-77.1999376
PAST SALE,August-27-2021,Single Family Residential,24209 Muscari Ct,Gaithersburg,MD,20882,815000,4,3.5,WOODFIELD ESTATES,3332,68389,1997,100,245,23,Sold,,,https://www.redfin.com/MD/Gaithersburg/24209-Muscari-Ct-20882/home/10944930,BRIGHT MLS,MDMC2000678,N,Y,39.2517599,-77.1788237
PAST SALE,,Single Family Residential,20821 Apollo Ln,Gaithersburg,MD,20882,570000,,3.0,,2145,92347,1977,,266,,,,,https://www.redfin.com/MD/Gaithersburg/20821-Apollo-Ln-20882/home/10484154,,,N,Y,39.2001326,-77.201959
PAST SALE,January-31-2020,Single Family Residential,8205 Goodhurst Dr,Gaithersburg,MD,20882,638999,4,2.5,GOSHEN HUNT HILLS,3676,77100,1984,674,174,,Sold,,,https://www.redfin.com/MD/Gaithersburg/8205-Goodhurst-Dr-20882/home/10484159,BRIGHT MLS,MDMC677300,N,Y,39.2100142,-77.1690741
PAST SALE,June-21-2019,Single Family Residential,22608 Griffith Dr,Gaithersburg,MD,20882,520000,3,3.5,LAYTONSVILLE OUTSIDE,2162,87120,1978,898,241,,Sold,,,https://www.redfin.com/MD/Gaithersburg/22608-Griffith-Dr-20882/home/10484249,BRIGHT MLS,1009965384,N,Y,39.2273823,-77.1161336
PAST SALE,September-24-2019,Single Family Residential,8500 Goshen View Dr,Gaithersburg,MD,20882,645000,4,3.5,GOSHEN HUNT HILLS,3357,99317,1980,803,192,,Sold,,,https://www.redfin.com/MD/Gaithersburg/8500-Goshen-View-Dr-20882/home/10484215,BRIGHT MLS,MDMC624874,N,Y,39.2086932,-77.175499
PAST SALE,August-10-2021,Single Family Residential,22521 Griffith Dr,Gaithersburg,MD,20882,765000,4,3.5,LAYTONSVILLE OUTSIDE,3650,97139,1978,117,210,,Sold,,,https://www.redfin.com/MD/Gaithersburg/22521-Griffith-Dr-20882/home/10484285,BRIGHT MLS,MDMC764010,N,Y,39.2261095,-77.1138635
PAST SALE,April-4-2019,Single Family Residential,20908 Layton Ridge Dr,Gaithersburg,MD,20882,650000,4,3.5,LAYTONSVILLE OUTSIDE,3772,92783,1984,976,172,,Sold,,,https://www.redfin.com/MD/Gaithersburg/20908-Layton-Ridge-Dr-20882/home/10484273,BRIGHT MLS,1003457530,N,Y,39.1997561,-77.1494825
PAST SALE,September-30-2019,Single Family Residential,4330 Damascus Rd,Gaithersburg,MD,20882,600000,4,3.5,SUNDOWN HILLS,2136,261360,1979,797,281,,Sold,,,https://www.redfin.com/MD/Gaithersburg/4330-Damascus-Rd-20882/home/10484347,BRIGHT MLS,MDMC675128,N,Y,39.228828,-77.090198
PAST SALE,July-28-2021,Single Family Residential,22116 Creekview Dr,Gaithersburg,MD,20882,875000,5,5.0,FOXLAIR ACRES,4881,87120,1987,130,179,,Sold,,,https://www.redfin.com/MD/Gaithersburg/22116-Creekview-Dr-20882/home/10486115,BRIGHT MLS,MDMC2001694,N,Y,39.2192111,-77.1992639
PAST SALE,November-4-2020,Single Family Residential,21113 Cozy Ct,Gaithersburg,MD,20882,736000,6,5.0,GOSHEN ESTATES,5161,174240,1987,396,143,,Sold,,,https://www.redfin.com/MD/Gaithersburg/21113-Cozy-Ct-20882/home/10484383,BRIGHT MLS,MDMC726446,N,Y,39.2037031,-77.1927503
PAST SALE,June-11-2020,Single Family Residential,5707 Stanbrook Ln,Gaithersburg,MD,20882,780000,4,4.5,ROLLING KNOLLS,3134,49222,1989,542,249,,Sold,,,https://www.redfin.com/MD/Gaithersburg/5707-Stanbrook-Ln-20882/home/10487456,BRIGHT MLS,MDMC704144,N,Y,39.1867031,-77.1199544
PAST SALE,March-28-2019,Single Family Residential,23529 Pocahontas Dr,Gaithersburg,MD,20882,675000,5,4.5,SENECA UPLAND,4561,87120,1984,983,148,,Sold,,,https://www.redfin.com/MD/Gaithersburg/23529-Pocahontas-Dr-20882/home/10484662,BRIGHT MLS,1004232434,N,Y,39.239742,-77.160801
PAST SALE,March-4-2020,Single Family Residential,6508 Griffith Rd,Laytonsville,MD,20882,810000,5,4.5,BROOK HOLLOW,5483,98010,2005,641,148,,Sold,,,https://www.redfin.com/MD/Gaithersburg/6508-Griffith-Rd-20882/home/10484848,BRIGHT MLS,MDMC686466,N,Y,39.2247219,-77.1330339
PAST SALE,August-20-2020,Single Family Residential,21501 Goshen Hunt Ln,Gaithersburg,MD,20882,649900,6,3.5,GOSHEN HUNT HILLS,3153,56638,1978,472,206,,Sold,,,https://www.redfin.com/MD/Gaithersburg/21501-Goshen-Hunt-Ln-20882/home/10484183,BRIGHT MLS,MDMC700334,N,Y,39.208375,-77.1724663
PAST SALE,,Single Family Residential,21001 Golf Estates Dr,Gaithersburg,MD,20882,850000,,3.5,,4496,87556,1989,,189,,,,,https://www.redfin.com/MD/Gaithersburg/21001-Golf-Estates-Dr-20882/home/10484934,,,N,Y,39.2014398,-77.1352362
PAST SALE,May-31-2019,Single Family Residential,7200 Brink Rd,Gaithersburg,MD,20882,465000,3,2.5,LAYTONSVILLE TOWN,1862,20000,1979,919,250,,Sold,,,https://www.redfin.com/MD/Gaithersburg/7200-Brink-Rd-20882/home/10484917,BRIGHT MLS,MDMC626008,N,Y,39.2113129,-77.146778
PAST SALE,May-1-2019,Single Family Residential,21213 Golf Estates Dr,Laytonsville,MD,20882,935000,5,6.0,GOLF ESTATES,8036,87120,1999,949,116,,Sold,,,https://www.redfin.com/MD/Gaithersburg/21213-Golf-Estates-Dr-20882/home/10484943,BRIGHT MLS,MDMC623874,N,Y,39.2067376,-77.1249212
PAST SALE,October-14-2021,Single Family Residential,21533 Quick Fox Ln,Gaithersburg,MD,20882,1000000,4,2.5,OVERLOOK HILLS,,129373,,52,,,Sold,,,https://www.redfin.com/MD/Gaithersburg/21533-Quick-Fox-Ln-20882/home/10489529,BRIGHT MLS,MDMC2010148,N,Y,39.209483,-77.198932
PAST SALE,July-23-2019,Single Family Residential,7440 Damascus Rd,Laytonsville,MD,20882,669500,5,4.0,SENECA VALLEY ESTATES,4101,87120,1987,866,163,,Sold,,,https://www.redfin.com/MD/Laytonsville/7440-Damascus-Rd-20882/home/10485154,BRIGHT MLS,MDMC664428,N,Y,39.2684659,-77.152615
PAST SALE,,Vacant Land,21528 Ripplemead Dr,Gaithersburg,MD,20882,12000,,,,,87991,,,,,,,,https://www.redfin.com/MD/Gaithersburg/21528-Ripplemead-Dr-20882/home/10485225,,,N,Y,39.209363,-77.101539
PAST SALE,July-13-2020,Single Family Residential,4904 Ripplemead Ct,Gaithersburg,MD,20882,746500,4,3.5,FAIRHILL,4347,101930,2000,510,172,50,Sold,,,https://www.redfin.com/MD/Gaithersburg/4904-Ripplemead-Ct-20882/home/10485256,BRIGHT MLS,MDMC706994,N,Y,39.2122304,-77.0955218
PAST SALE,January-29-2021,Single Family Residential,7420 Hawkins Creamery Rd,Laytonsville,MD,20882,850000,6,4.0,LAYTONSVILLE OUTSIDE,4882,229561,1907,310,174,,Sold,,,https://www.redfin.com/MD/Gaithersburg/7420-Hawkins-Creamery-Rd-20882/home/166400681,BRIGHT MLS,MDMC717814,N,Y,39.246465,-77.153464
PAST SALE,January-31-2019,Single Family Residential,6430 Stream Valley Way,Gaithersburg,MD,20882,645000,4,3.5,BROOKEFIELD,3509,87991,1993,1039,184,,Sold,,,https://www.redfin.com/MD/Gaithersburg/6430-Stream-Valley-Way-20882/home/10487928,BRIGHT MLS,1002101328,N,Y,39.1829213,-77.1322249
PAST SALE,February-5-2021,Single Family Residential,20900 Sunnyacres Rd,Gaithersburg,MD,20882,845000,4,3.0,BURNHAM HILLS,4635,127631,1989,303,182,,Sold,,,https://www.redfin.com/MD/Gaithersburg/20900-Sunnyacres-Rd-20882/home/10485414,BRIGHT MLS,MDMC739562,N,Y,39.1993136,-77.1530326
PAST SALE,April-20-2020,Single Family Residential,7401 Cutty Sark,Gaithersburg,MD,20882,649900,4,3.5,BURNHAM HILLS,3972,101930,1985,594,164,,Sold,,,https://www.redfin.com/MD/Gaithersburg/7401-Cutty-Sark-Way-20882/home/10485412,BRIGHT MLS,MDMC698910,N,Y,39.198129,-77.1513699
PAST SALE,May-27-2021,Single Family Residential,7550 Damascus Rd,Gaithersburg,MD,20882,700000,4,2.5,SENECA VALLEY ESTATES,2574,135472,1981,192,272,,Sold,,,https://www.redfin.com/MD/Gaithersburg/7550-Damascus-Rd-20882/home/10484919,BRIGHT MLS,MDMC755328,N,Y,39.271853,-77.158551
PAST SALE,,Single Family Residential,5815 Riggs Rd,Gaithersburg,MD,20882,753000,,1.0,,2180,238273,1924,,345,,,,,https://www.redfin.com/MD/Gaithersburg/5815-Riggs-Rd-20882/home/10485478,,,N,Y,39.1980066,-77.1226951
PAST SALE,July-9-2021,Single Family Residential,8616 Stableview Ct,Gaithersburg,MD,20882,825000,5,3.5,GOSHEN HUNT HILLS,3348,87991,1985,149,246,,Sold,,,https://www.redfin.com/MD/Gaithersburg/8616-Stableview-Ct-20882/home/10485546,BRIGHT MLS,MDMC758998,N,Y,39.2116207,-77.1784643
PAST SALE,December-30-2020,Single Family Residential,8621 Stableview Ct,Gaithersburg,MD,20882,812000,5,3.5,GOSHEN HUNT HILLS,4634,88427,1986,340,175,,Sold,,,https://www.redfin.com/MD/Gaithersburg/8621-Stableview-Ct-20882/home/10485548,BRIGHT MLS,MDMC723348,N,Y,39.2115313,-77.1798121
PAST SALE,August-30-2019,Single Family Residential,23612 Dixie Ridge Ct,Gaithersburg,MD,20882,485000,4,3.0,THE PLANTATIONS,2515,15470,1987,828,193,73,Sold,,,https://www.redfin.com/MD/Gaithersburg/23612-Dixie-Ridge-Ct-20882/home/10943490,BRIGHT MLS,MDMC671194,N,Y,39.2472302,-77.201578
PAST SALE,December-11-2020,Single Family Residential,7630 Augustine Way,Gaithersburg,MD,20879,608000,4,3.5,GOSHEN ESTATES,2802,7596,1994,359,217,50,Sold,,,https://www.redfin.com/MD/Gaithersburg/7630-Augustine-Way-20879/home/10489329,BRIGHT MLS,MDMC733096,N,Y,39.1916145,-77.1592338
PAST SALE,,Single Family Residential,9518 Meadow Ridge Ln,Laytonsville,MD,20882,1000000,,4.5,,6946,87556,2000,,144,,,,,https://www.redfin.com/MD/Laytonsville/9518-Meadow-Ridge-Ln-20882/home/11157073,,,N,Y,39.2687682,-77.1971077
PAST SALE,December-13-2019,Single Family Residential,22405 Sweetleaf Ln,Laytonsville,MD,20882,568000,4,2.5,WARD FARM ESTATES,2956,87120,1991,723,192,48,Sold,,,https://www.redfin.com/MD/Gaithersburg/22405-Sweetleaf-Ln-20882/home/10486083,BRIGHT MLS,MDMC667860,N,Y,39.2248003,-77.1838105
PAST SALE,,Single Family Residential,22400 Sweetleaf Ln,Gaithersburg,MD,20882,686000,,2.5,,3184,87120,1991,,215,,,,,https://www.redfin.com/MD/Gaithersburg/22400-Sweetleaf-Ln-20882/home/10486085,,,N,Y,39.2241364,-77.1843047
PAST SALE,December-14-2018,Single Family Residential,22413 Sweetleaf Ln,Gaithersburg,MD,20882,620000,4,2.5,WARD FARM ESTATES,3400,87120,1992,1087,182,47,Sold,,,https://www.redfin.com/MD/Gaithersburg/22413-Sweetleaf-Ln-20882/home/10486089,BRIGHT MLS,1005942175,N,Y,39.2259839,-77.1847539
PAST SALE,July-17-2020,Single Family Residential,22525 Sweetleaf Ln,Gaithersburg,MD,20882,685000,5,4.5,WARD FARM ESTATES,5000,87120,1992,506,137,43,Sold,,,https://www.redfin.com/MD/Laytonsville/22525-Sweetleaf-Ln-20882/home/10486097,BRIGHT MLS,MDMC705048,N,Y,39.226028,-77.1902549
PAST SALE,June-7-2019,Single Family Residential,9524 Foxlair Pl,Gaithersburg,MD,20882,705100,5,5.0,FOXLAIR ACRES,5137,114127,1989,912,137,,Sold,,,https://www.redfin.com/MD/Gaithersburg/9524-Foxlair-Pl-20882/home/10486130,BRIGHT MLS,MDMC649462,N,Y,39.2226638,-77.1974446
PAST SALE,December-29-2020,Single Family Residential,7412 Damascus Rd,Gaithersburg,MD,20882,445000,4,3.0,SENECA VALLEY ESTATES,2675,233482,1985,341,166,,Sold,,,https://www.redfin.com/MD/Gaithersburg/7412-Damascus-Rd-20882/home/10485158,BRIGHT MLS,MDMC730558,N,Y,39.264743,-77.154332
PAST SALE,,Single Family Residential,6605 Belle Chase Ct,Gaithersburg,MD,20882,575000,,3.0,,3033,46644,1992,,190,,,,,https://www.redfin.com/MD/Gaithersburg/6605-Belle-Chase-Ct-20882/home/10488293,,,N,Y,39.1891051,-77.138562
PAST SALE,January-27-2020,Single Family Residential,22137 Creekview Dr,Gaithersburg,MD,20882,725000,5,4.5,FOXLAIR ACRES,4566,108900,1987,678,159,,Sold,,,https://www.redfin.com/MD/Gaithersburg/22137-Creekview-Dr-20882/home/10486747,BRIGHT MLS,MDMC673596,N,Y,39.2192251,-77.2013018
PAST SALE,June-30-2020,Single Family Residential,8116 Exodus Dr,Gaithersburg,MD,20882,625000,5,3.5,GOSHEN ESTATES,3462,229126,1987,523,181,,Sold,,,https://www.redfin.com/MD/Gaithersburg/8116-Exodus-Dr-20882/home/10487043,BRIGHT MLS,MDMC698338,N,Y,39.1979304,-77.1677181
PAST SALE,May-26-2021,Single Family Residential,21521 Laytonsville Rd,Gaithersburg,MD,20882,480000,4,2.0,LAYTONSVILLE TOWN,1950,22685,1937,193,246,,Sold,,,https://www.redfin.com/MD/Gaithersburg/21521-Laytonsville-Rd-20882/home/10483410,BRIGHT MLS,MDMC744286,N,Y,39.2097267,-77.1415174
PAST SALE,February-22-2019,Single Family Residential,5704 Stanbrook Ln,Gaithersburg,MD,20882,717000,5,3.5,ROLLING KNOLLS,6523,41817,1988,1017,110,,Sold,,,https://www.redfin.com/MD/Gaithersburg/5704-Stanbrook-Ln-20882/home/10487446,BRIGHT MLS,1000420708,N,Y,39.1867072,-77.1189205
PAST SALE,May-28-2020,Single Family Residential,7417 Rosewood Manor Ln,Gaithersburg,MD,20882,560000,5,3.5,ROSEWOOD MANOR,3412,10160,1988,556,164,25,Sold,,,https://www.redfin.com/MD/Gaithersburg/7417-Rosewood-Manor-Ln-20882/home/10487484,BRIGHT MLS,MDMC702468,N,Y,39.1898883,-77.153437
PAST SALE,August-8-2019,Single Family Residential,19834 Falling Spring Ct,Gaithersburg,MD,20882,624900,4,3.5,BROOKEFIELD,2718,65878,1992,850,230,,Sold,,,https://www.redfin.com/MD/Gaithersburg/19834-Falling-Spring-Ct-20882/home/10487944,BRIGHT MLS,MDMC654426,N,Y,39.1849501,-77.136607
PAST SALE,,Single Family Residential,24385 Hilton Pl,Gaithersburg,MD,20882,570000,,3.5,,3972,87556,1989,,144,,,,,https://www.redfin.com/MD/Gaithersburg/24385-Hilton-Pl-20882/home/10943864,,,N,Y,39.262544,-77.163251
PAST SALE,,Single Family Residential,7467 Rosewood Manor Ln,Gaithersburg,MD,20882,539000,,3.5,,3942,12301,1989,,137,,,,,https://www.redfin.com/MD/Gaithersburg/7467-Rosewood-Manor-Ln-20882/home/10487511,,,N,Y,39.1885551,-77.1547402
PAST SALE,August-28-2019,Single Family Residential,8808 Primula Dr,Laytonsville,MD,20882,736000,5,4.5,WOODFIELD ESTATES,6244,115434,2003,830,118,88,Sold,,,https://www.redfin.com/MD/Laytonsville/8808-Primula-Dr-20882/home/11185938,BRIGHT MLS,MDMC574134,N,Y,39.251111,-77.175689
PAST SALE,May-31-2019,Single Family Residential,7457 Rosewood Manor Ln,Gaithersburg,MD,20882,530000,4,2.5,ROSEWOOD MANOR,3842,11500,1989,919,138,25,Sold,,,https://www.redfin.com/MD/Gaithersburg/7457-Rosewood-Manor-Ln-20882/home/10487507,BRIGHT MLS,MDMC621526,N,Y,39.1889851,-77.1553693
PAST SALE,September-27-2019,Vacant Land,20108 Zion Rd,Gaithersburg,MD,20882,114000,,,LAYTONSVILLE OUTSIDE,,43560,,800,,,Sold,,,https://www.redfin.com/MD/Gaithersburg/20108-Zion-Rd-20882/home/10483165,BRIGHT MLS,MDMC135580,N,Y,39.1862837,-77.1015111
PAST SALE,,Single Family Residential,5917 Griffith Rd,Gaithersburg,MD,20882,816000,,5.5,,5724,457380,1990,,143,,,,,https://www.redfin.com/MD/Gaithersburg/5917-Griffith-Rd-20882/home/10487894,,,N,Y,39.2300789,-77.1200065
PAST SALE,October-30-2020,Single Family Residential,19814 Falling Spring Ct,Gaithersburg,MD,20882,747000,4,3.5,BROOKEFIELD,3979,50187,1992,401,188,,Sold,,,https://www.redfin.com/MD/Gaithersburg/19814-Falling-Spring-Ct-20882/home/10487929,BRIGHT MLS,MDMC727826,N,Y,39.1831189,-77.1361351
PAST SALE,July-9-2021,Single Family Residential,6425 Stream Valley Way,Gaithersburg,MD,20882,800000,4,3.5,BROOKEFIELD,4592,66564,1993,149,174,,Sold,,,https://www.redfin.com/MD/Gaithersburg/6425-Stream-Valley-Way-20882/home/10487937,BRIGHT MLS,MDMC759784,N,Y,39.1850283,-77.1306968
PAST SALE,September-16-2020,Single Family Residential,21738 Mobley Farm Dr,Laytonsville,MD,20882,700000,4,3.5,LAYTONSVILLE TOWN,3264,38148,1993,445,214,,Sold,,,https://www.redfin.com/MD/Laytonsville/21738-Mobley-Farm-Dr-20882/home/10487906,BRIGHT MLS,MDMC710830,N,Y,39.2153671,-77.1418877
PAST SALE,July-12-2019,Single Family Residential,6613 Belle Chase Ct,Gaithersburg,MD,20882,745000,4,3.5,LAYTONSVILLE KNOLLS,3548,61212,1992,877,210,,Sold,,,https://www.redfin.com/MD/Gaithersburg/6613-Belle-Chase-Ct-20882/home/10488295,BRIGHT MLS,MDMC620726,N,Y,39.1889708,-77.1395058
PAST SALE,,Single Family Residential,8504 Churchill Downs Rd,Gaithersburg,MD,20882,849000,,4.5,,5606,223463,1992,,151,,,,,https://www.redfin.com/MD/Gaithersburg/8504-Churchill-Downs-Rd-20882/home/10488264,,,N,Y,39.214968,-77.17518
PAST SALE,June-30-2020,Single Family Residential,19900 Belle Chase Dr,Gaithersburg,MD,20882,655000,5,3.5,LAYTONSVILLE KNOLLS,4642,67271,1997,523,141,,Sold,,,https://www.redfin.com/MD/Gaithersburg/19900-Belle-Chase-Dr-20882/home/10488322,BRIGHT MLS,MDMC701888,N,Y,39.1862916,-77.136989
PAST SALE,October-7-2021,Single Family Residential,9100 Brink Rd,Gaithersburg,MD,20882,972500,5,4.5,GOSHEN ESTATES,3958,131116,1965,59,246,,Sold,,,https://www.redfin.com/MD/Gaithersburg/9100-Brink-Rd-20882/home/10486105,BRIGHT MLS,MDMC760864,N,Y,39.2025785,-77.1883928
PAST SALE,October-17-2019,Single Family Residential,6437 Stream Valley Way,Gaithersburg,MD,20882,669500,4,3.0,BROOKEFIELD,3296,68335,1992,780,203,,Sold,,,https://www.redfin.com/MD/Gaithersburg/6437-Stream-Valley-Way-20882/home/10488400,BRIGHT MLS,MDMC656230,N,Y,39.1829795,-77.1332811
PAST SALE,June-29-2020,Single Family Residential,6441 Stream Valley Way,Gaithersburg,MD,20882,730000,4,3.5,BROOKEFIELD,5289,71181,1992,524,138,,Sold,,,https://www.redfin.com/MD/Gaithersburg/6441-Stream-Valley-Way-20882/home/10488401,BRIGHT MLS,MDMC701062,N,Y,39.1825825,-77.1334834
PAST SALE,September-15-2020,Single Family Residential,6541 Garden Grove Way,Gaithersburg,MD,20882,652000,6,3.0,LAYTONSVILLE KNOLLS,3773,45033,1996,446,173,,Sold,,,https://www.redfin.com/MD/Gaithersburg/6541-Garden-Grove-Way-20882/home/10488441,BRIGHT MLS,MDMC716904,N,Y,39.1926916,-77.1350789
PAST SALE,March-29-2019,Single Family Residential,20226 Sweet Meadow Ln,Gaithersburg,MD,20882,750000,4,3.5,LAYTONSVILLE KNOLLS,5971,42914,1993,982,126,,Sold,,,https://www.redfin.com/MD/Gaithersburg/20226-Sweet-Meadow-Ln-20882/home/10488449,BRIGHT MLS,MDMC619600,N,Y,39.1934903,-77.1343598
PAST SALE,October-22-2019,Single Family Residential,20221 Sweet Meadow Ln,Gaithersburg,MD,20882,628200,4,2.5,LAYTONSVILLE KNOLLS,3098,105415,1993,775,203,,Sold,,,https://www.redfin.com/MD/Gaithersburg/20221-Sweet-Meadow-Ln-20882/home/10488463,BRIGHT MLS,MDMC675022,N,Y,39.1921785,-77.1335283
PAST SALE,April-29-2019,Single Family Residential,20116 Sweet Meadow Ln,Gaithersburg,MD,20882,639500,5,4.5,LAYTONSVILLE KNOLLS,4177,56721,1993,951,153,,Sold,,,https://www.redfin.com/MD/Gaithersburg/20116-Sweet-Meadow-Ln-20882/home/10488467,BRIGHT MLS,MDMC619010,N,Y,39.1890751,-77.1348991
PAST SALE,April-28-2021,Single Family Residential,7315 Rosewood Manor Ln,Gaithersburg,MD,20882,806000,6,3.5,ROSEWOOD ESTATES,4700,40075,1992,221,171,27,Sold,,,https://www.redfin.com/MD/Gaithersburg/7315-Rosewood-Manor-Ln-20882/home/10488595,BRIGHT MLS,MDMC750876,N,Y,39.1914997,-77.1496173
PAST SALE,December-20-2019,Single Family Residential,5 Belle Hollow Ct,Gaithersburg,MD,20882,464900,4,3.5,THE PLANTATIONS,1972,10656,1988,716,236,73,Sold,,,https://www.redfin.com/MD/Gaithersburg/5-Belle-Hollow-Ct-20882/home/10940677,BRIGHT MLS,MDMC659382,N,Y,39.2496041,-77.1945921
PAST SALE,August-27-2020,Single Family Residential,25000 Johnson Farm Dr,Laytonsville,MD,20882,886000,5,4.5,DAMASCUS OUTSIDE,7938,54624,2004,465,112,117,Sold,,,https://www.redfin.com/MD/Laytonsville/25000-Johnson-Farm-Dr-20882/home/11193433,BRIGHT MLS,MDMC715406,N,Y,39.2648321,-77.1916947
PAST SALE,December-6-2018,Single Family Residential,9833 Mainsail Dr,Gaithersburg,MD,20879,452000,3,3.5,GOSHEN ESTATES,2446,20822,1986,1095,185,19,Sold,,,https://www.redfin.com/MD/Gaithersburg/9833-Mainsail-Dr-20879/home/10838712,BRIGHT MLS,1002121332,N,Y,39.1934993,-77.2049067
PAST SALE,August-21-2019,Single Family Residential,5235 Griffith Rd,Laytonsville,MD,20882,580000,4,3.5,LAYTONSVILLE OUTSIDE,1908,57934,1995,837,304,,Sold,,,https://www.redfin.com/MD/Laytonsville/5235-Griffith-Rd-20882/home/10483100,BRIGHT MLS,MDMC666210,N,Y,39.2322234,-77.1058843
PAST SALE,August-9-2019,Vacant Land,24361 Hilton Pl,Gaithersburg,MD,20882,155000,,,SILVER CREST,,87991,,849,,,Sold,,,https://www.redfin.com/MD/Gaithersburg/24361-Hilton-Pl-20882/home/11753565,BRIGHT MLS,MDMC601768,N,Y,39.261088,-77.161741
PAST SALE,March-12-2019,Single Family Residential,24316 Flamingo Ter,Gaithersburg,MD,20882,375000,4,2.0,THE PLANTATIONS,1588,10000,1978,999,236,13,Sold,,,https://www.redfin.com/MD/Gaithersburg/24316-Flamingo-Ter-20882/home/10935445,BRIGHT MLS,MDMC488872,N,Y,39.2554455,-77.2029472
PAST SALE,October-15-2021,Single Family Residential,8235 Hilton Rd,Gaithersburg,MD,20882,583733,3,3.0,UPPER SENECA CREST,1920,25684,1972,51,304,,Sold,,,https://www.redfin.com/MD/Gaithersburg/8235-Hilton-Rd-20882/home/10934089,BRIGHT MLS,MDMC2007514,N,Y,39.2585626,-77.1696582
PAST SALE,July-23-2019,Single Family Residential,6504 Olney Laytonsville Rd,Gaithersburg,MD,20882,330000,3,1.0,LAYTONSVILLE OUTSIDE,1096,30646,1959,866,301,,Sold,,,https://www.redfin.com/MD/Gaithersburg/6504-Olney-Laytonsville-Rd-20882/home/10483011,BRIGHT MLS,MDMC659178,N,Y,39.197562,-77.1323598
PAST SALE,July-30-2019,Single Family Residential,25421 Jarl Dr,Gaithersburg,MD,20882,395000,4,3.0,LAYTONSVILLE OUTSIDE,1860,28050,1968,859,212,,Sold,,,https://www.redfin.com/MD/Gaithersburg/25421-Jarl-Dr-20882/home/10482957,BRIGHT MLS,MDMC663102,N,Y,39.2745233,-77.1681754
PAST SALE,September-11-2020,Single Family Residential,8508 Paddockview Dr,Gaithersburg,MD,20882,667000,4,4.0,GOSHEN HUNT HILLS,4289,63898,1984,450,156,,Sold,,,https://www.redfin.com/MD/Gaithersburg/8508-Paddockview-Dr-20882/home/10484197,BRIGHT MLS,MDMC708660,N,Y,39.21082,-77.174883
PAST SALE,December-4-2020,Single Family Residential,6518 Damascus Rd,Gaithersburg,MD,20882,373500,3,2.0,LAYTONSVILLE OUTSIDE,2276,43560,1965,366,164,,Sold,,,https://www.redfin.com/MD/Gaithersburg/6518-Damascus-Rd-20882/home/10482933,BRIGHT MLS,MDMC691096,N,Y,39.249235,-77.1333486
PAST SALE,,Single Family Residential,7530 Damascus Rd,Gaithersburg,MD,20882,850000,,5.0,,5286,219978,1982,,161,,,,,https://www.redfin.com/MD/Gaithersburg/7530-Damascus-Rd-20882/home/10484922,,,N,Y,39.270362,-77.157625
PAST SALE,August-19-2021,Single Family Residential,23805 Woodfield Rd,Gaithersburg,MD,20882,449900,4,2.0,DAMASCUS OUTSIDE,1536,21780,1946,108,293,,Sold,,,https://www.redfin.com/MD/Gaithersburg/23805-Woodfield-Rd-20882/home/10929439,BRIGHT MLS,MDMC2005568,N,Y,39.2470875,-77.190639
PAST SALE,,Single Family Residential,22600 Woodfield Rd,Gaithersburg,MD,20882,488000,,3.0,,2440,40254,1976,,200,,,,,https://www.redfin.com/MD/Gaithersburg/22600-Woodfield-Rd-20882/home/10483707,,,N,Y,39.22722,-77.1778938
PAST SALE,October-24-2019,Single Family Residential,6405 Brass Bucket Ct,Gaithersburg,MD,20882,695000,4,3.5,BROOKEFIELD,3694,46575,2000,773,188,62,Sold,,,https://www.redfin.com/MD/Laytonsville/6405-Brass-Bucket-Ct-20882/home/10489724,BRIGHT MLS,MDMC667188,N,Y,39.177543,-77.131861
PAST SALE,November-10-2020,Single Family Residential,22340 Essex View Dr,Gaithersburg,MD,20882,1200000,5,4.5,LAYTONSVILLE OUTSIDE,7910,470884,2002,390,152,125,Sold,,,https://www.redfin.com/MD/Gaithersburg/22340-Essex-View-Dr-20882/home/10489742,BRIGHT MLS,MDMC725316,N,Y,39.226818,-77.176059
PAST SALE,January-15-2019,Single Family Residential,8306 Brink Rd,Laytonsville,MD,20882,760000,5,4.5,GOSHEN ESTATES,6333,87120,2000,1055,120,,Sold,,,https://www.redfin.com/MD/Laytonsville/8306-Brink-Rd-20882/home/10489734,BRIGHT MLS,1002612162,N,Y,39.2081123,-77.1704835
PAST SALE,June-26-2019,Single Family Residential,21411 Woodfield Rd,Gaithersburg,MD,20882,260000,3,2.0,LAYTONSVILLE OUTSIDE,1064,18295,1936,893,244,,Sold,,,https://www.redfin.com/MD/Gaithersburg/21411-Woodfield-Rd-20882/home/10482882,BRIGHT MLS,MDMC658938,N,Y,39.2076019,-77.1685798
PAST SALE,June-5-2019,Single Family Residential,20709 Delta Dr,Gaithersburg,MD,20882,679000,6,4.5,GOSHEN ESTATES,4590,87120,1998,914,148,57,Sold,,,https://www.redfin.com/MD/Gaithersburg/20709-Delta-Dr-20882/home/10489578,BRIGHT MLS,1006151626,N,Y,39.1960088,-77.1563579
PAST SALE,October-15-2020,Single Family Residential,8302 Brink Rd,Laytonsville,MD,20882,760000,5,4.5,GOSHEN ESTATES,5277,88427,2000,416,144,,Sold,,,https://www.redfin.com/MD/Laytonsville/8302-Brink-Rd-20882/home/10489733,BRIGHT MLS,MDMC722492,N,Y,39.2071054,-77.1696806
PAST SALE,February-28-2019,Single Family Residential,21517 Ripplemead Dr,Gaithersburg,MD,20882,825000,4,5.5,FAIRHILL,6174,91040,1999,1011,134,50,Sold,,,https://www.redfin.com/MD/Laytonsville/21517-Ripplemead-Dr-20882/home/10489666,BRIGHT MLS,1007537806,N,Y,39.2077043,-77.1006782
PAST SALE,December-12-2019,Single Family Residential,6313 Holland Meadow Ln,Laytonsville,MD,20882,730000,5,4.5,BROOKEFIELD,5024,45237,2001,724,145,63,Sold,,,https://www.redfin.com/MD/Laytonsville/6313-Holland-Meadow-Ln-20882/home/11160753,BRIGHT MLS,MDMC675268,N,Y,39.1804565,-77.1293664
PAST SALE,November-5-2020,Single Family Residential,7912 Windsor Knoll Ln,Laytonsville,MD,20882,900000,6,4.5,GOSHEN ESTATES,4812,189922,1997,395,187,58,Sold,,,https://www.redfin.com/MD/Laytonsville/7912-Windsor-Knoll-Ln-20882/home/10489645,BRIGHT MLS,MDMC727384,N,Y,39.19593,-77.164325
PAST SALE,,Single Family Residential,6104 Golf Estates Ct,Laytonsville,MD,20882,917500,6,5.5,,7000,90605,2002,,131,,,,,https://www.redfin.com/MD/Laytonsville/6104-Golf-Estates-Ct-20882/home/11161142,,,N,Y,39.210082,-77.11834
PAST SALE,December-4-2020,Single Family Residential,6307 Grafton Farm Dr,Gaithersburg,MD,20882,851000,5,4.5,BROOKEFIELD,4868,46468,2002,366,175,62,Sold,,,https://www.redfin.com/MD/Laytonsville/6307-Grafton-Farm-Dr-20882/home/11161340,BRIGHT MLS,MDMC733790,N,Y,39.181474,-77.126418
PAST SALE,December-11-2019,Single Family Residential,22305 Bertie Farm Ct,Laytonsville,MD,20882,855000,4,4.5,GREENHILLS FARM,6250,87120,2003,725,137,108,Sold,,,https://www.redfin.com/MD/Laytonsville/22305-Bertie-Farm-Ct-20882/home/11172091,BRIGHT MLS,MDMC682582,N,Y,39.2186111,-77.1759483
PAST SALE,February-24-2020,Single Family Residential,8610 Augusta Farm Ln,Laytonsville,MD,20882,910000,4,5.5,GREENHILLS FARM,6778,87120,2002,650,134,108,Sold,,,https://www.redfin.com/MD/Laytonsville/8610-Augusta-Farm-Ln-20882/home/11172110,BRIGHT MLS,MDMC656596,N,Y,39.2206442,-77.1784193
PAST SALE,May-23-2019,Single Family Residential,8614 Augusta Farm Ln,Laytonsville,MD,20882,820000,4,4.5,GREENHILLS FARM,5889,87120,2002,927,139,63,Sold,,,https://www.redfin.com/MD/Laytonsville/8614-Augusta-Farm-Ln-20882/home/11172112,BRIGHT MLS,MDMC487874,N,Y,39.2194133,-77.178307
PAST SALE,December-28-2020,Single Family Residential,9103 Charlie Farm Ct,Laytonsville,MD,20882,750000,5,3.5,GREENHILLS FARM,5571,148540,2003,342,135,,Sold,,,https://www.redfin.com/MD/Laytonsville/9103-Charlie-Farm-Ct-20882/home/11187479,BRIGHT MLS,MDMC733456,N,Y,39.2214989,-77.1807106
PAST SALE,August-15-2019,Single Family Residential,20805 Fairway View Dr,Laytonsville,MD,20882,899000,5,4.5,GOLF ESTATES,6076,114127,2004,843,148,65,Sold,,,https://www.redfin.com/MD/Laytonsville/20805-Fairway-View-Dr-20882/home/11172185,BRIGHT MLS,MDMC655030,N,Y,39.197698,-77.128326
PAST SALE,August-31-2020,Single Family Residential,7403 White House Ln,Laytonsville,MD,20882,868000,5,5.5,LAYTONSVILLE PRESERVE,5892,53198,2016,461,147,71,Sold,,,https://www.redfin.com/MD/Gaithersburg/7403-White-House-Ln-20882/home/85694485,BRIGHT MLS,MDMC698236,N,Y,39.2108249,-77.1444943
PAST SALE,July-15-2019,Single Family Residential,24221 Club View Dr,Gaithersburg,MD,20882,385000,4,2.0,THE PLANTATIONS,2279,10001,1983,874,169,14,Sold,,,https://www.redfin.com/MD/Gaithersburg/24221-Club-View-Dr-20882/home/10938115,BRIGHT MLS,MDMC654764,N,Y,39.2535992,-77.2050134
PAST SALE,May-18-2020,Single Family Residential,8809 Goshen Mill Ct,Gaithersburg,MD,20882,950000,5,5.5,LAYTONSVILLE OUTSIDE,7482,197327,1998,566,127,,Sold,,,https://www.redfin.com/MD/Gaithersburg/8809-Goshen-Mill-Ct-20882/home/10489611,BRIGHT MLS,MDMC702512,N,Y,39.2032337,-77.1815418
PAST SALE,,Single Family Residential,9848 Mainsail Dr,Gaithersburg,MD,20879,519999,,3.5,,3132,14763,1987,,166,,,,,https://www.redfin.com/MD/Gaithersburg/9848-Mainsail-Dr-20879/home/10838731,,,N,Y,39.1924046,-77.2054177
PAST SALE,August-31-2020,Single Family Residential,10133 Peanut Mill Dr,Gaithersburg,MD,20882,510000,4,3.5,THE PLANTATIONS,1878,18152,1984,461,272,14,Sold,,,https://www.redfin.com/MD/Gaithersburg/10133-Peanut-Mill-Dr-20882/home/10939787,BRIGHT MLS,MDMC718672,N,Y,39.2547978,-77.2107627
PAST SALE,September-28-2021,Single Family Residential,24108 Doreen Dr,Gaithersburg,MD,20882,435000,3,2.0,DAMASCUS OUTSIDE,1431,33029,1962,68,304,,Sold,,,https://www.redfin.com/MD/Gaithersburg/24108-Doreen-Dr-20882/home/10931939,BRIGHT MLS,MDMC2008632,N,Y,39.2506465,-77.1933704
PAST SALE,November-8-2019,Single Family Residential,21304 Birdie Ln,Gaithersburg,MD,20882,890000,5,5.5,GOLF ESTATES,7347,87556,1996,758,121,,Sold,,,https://www.redfin.com/MD/Gaithersburg/21304-Birdie-Ln-20882/home/10484936,BRIGHT MLS,MDMC100037,N,Y,39.2068608,-77.1288765
PAST SALE,December-14-2018,Single Family Residential,24300 Welsh Rd,Gaithersburg,MD,20882,325000,2,1.0,MID COUNTY VIEW,2087,30610,1959,1087,156,,Sold,,,https://www.redfin.com/MD/Gaithersburg/24300-Welsh-Rd-20882/home/10932268,BRIGHT MLS,1002128314,N,Y,39.2548818,-77.2043397
PAST SALE,May-26-2021,Single Family Residential,7920 Warfield Rd,Gaithersburg,MD,20882,850000,4,4.5,GOSHEN ESTATES,4098,36781,1987,193,207,,Sold,,,https://www.redfin.com/MD/Gaithersburg/7920-Warfield-Rd-20882/home/10486211,BRIGHT MLS,MDMC754734,N,Y,39.1936342,-77.1626488
PAST SALE,March-8-2019,Single Family Residential,9704 Dixie Ridge Ter,Gaithersburg,MD,20882,515000,4,3.0,THE PLANTATIONS,2842,9375,1987,1003,181,73,Sold,,,https://www.redfin.com/MD/Gaithersburg/9704-Dixie-Ridge-Ter-20882/home/10941847,BRIGHT MLS,MDMC485200,N,Y,39.2472779,-77.200375
PAST SALE,April-12-2021,Single Family Residential,24118 Welsh Rd,Gaithersburg,MD,20882,495000,4,3.0,THE PLANTATIONS,2485,14281,1981,237,199,14,Sold,,,https://www.redfin.com/MD/Gaithersburg/24118-Welsh-Rd-20882/home/10936633,BRIGHT MLS,MDMC2000442,N,Y,39.2514903,-77.2038231
PAST SALE,May-29-2020,Vacant Land,21500 Ripplemead Dr,Gaithersburg,MD,20882,899900,,,FAIRHILL,,290980,,555,,,Sold,,,https://www.redfin.com/MD/Gaithersburg/21500-Ripplemead-Dr-20882/home/10485221,BRIGHT MLS,MDMC703328,N,Y,39.207707,-77.104103
PAST SALE,March-2-2021,Single Family Residential,21242 Cracklin Rd,Laytonsville,MD,20882,1350000,6,6.5,LAYTONSVILLE PRESERVE,7005,63151,2017,278,193,70,Sold,,,https://www.redfin.com/MD/Gaithersburg/21242-Cracklin-Rd-20882/home/85694526,BRIGHT MLS,MDMC736454,N,Y,39.2029984,-77.1457762
PAST SALE,October-30-2020,Townhouse,9555 White Pillar Ter,Gaithersburg,MD,20882,366000,5,3.0,THE PLANTATIONS,1640,1800,1988,401,223,91,Sold,,,https://www.redfin.com/MD/Gaithersburg/9555-White-Pillar-Ter-20882/home/10941942,BRIGHT MLS,MDMC726236,N,Y,39.2476619,-77.1971414
PAST SALE,September-10-2021,Single Family Residential,8206 Bondage Dr,Gaithersburg,MD,20882,545000,4,3.0,GOSHEN ESTATES,2496,67082,1972,86,218,,Sold,,,https://www.redfin.com/MD/Gaithersburg/8206-Bondage-Dr-20882/home/10483636,BRIGHT MLS,MDMC2007888,N,Y,39.2004201,-77.1693886
PAST SALE,April-27-2020,Single Family Residential,9135 Goshen Valley Dr,Gaithersburg,MD,20882,780000,4,4.5,GREENHILLS FARM,5458,99752,1989,587,143,30,Sold,,,https://www.redfin.com/MD/Gaithersburg/9135-Goshen-Valley-Dr-20882/home/10488141,BRIGHT MLS,MDMC665162,N,Y,39.217583,-77.18516
PAST SALE,October-18-2021,Single Family Residential,23736 Woodfield Rd,Gaithersburg,MD,20882,431000,3,1.5,DAMASCUS OUTSIDE,1440,21780,1920,48,299,,Sold,,,https://www.redfin.com/MD/Gaithersburg/23736-Woodfield-Rd-20882/home/10928266,BRIGHT MLS,MDMC2013346,N,Y,39.2461415,-77.1906182
PAST SALE,,Single Family Residential,5 Bell Bluff Ct,Gaithersburg,MD,20879,395000,,2.5,,2710,53008,1978,,146,,,,,https://www.redfin.com/MD/Gaithersburg/5-Bell-Bluff-Ct-20879/home/10779081,,,N,Y,39.195101,-77.200719
PAST SALE,June-2-2021,Single Family Residential,24311 Flamingo Ter,Gaithersburg,MD,20882,560000,4,3.5,THE PLANTATIONS,2785,14373,1978,186,201,14,Sold,,,https://www.redfin.com/MD/Gaithersburg/24311-Flamingo-Ter-20882/home/10935497,BRIGHT MLS,MDMC749630,N,Y,39.2553506,-77.2024531
PAST SALE,August-7-2019,Single Family Residential,23605 White Peach Ct,Gaithersburg,MD,20882,684950,4,3.5,WOODFIELD ESTATES,5225,52707,2001,851,131,75,Sold,,,https://www.redfin.com/MD/Gaithersburg/23605-White-Peach-Ct-20882/home/11170342,BRIGHT MLS,MDMC653200,N,Y,39.2447937,-77.185409
PAST SALE,October-16-2020,Townhouse,9524 Melrose Square Way,Gaithersburg,MD,20882,400000,3,3.5,THE PLANTATIONS,2038,2790,1987,415,196,91,Sold,,,https://www.redfin.com/MD/Gaithersburg/9524-Melrose-Square-Way-20882/home/10941136,BRIGHT MLS,MDMC724664,N,Y,39.249329,-77.1970515
PAST SALE,May-17-2021,Single Family Residential,24513 Etchison Dr,Gaithersburg,MD,20882,455000,3,2.0,SENECA OVERLOOK,1394,30436,1973,202,326,,Sold,,,https://www.redfin.com/MD/Gaithersburg/24513-Etchison-Dr-20882/home/10483780,BRIGHT MLS,MDMC748122,N,Y,39.2589292,-77.1497072
PAST SALE,July-13-2021,Single Family Residential,21904 Foxlair Rd,Gaithersburg,MD,20882,650000,4,3.5,FOXLAIR ACRES,2816,74410,1985,145,231,,Sold,,,https://www.redfin.com/MD/Gaithersburg/21904-Foxlair-Rd-20882/home/10484003,BRIGHT MLS,MDMC758506,N,Y,39.2164042,-77.1962991
PAST SALE,,Single Family Residential,24330 Woodfield School Rd,Gaithersburg,MD,20882,150000,,1.0,,528,138521,1900,,284,,,,,https://www.redfin.com/MD/Gaithersburg/24330-Woodfield-School-Rd-20882/home/10931152,,,N,Y,39.254306,-77.190346
PAST SALE,August-31-2021,Single Family Residential,22500 Robin Ct,Gaithersburg,MD,20882,615000,4,2.5,WARD FARM ESTATES,2414,49562,1977,96,255,,Sold,,,https://www.redfin.com/MD/Gaithersburg/22500-Robin-Ct-20882/home/10483718,BRIGHT MLS,MDMC760464,N,Y,39.2252129,-77.18232
PAST SALE,May-25-2021,Single Family Residential,24409 Club View Dr,Damascus,MD,20872,610000,4,3.5,MID COUNTY VIEW,2801,15600,1983,194,218,,Sold,,,https://www.redfin.com/MD/Damascus/24409-Club-View-Dr-20872/home/10937612,BRIGHT MLS,MDMC753864,N,Y,39.2568083,-77.2047888
PAST SALE,April-30-2021,Single Family Residential,9204 Huntmaster Rd,Gaithersburg,MD,20882,965500,5,3.5,OVERLOOK HILLS,4600,87120,1994,219,210,,Sold,,,https://www.redfin.com/MD/Gaithersburg/9204-Huntmaster-Rd-20882/home/10489499,BRIGHT MLS,MDMC745592,N,Y,39.212243,-77.1897854
PAST SALE,August-19-2020,Single Family Residential,9342 Hawkins Creamery Rd,Gaithersburg,MD,20882,436000,4,3.0,DAMASCUS OUTSIDE,2264,149846,1964,473,193,,Sold,,,https://www.redfin.com/MD/Gaithersburg/9342-Hawkins-Creamery-Rd-20882/home/10929901,BRIGHT MLS,MDMC716554,N,Y,39.266377,-77.1922935
PAST SALE,March-17-2020,Single Family Residential,248 Barberry Ln,Laytonsville,MD,20882,860478,5,4.5,Laytonsville,4136,59921,2020,628,208,,Sold,,,https://www.redfin.com/MD/Laytonsville/248-Barberry-Ln-20882/home/166091023,BRIGHT MLS,MDMC700774,N,Y,39.2080683,-77.138213
PAST SALE,April-8-2021,Single Family Residential,20238 Sweet Mdw,Laytonsville,MD,20882,800000,4,3.5,LAYTONSVILLE KNOLLS,5543,52564,1993,241,144,,Sold,,,https://www.redfin.com/MD/Gaithersburg/20238-Sweet-Meadow-Ln-20882/home/10488459,BRIGHT MLS,MDMC746964,N,Y,39.1946584,-77.133371
PAST SALE,April-26-2019,Single Family Residential,6404 Damascus Rd,Gaithersburg,MD,20882,565000,4,2.5,LAYTONSVILLE OUTSIDE,3224,224334,1995,954,175,,Sold,,,https://www.redfin.com/MD/Gaithersburg/6404-Damascus-Rd-20882/home/10489552,BRIGHT MLS,MDMC620146,N,Y,39.248148,-77.1319709
PAST SALE,November-6-2020,Single Family Residential,24010 Sugar Cane Ln,Gaithersburg,MD,20882,563000,5,3.5,THE PLANTATIONS,2960,16513,1983,394,190,14,Sold,,,https://www.redfin.com/MD/Gaithersburg/24010-Sugar-Cane-Ln-20882/home/10939648,BRIGHT MLS,MDMC728274,N,Y,39.2507993,-77.2060465
PAST SALE,October-28-2021,Single Family Residential,5300 Griffith Rd,Gaithersburg,MD,20882,775000,6,3.5,LAYTONSVILLE OUTSIDE,2991,87120,1987,38,259,,Sold,,,https://www.redfin.com/MD/Gaithersburg/5300-Griffith-Rd-20882/home/10484647,BRIGHT MLS,MDMC2007026,N,Y,39.2302248,-77.1064013
PAST SALE,October-28-2020,Vacant Land,24232 Primula Ct,Gaithersburg,MD,20882,300000,,,WOODFIELD ESTATES,,136343,,403,,,Sold,,,https://www.redfin.com/MD/Gaithersburg/24232-Primula-Ct-20882/home/11193485,BRIGHT MLS,MDMC698792,N,Y,39.256988,-77.178301
PAST SALE,August-9-2019,Townhouse,9720 Ambergate Ct,Gaithersburg,MD,20882,250000,3,1.5,THE PLANTATIONS,1080,3200,1980,849,231,20,Sold,,,https://www.redfin.com/MD/Gaithersburg/9720-Ambergate-Ct-20882/home/10936552,BRIGHT MLS,MDMC652286,N,Y,39.2508335,-77.2013301
PAST SALE,April-30-2021,Vacant Land,8365 Warfield Rd,Gaithersburg,MD,20882,180000,,,LAYTONSVILLE OUTSIDE,,118048,,219,,,Sold,,,https://www.redfin.com/MD/Gaithersburg/8365-Warfield-Rd-20882/home/40273816,BRIGHT MLS,MDMC671214,N,Y,39.1910191,-77.1736101
PAST SALE,September-2-2021,Single Family Residential,20806 Fairway View Dr,Laytonsville,MD,20882,1250000,4,6.0,GOLF ESTATES,7500,150282,2004,94,167,77,Sold,,,https://www.redfin.com/MD/Laytonsville/20806-Fairway-View-Dr-20882/home/11172165,BRIGHT MLS,MDMC763712,N,Y,39.199233,-77.129796
PAST SALE,September-11-2020,Single Family Residential,9102 Charlie Farm Ct,Gaithersburg,MD,20882,880000,4,4.5,GREENHILLS FARM,5652,93218,2003,450,156,,Sold,,,https://www.redfin.com/MD/Laytonsville/9102-Charlie-Farm-Ct-20882/home/11187468,BRIGHT MLS,MDMC717550,N,Y,39.2218437,-77.1816541
PAST SALE,August-31-2020,Single Family Residential,6820 Maple Knoll Dr,Laytonsville,MD,20882,999990,5,6.5,LAYTONSVILLE TOWN,5300,87991,2019,461,189,68,Sold,,,https://www.redfin.com/MD/Laytonsville/6820-Maple-Knoll-Dr-20882/home/146465666,BRIGHT MLS,MDMC707842,N,Y,39.2061175,-77.1342603
PAST SALE,July-31-2020,Single Family Residential,21116 Golf Estates Dr,Laytonsville,MD,20882,839900,4,4.5,GOLF ESTATES,6981,87120,1999,492,120,,Sold,,,https://www.redfin.com/MD/Laytonsville/21116-Golf-Estates-Dr-20882/home/10484930,BRIGHT MLS,MDMC709486,N,Y,39.2058437,-77.1299548
PAST SALE,March-12-2021,Single Family Residential,23410 Kimblehunt Pl,Gaithersburg,MD,20882,737000,5,3.5,DAMASCUS OUTSIDE,3920,95832,2010,268,188,50,Sold,,,https://www.redfin.com/MD/Gaithersburg/23410-Kimblehunt-Pl-20882/home/49781504,BRIGHT MLS,MDMC740464,N,Y,39.239445,-77.1860758
PAST SALE,November-3-2021,Single Family Residential,8117 Whirlwind Ct,Gaithersburg,MD,20882,710000,4,3.5,GOSHEN ESTATES,3176,173804,1977,32,224,,Sold,,,https://www.redfin.com/MD/Gaithersburg/8117-Whirlwind-Ct-20882/home/10484080,BRIGHT MLS,MDMC2014982,N,Y,39.1914788,-77.169119
PAST SALE,April-2-2020,Single Family Residential,6304 Grafton Farm Dr,Laytonsville,MD,20882,715000,4,4.5,BROOKEFIELD,6000,41996,2002,612,119,,Sold,,,https://www.redfin.com/MD/Laytonsville/6304-Grafton-Farm-Dr-20882/home/11161316,BRIGHT MLS,MDMC696176,N,Y,39.1806619,-77.1272931
PAST SALE,July-14-2021,Single Family Residential,7311 Rosewood Manor Ln,Laytonsville,MD,20882,634900,4,3.0,ROSEWOOD ESTATES,1892,54691,1992,144,336,27,Sold,,,https://www.redfin.com/MD/Gaithersburg/7311-Rosewood-Manor-Ln-20882/home/10488594,BRIGHT MLS,MDMC756342,N,Y,39.1921794,-77.1503364
PAST SALE,January-22-2021,Single Family Residential,8304 Exodus Dr,Gaithersburg,MD,20882,736300,4,3.5,GOSHEN ESTATES,3333,90169,1970,317,221,,Sold,,,https://www.redfin.com/MD/Gaithersburg/8304-Exodus-Dr-20882/home/10483553,BRIGHT MLS,MDMC730976,N,Y,39.1978971,-77.170225
PAST SALE,March-12-2020,Single Family Residential,256 Barberry Ln,Laytonsville,MD,20882,998000,5,5.5,LAYTONSVILLE,5400,57288,2019,633,185,50,Sold,,,https://www.redfin.com/MD/Laytonsville/256-Barberry-Ln-20882/home/148723714,BRIGHT MLS,MDMC690660,N,Y,39.2090087,-77.1381953
PAST SALE,February-8-2021,Single Family Residential,22305 Fitzgerald Dr,Laytonsville,MD,20882,1197800,5,6.0,GRIFFITH PARK,12006,243936,1990,300,100,,Sold,,,https://www.redfin.com/MD/Gaithersburg/22305-Fitzgerald-Dr-20882/home/10484305,BRIGHT MLS,MDMC720620,N,Y,39.222934,-77.11497
PAST SALE,August-31-2020,Ranch,5011 Riggs Rd,Gaithersburg,MD,20882,1700000,1,1.0,LAYTONSVILLE OUTSIDE,32000,3692145,1995,461,53,,Sold,,,https://www.redfin.com/MD/Gaithersburg/5011-Riggs-Rd-20882/home/145993622,BRIGHT MLS,MDMC619992,N,Y,39.203412,-77.100943
PAST SALE,December-28-2020,Single Family Residential,6408 Damascus Rd,Gaithersburg,MD,20882,810000,6,3.5,LAYTONSVILLE OUTSIDE,3772,174676,1995,342,215,,Sold,,,https://www.redfin.com/MD/Gaithersburg/6408-Damascus-Rd-20882/home/10489550,BRIGHT MLS,MDMC723350,N,Y,39.2488365,-77.1313935
PAST SALE,October-29-2020,Single Family Residential,24020 Laytonsville Rd,Gaithersburg,MD,20882,511000,3,2.5,LAYTONSVILLE OUTSIDE,2224,70834,1974,402,230,,Sold,,,https://www.redfin.com/MD/Gaithersburg/24020-Laytonsville-Rd-20882/home/10483135,BRIGHT MLS,MDMC722910,N,Y,39.2508364,-77.1448088
PAST SALE,November-19-2021,Single Family Residential,25024 Woodfield School Rd,Gaithersburg,MD,20882,935000,5,5.0,HICKORY RIDGE,6322,163350,1996,16,148,,Sold,,,https://www.redfin.com/MD/Gaithersburg/25024-Woodfield-School-Rd-20882/home/10939250,BRIGHT MLS,MDMC2001211,N,Y,39.2691015,-77.1770207
PAST SALE,,Vacant Land,6931 Damascus Rd,Gaithersburg,MD,20882,39000,,,,,215186,,,,,,,,https://www.redfin.com/MD/Gaithersburg/6931-Damascus-Rd-20882/home/10487046,,,N,Y,39.254838,-77.141268
PAST SALE,November-27-2019,Single Family Residential,10220 Peanut Mill Dr,Gaithersburg,MD,20882,331000,3,2.0,THE PLANTATIONS,1806,8960,1984,739,183,14,Sold,,,https://www.redfin.com/MD/Gaithersburg/10220-Peanut-Mill-Dr-20882/home/10939846,BRIGHT MLS,MDMC680782,N,Y,39.2539487,-77.2097143
PAST SALE,October-30-2019,Single Family Residential,20612 Bell Bluff Rd,Gaithersburg,MD,20879,429900,4,3.0,GOSHEN ESTATES,1882,11453,1985,767,228,18,Sold,,,https://www.redfin.com/MD/Gaithersburg/20612-Bell-Bluff-Rd-20879/home/10838655,BRIGHT MLS,MDMC680296,N,Y,39.1934518,-77.2070406
PAST SALE,March-20-2019,Single Family Residential,9909 Mainsail Dr,Gaithersburg,MD,20879,490000,4,3.5,GOSHEN ESTATES,2906,10650,1986,991,169,19,Sold,,,https://www.redfin.com/MD/Gaithersburg/9909-Mainsail-Dr-20879/home/10838676,BRIGHT MLS,MDMC618624,N,Y,39.1927993,-77.2071694
PAST SALE,September-27-2019,Single Family Residential,9809 Mainsail Dr,Gaithersburg,MD,20879,500000,4,3.5,GOSHEN ESTATES,2532,21212,1987,800,197,19,Sold,,,https://www.redfin.com/MD/Gaithersburg/9809-Mainsail-Dr-20879/home/10838771,BRIGHT MLS,MDMC664772,N,Y,39.193405,-77.202081
PAST SALE,December-28-2018,Single Family Residential,9129 Goshen Valley Dr,Gaithersburg,MD,20882,699000,5,4.5,GREENHILLS FARM,5198,89298,1989,1073,134,27,Sold,,,https://www.redfin.com/MD/Gaithersburg/9129-Goshen-Valley-Dr-20882/home/10488143,BRIGHT MLS,MDMC453982,N,Y,39.216826,-77.184708
PAST SALE,July-25-2019,Single Family Residential,9808 Mainsail Dr,Gaithersburg,MD,20879,500000,4,3.5,GOSHEN ESTATES,3076,14544,1986,864,163,19,Sold,,,https://www.redfin.com/MD/Gaithersburg/9808-Mainsail-Dr-20879/home/10838784,BRIGHT MLS,MDMC661634,N,Y,39.1927322,-77.2023532
PAST SALE,February-20-2020,Single Family Residential,5619 Riggs Rd,Gaithersburg,MD,20882,501000,4,2.0,LAYTONSVILLE OUTSIDE,2255,174240,1963,654,222,,Sold,,,https://www.redfin.com/MD/Gaithersburg/5619-Riggs-Rd-20882/home/10482947,BRIGHT MLS,MDMC693586,N,Y,39.2059318,-77.1146951
PAST SALE,January-19-2021,Single Family Residential,8713 Hawkins Creamery Rd,Gaithersburg,MD,20882,450000,3,2.0,HICKORY RIDGE,2436,24943,1975,320,185,,Sold,,,https://www.redfin.com/MD/Gaithersburg/8713-Hawkins-Creamery-Rd-20882/home/10930963,BRIGHT MLS,MDMC730346,N,Y,39.2678174,-77.1802653
PAST SALE,May-28-2021,Single Family Residential,9304 Huntmaster Rd,Gaithersburg,MD,20882,950000,5,3.5,OVERLOOK HILLS,5272,87120,1994,191,180,,Sold,,,https://www.redfin.com/MD/Gaithersburg/9304-Huntmaster-Rd-20882/home/10489495,BRIGHT MLS,MDMC755946,N,Y,39.2138434,-77.1925367
PAST SALE,September-29-2021,Single Family Residential,9800 Mainsail Dr,Gaithersburg,MD,20879,599900,4,2.5,GOSHEN ESTATES,3718,24602,1986,67,161,19,Sold,,,https://www.redfin.com/MD/Gaithersburg/9800-Mainsail-Dr-20879/home/10838778,BRIGHT MLS,MDMC2008258,N,Y,39.192808,-77.201498
PAST SALE,June-27-2019,Townhouse,9514 White Pillar Ter,Gaithersburg,MD,20882,310000,3,3.5,THE PLANTATIONS,1640,1800,1987,892,189,84,Sold,,,https://www.redfin.com/MD/Gaithersburg/9514-White-Pillar-Ter-20882/home/10942069,BRIGHT MLS,MDMC659706,N,Y,39.247811,-77.196083
PAST SALE,July-30-2020,Single Family Residential,20941 Lochaven Ct,Gaithersburg,MD,20882,735000,5,4.5,GOSHEN ESTATES,4638,72537,1989,493,158,,Sold,,,https://www.redfin.com/MD/Gaithersburg/20941-Lochaven-Ct-20882/home/10483862,BRIGHT MLS,MDMC713640,N,Y,39.200446,-77.1794751
PAST SALE,November-12-2020,Single Family Residential,21305 Bourdeaux Pl,Laytonsville,MD,20882,855000,4,3.5,LAYTONSVILLE OUTSIDE,5206,87120,2001,388,164,,Sold,,,https://www.redfin.com/MD/Gaithersburg/21305-Bourdeaux-Pl-20882/home/10489520,BRIGHT MLS,MDMC728238,N,Y,39.2059785,-77.1746229
PAST SALE,June-2-2021,Single Family Residential,7036 Warfield Rd,Gaithersburg,MD,20882,409000,3,2.5,LAYTONSVILLE OUTSIDE,1821,18827,1933,186,225,,Sold,,,https://www.redfin.com/MD/Gaithersburg/7036-Warfield-Rd-20882/home/10483367,BRIGHT MLS,MDMC754834,N,Y,39.1977098,-77.1436853
