SALE TYPE,SOLD DATE,PROPERTY TYPE,ADDRESS,CITY,STATE OR PROVINCE,ZIP OR POSTAL CODE,PRICE,BEDS,BATHS,LOCATION,SQUARE FEET,LOT SIZE,YEAR BUILT,DAYS ON MARKET,$/SQUARE FEET,HOA/MONTH,STATUS,NEXT OPEN HOUSE START TIME,NEXT OPEN HOUSE END TIME,URL (SEE https://www.redfin.com/buy-a-home/comparative-market-analysis FOR INFO ON PRICING),SOURCE,MLS#,FAVORITE,INTERESTED,LATITUDE,LONGITUDE
PAST SALE,February-24-2021,Single Family Residential,1705 Connor Pl,Forest Hill,MD,21050,400000,3,2.5,DURHAM MANOR,1728,7230,1992,284,231,20,Sold,,,https://www.redfin.com/MD/Forest-Hill/1705-Connor-Pl-21050/home/14506886,BRIGHT MLS,MDHR255366,N,Y,39.559457,-76.3800297
PAST SALE,February-19-2021,Townhouse,2222 Cantley Dr,Forest Hill,MD,21050,230000,3,2.0,BELLE MANOR,1772,2000,1994,289,130,55,Sold,,,https://www.redfin.com/MD/Forest-Hill/2222-Cantley-Dr-21050/home/14508416,BRIGHT MLS,MDHR253476,N,Y,39.5750348,-76.3602539
PAST SALE,December-5-2019,Townhouse,284 Spencer Cir,Forest Hill,MD,21050,246700,4,2.5,SPENCEOLA FARMS,1600,2040,1995,731,154,47,Sold,,,https://www.redfin.com/MD/Forest-Hill/284-Spencer-Cir-21050/home/14534980,BRIGHT MLS,MDHR237536,N,Y,39.5636244,-76.3707876
PAST SALE,March-15-2019,Single Family Residential,1419c-C Sharon Acres Rd,Forest Hill,MD,21050,549900,5,3.0,FOREST HILL,4200,130244,2005,996,131,,Sold,,,https://www.redfin.com/MD/Forest-Hill/1419-Sharon-Acres-Rd-21050/unit-C/home/14559491,BRIGHT MLS,MDHR179578,N,Y,39.5906755,-76.4260306
PAST SALE,October-29-2021,Single Family Residential,824 Bear Cabin Dr,Forest Hill,MD,21050,490000,5,3.5,FOREST LAKES,2470,11808,1993,37,198,3,Sold,,,https://www.redfin.com/MD/Forest-Hill/824-Bear-Cabin-Dr-21050/home/14488181,BRIGHT MLS,MDHR2000390,N,Y,39.5608322,-76.3882586
PAST SALE,April-10-2020,Single Family Residential,2714 Grier Nursery Rd,Forest Hill,MD,21050,372000,4,2.5,Forest Hill,2500,21126,1969,604,149,,Sold,,,https://www.redfin.com/MD/Forest-Hill/2714-Grier-Nursery-Rd-21050/home/14511888,BRIGHT MLS,MDHR244288,N,Y,39.5996794,-76.3902932
PAST SALE,,Single Family Residential,1806 Belvue Dr,Forest Hill,MD,21050,395000,,2.5,,2468,37202,1989,,160,,,,,https://www.redfin.com/MD/Forest-Hill/1806-Belvue-Dr-21050/home/14514869,,,N,Y,39.5580361,-76.4114507
PAST SALE,,Single Family Residential,2211 Grafton Shop Rd,Forest Hill,MD,21050,365000,,2.0,,1876,20000,1969,,195,,,,,https://www.redfin.com/MD/Forest-Hill/2211-Grafton-Shop-Rd-21050/home/14558577,,,N,Y,39.5776126,-76.4023642
PAST SALE,August-24-2021,Single Family Residential,115 Aqueduct Ct,Forest Hill,MD,21050,560000,4,3.5,FOREST LAKES,4256,11497,2001,103,132,37,Sold,,,https://www.redfin.com/MD/Forest-Hill/115-Aqueduct-Ct-21050/home/14540580,BRIGHT MLS,MDHR2001022,N,Y,39.5661025,-76.3779045
PAST SALE,June-20-2019,Single Family Residential,119 Wagner Way,Forest Hill,MD,21050,449000,4,3.0,FOREST GLEN,3879,9176,2002,899,116,21,Sold,,,https://www.redfin.com/MD/Forest-Hill/119-Wagner-Way-21050/home/14536442,BRIGHT MLS,MDHR223030,N,Y,39.5701364,-76.3721619
PAST SALE,,Single Family Residential,1638 Honeysuckle Dr,Forest Hill,MD,21050,329999,,3.0,,1935,12880,1970,,171,,,,,https://www.redfin.com/MD/Forest-Hill/1638-Honeysuckle-Dr-21050/home/14516884,,,N,Y,39.55538,-76.3834208
PAST SALE,November-12-2021,Condo/Co-op,110 Gwen Dr Unit 2H,Forest Hill,MD,21050,180000,2,2.0,COURTYARDS @ POND,1185,,1994,23,152,215,Sold,,,https://www.redfin.com/MD/Forest-Hill/110-Gwen-Dr-21050/unit-2H/home/14554420,BRIGHT MLS,MDHR2000169,N,Y,39.563304,-76.378615
PAST SALE,March-10-2020,Single Family Residential,820 Bear Cabin Dr,Forest Hill,MD,21050,382500,4,2.5,FOREST LAKES,2208,14790,1992,635,173,6,Sold,,,https://www.redfin.com/MD/Forest-Hill/820-Bear-Cabin-Dr-21050/home/14554358,BRIGHT MLS,MDHR242476,N,Y,39.5607794,-76.3876483
PAST SALE,November-13-2020,Townhouse,2095 Brandy Dr,Forest Hill,MD,21050,318000,3,3.0,ROSEFIELDS,2374,6297,1998,387,134,,Sold,,,https://www.redfin.com/MD/Forest-Hill/2095-Brandy-Dr-21050/home/14532863,BRIGHT MLS,MDHR252210,N,Y,39.5661364,-76.3879647
PAST SALE,August-30-2021,Single Family Residential,1917 Bowen Way,Forest Hill,MD,21050,485000,4,3.0,FOREST LAKES,3860,10000,1992,97,126,3,Sold,,,https://www.redfin.com/MD/Forest-Hill/1917-Bowen-Way-21050/home/14525642,BRIGHT MLS,MDHR2000980,N,Y,39.5622312,-76.38562
MLS Listing,,Single Family Residential,1721 Campbell Rd,Forest Hill,MD,21050,599000,4,2.5,PLEASANT VIEW FARMS,3311,45738,1985,4,181,,Active,,,https://www.redfin.com/MD/Forest-Hill/1721-Campbell-Rd-21050/home/14538348,BRIGHT MLS,MDHR2005840,N,Y,39.5558175,-76.4255086
MLS Listing,,Townhouse,203 Columbine Ct,Forest Hill,MD,21050,152000,2,1.0,BYNUM WOODS,832,436,1968,5,183,115,Active,,,https://www.redfin.com/MD/Forest-Hill/203-Columbine-Ct-21050/home/14562954,BRIGHT MLS,MDHR2005956,N,Y,39.570808,-76.365909
MLS Listing,,Single Family Residential,1715 Morning Brook Dr,Forest Hill,MD,21050,699900,4,2.5,MORNING BROOK,4621,83200,2004,6,151,13,Active,,,https://www.redfin.com/MD/Forest-Hill/1715-Morning-Brook-Dr-21050/home/14501039,BRIGHT MLS,MDHR2005896,N,Y,39.5763562,-76.4534617
MLS Listing,,Single Family Residential,2004 Bay Meadows Ct,Forest Hill,MD,21050,475000,4,3.5,FOREST LAKES,2189,12115,1996,15,217,19,Active,,,https://www.redfin.com/MD/Forest-Hill/2004-Bay-Meadows-Ct-21050/home/14518944,BRIGHT MLS,MDHR2005564,N,Y,39.5654583,-76.3838239
MLS Listing,,Single Family Residential,2402 Scotlon Ct,Forest Hill,MD,21050,994560,6,5.0,Forest Hill,4868,115870,2021,21,204,108,Active,,,https://www.redfin.com/MD/Forest-Hill/2402-Scotlon-CT-21050/home/174964457,BRIGHT MLS,MDHR2005232,N,Y,39.56462,-76.37644
MLS Listing,,Condo/Co-op,107-B Sunshine Ct,Forest Hill,MD,21050,205000,2,2.0,DURHAM MANOR,1330,,1999,32,154,295,Active,,,https://www.redfin.com/MD/Forest-Hill/107-Sunshine-Ct-21050/unit-B/home/14530579,BRIGHT MLS,MDHR2005182,N,Y,39.563489,-76.37773
MLS Listing,,Single Family Residential,2624 Rocks Rd,Forest Hill,MD,21050,99000,0,1.0,FOREST HILL,1452,91476,1880,41,68,,Active,,,https://www.redfin.com/MD/Forest-Hill/2624-Rocks-Rd-21050/home/14546565,BRIGHT MLS,MDHR2004874,N,Y,39.5969575,-76.3910618
MLS Listing,,Vacant Land,Rock Spring Rd,Forest Hill,MD,21050,3300000,,,Forest Hill,,1960200,,122,,,Active,,,https://www.redfin.com/MD/FOREST-HILL/ROCK-SPRING-RD-21050/home/14503469,BRIGHT MLS,MDHR2002196,N,Y,39.567811,-76.374964
MLS Listing,,Vacant Land,203 Bynum Rd,Forest Hill,MD,21050,600000,,,FOREST HILL,,98881,,3014,,,Active,,,https://www.redfin.com/MD/Forest-Hill/203-Bynum-Rd-21050/home/17525208,BRIGHT MLS,1000110489,N,Y,39.560543,-76.366983
PAST SALE,March-29-2019,Townhouse,403 Shellbark Ct,Forest Hill,MD,21050,363000,3,2.5,DIXIE MEADOWS,3210,4245,2009,982,113,115,Sold,,,https://www.redfin.com/MD/Forest-Hill/403-Shellbark-Ct-21050/home/14529178,BRIGHT MLS,MDHR222226,N,Y,39.5740358,-76.3632989
PAST SALE,October-1-2019,Single Family Residential,1699 Campbell Rd,Forest Hill,MD,21050,495000,4,2.5,PLEASANT VIEW FARMS,2760,49658,1993,796,179,,Sold,,,https://www.redfin.com/MD/Forest-Hill/1699-Campbell-Rd-21050/home/14541661,BRIGHT MLS,MDHR235304,N,Y,39.5521916,-76.4226384
PAST SALE,November-29-2021,Single Family Residential,1800 Belvue Dr,Forest Hill,MD,21050,495000,4,3.0,RIDGECROFT & ADDITION,2384,27984,1977,6,208,,Sold,,,https://www.redfin.com/MD/Forest-Hill/1800-Belvue-Dr-21050/home/14503485,BRIGHT MLS,MDHR2004636,N,Y,39.5567951,-76.4115185
PAST SALE,August-18-2021,Townhouse,2196 Historic Dr,Forest Hill,MD,21050,255000,3,3.0,BELLE MANOR,1412,2008,1994,109,181,55,Sold,,,https://www.redfin.com/MD/Forest-Hill/2196-Historic-Dr-21050/home/14506007,BRIGHT MLS,MDHR2000936,N,Y,39.5747293,-76.3623831
PAST SALE,September-7-2021,Single Family Residential,297 Dellcrest Dr,Forest Hill,MD,21050,440000,3,2.5,DURHAM MANOR,2300,7710,1990,89,191,20,Sold,,,https://www.redfin.com/MD/Forest-Hill/297-Dellcrest-Dr-21050/home/14512733,BRIGHT MLS,MDHR2002214,N,Y,39.5611147,-76.378485
PAST SALE,June-7-2019,Single Family Residential,2712 Grier Nursery Rd,Forest Hill,MD,21050,299900,4,1.5,FOREST HILL,1972,20908,1900,912,152,,Sold,,,https://www.redfin.com/MD/Forest-Hill/2712-Grier-Nursery-Rd-21050/home/14542169,BRIGHT MLS,MDHR179952,N,Y,39.5994974,-76.3904288
PAST SALE,June-20-2019,Single Family Residential,403 Montgomery Ct,Forest Hill,MD,21050,325000,4,2.5,COLONY PARK,1948,14810,1986,899,167,,Sold,,,https://www.redfin.com/MD/Forest-Hill/403-Montgomery-Ct-21050/home/14556540,BRIGHT MLS,MDHR222920,N,Y,39.5650144,-76.3577818
PAST SALE,June-12-2019,Single Family Residential,23 Santa Anita Ct,Forest Hill,MD,21050,442000,4,3.0,FOREST LAKES,2380,8617,2001,907,186,19,Sold,,,https://www.redfin.com/MD/Forest-Hill/23-Santa-Anita-Ct-21050/home/14485186,BRIGHT MLS,MDHR223050,N,Y,39.569452,-76.3798575
PAST SALE,March-20-2020,Townhouse,1731 Chrisara Ct,Forest Hill,MD,21050,264000,3,2.5,SPENCEOLA FARMS,1610,2200,1999,625,164,45,Sold,,,https://www.redfin.com/MD/Forest-Hill/1731-Chrisara-Ct-21050/home/14543761,BRIGHT MLS,MDHR243128,N,Y,39.5657225,-76.3727446
PAST SALE,August-9-2019,Townhouse,270 Trudy Ct,Forest Hill,MD,21050,285000,3,3.0,SPENCEOLA FARMS,2724,3024,2001,849,105,46,Sold,,,https://www.redfin.com/MD/Forest-Hill/270-Trudy-Ct-21050/home/14486870,BRIGHT MLS,MDHR226896,N,Y,39.5716785,-76.372795
PAST SALE,June-25-2019,Single Family Residential,2707 Grier Nursery Rd,Forest Hill,MD,21050,660000,5,4.5,Forest Hill,6228,206474,2005,894,106,,Sold,,,https://www.redfin.com/MD/Forest-Hill/2707-Grier-Nursery-Rd-21050/home/14692893,BRIGHT MLS,MDHR232092,N,Y,39.597999,-76.389059
PAST SALE,June-3-2019,Single Family Residential,311 Cherry Tree Ct,Forest Hill,MD,21050,435000,4,3.5,SPENCEOLA FARMS,2946,14897,1999,916,148,39,Sold,,,https://www.redfin.com/MD/Forest-Hill/311-Cherry-Tree-Ct-21050/home/14518466,BRIGHT MLS,MDHR231036,N,Y,39.5646981,-76.3687705
PAST SALE,September-24-2020,Single Family Residential,2438 Bailey Rd,Forest Hill,MD,21050,727046,4,2.5,FOREST HILL,5164,87556,2020,437,141,,Sold,,,https://www.redfin.com/MD/Forest-Hill/2438-Bailey-Rd-21050/home/170445738,BRIGHT MLS,MDHR242914,N,Y,39.585137,-76.402632
PAST SALE,June-4-2019,Townhouse,285 Cherry Tree Sq,Forest Hill,MD,21050,249900,3,2.5,SPENCEOLA FARMS,1298,2040,1996,915,193,41,Sold,,,https://www.redfin.com/MD/Forest-Hill/285-Cherry-Tree-Sq-21050/home/14539606,BRIGHT MLS,MDHR234172,N,Y,39.5640406,-76.3711558
PAST SALE,April-1-2019,Townhouse,2049 Brandy Dr,Forest Hill,MD,21050,295000,3,3.0,ROSEFIELDS,2162,3683,1999,979,136,60,Sold,,,https://www.redfin.com/MD/Forest-Hill/2049-Brandy-Dr-21050/home/14553367,BRIGHT MLS,MDHR221558,N,Y,39.5668549,-76.388367
PAST SALE,,Condo/Co-op,205 Kimary Ct Unit 205-H,Forest Hill,MD,21050,125000,,,,1400,,1995,,89,,,,,https://www.redfin.com/MD/Forest-Hill/205-Kimary-Ct-21050/unit-205-H/home/14501490,,,N,Y,39.5630594,-76.3716761
PAST SALE,August-30-2021,Single Family Residential,1607 Henry Way,Forest Hill,MD,21050,775150,5,5.5,PLEASANT RIDGE,6400,170755,2021,97,121,,Sold,,,https://www.redfin.com/MD/Forest-Hill/1607-Henry-Way-21050/home/14556942,BRIGHT MLS,MDHR2003132,N,Y,39.5469317,-76.4220466
PAST SALE,August-30-2019,Condo/Co-op,201 Kimary Ct Unit K,Forest Hill,MD,21050,187000,2,2.0,SPENCEOLA FARMS,1400,,1994,828,134,378,Sold,,,https://www.redfin.com/MD/Forest-Hill/201-Kimary-Ct-21050/unit-K/home/14544959,BRIGHT MLS,MDHR233512,N,Y,39.562622,-76.370706
PAST SALE,,Condo/Co-op,202 Kimary Ct #8,Forest Hill,MD,21050,201000,,,,1200,,1997,,168,,,,,https://www.redfin.com/MD/Forest-Hill/202-Kimary-Ct-21050/unit-8/home/14514569,,,N,Y,39.5620689,-76.3719748
PAST SALE,April-2-2019,Single Family Residential,1308 Turnbridge Rd,Forest Hill,MD,21050,379900,4,2.5,RIDGECROFT & ADDITION,2374,24140,1969,978,160,,Sold,,,https://www.redfin.com/MD/Forest-Hill/1308-Turnbridge-Rd-21050/home/14497522,BRIGHT MLS,MDHR221738,N,Y,39.5611148,-76.4049863
PAST SALE,July-31-2019,Condo/Co-op,303-D Willrich Cir,Forest Hill,MD,21050,235000,2,2.0,SPENCEOLA FARMS,1400,,2000,858,168,280,Sold,,,https://www.redfin.com/MD/Forest-Hill/303-Willrich-Cir-21050/unit-D/home/14524752,BRIGHT MLS,MDHR234424,N,Y,39.572162,-76.36961
PAST SALE,,Condo/Co-op,206 Kimary Ct Unit 3D,Forest Hill,MD,21050,125000,,,,1200,,1997,,104,,,,,https://www.redfin.com/MD/Forest-Hill/206-Kimary-Ct-21050/unit-3D/home/14558620,,,N,Y,39.563041,-76.372363
PAST SALE,June-20-2019,Single Family Residential,221 Cartland Way,Forest Hill,MD,21050,452000,4,3.5,DURHAM MANOR,3651,7348,1993,899,124,19,Sold,,,https://www.redfin.com/MD/Forest-Hill/221-Cartland-Way-21050/home/14488477,BRIGHT MLS,MDHR230552,N,Y,39.5615382,-76.3819732
PAST SALE,August-9-2019,Single Family Residential,2507 Trevia Ct,Forest Hill,MD,21050,725000,5,5.5,COLVARD CHOICE PT,6655,51401,2016,849,109,135,Sold,,,https://www.redfin.com/MD/Forest-Hill/2507-Trevia-Ct-21050/home/15266945,BRIGHT MLS,MDHR234234,N,Y,39.597566,-76.37732
PAST SALE,September-30-2019,Single Family Residential,1603 Belvue Dr,Forest Hill,MD,21050,325000,3,1.5,HIGH POINT MANOR,2544,117250,1969,797,128,,Sold,,,https://www.redfin.com/MD/Forest-Hill/1603-Belvue-Dr-21050/home/14492266,BRIGHT MLS,MDHR239424,N,Y,39.5505558,-76.407563
PAST SALE,July-26-2019,Single Family Residential,2433 Gibson Rd,Forest Hill,MD,21050,330000,3,2.0,FOREST HILL,1456,91258,1993,863,227,,Sold,,,https://www.redfin.com/MD/Forest-Hill/2433-Gibson-Rd-21050/home/14555913,BRIGHT MLS,MDHR234278,N,Y,39.5995761,-76.336887
PAST SALE,August-30-2021,Single Family Residential,508 Limerick Ct,Forest Hill,MD,21050,500000,4,3.5,CASTLE BLANEY,2194,12322,1997,97,228,22,Sold,,,https://www.redfin.com/MD/Forest-Hill/508-Limerick-Ct-21050/home/14485525,BRIGHT MLS,MDHR260252,N,Y,39.5764619,-76.3515635
PAST SALE,,Condo/Co-op,104 Gwen Dr Unit 1M,Forest Hill,MD,21050,195000,,,,1180,,1993,,165,,,,,https://www.redfin.com/MD/Forest-Hill/104-Gwen-Dr-21050/unit-1M/home/14550168,,,N,Y,39.564186,-76.37779
PAST SALE,January-21-2020,Townhouse,324 Esther Dr,Forest Hill,MD,21050,255000,4,2.5,SPENCEOLA FARMS,1974,2120,1999,684,129,46,Sold,,,https://www.redfin.com/MD/Forest-Hill/324-Esther-Dr-21050/home/14556004,BRIGHT MLS,MDHR237978,N,Y,39.573001,-76.371976
PAST SALE,June-26-2020,Condo/Co-op,1700 Landmark Dr Unit 2H,Forest Hill,MD,21050,145000,2,1.0,POND CONDOS,1185,,1992,527,122,245,Sold,,,https://www.redfin.com/MD/Forest-Hill/1700-Landmark-Dr-21050/unit-2H/home/14541327,BRIGHT MLS,MDHR246788,N,Y,39.562037,-76.3735311
PAST SALE,April-30-2020,Vacant Land,2229 Grafton Shop Rd,Forest Hill,MD,21050,155000,,,FOREST HILL,,145926,,584,,,Sold,,,https://www.redfin.com/MD/Forest-Hill/2229-Grafton-Shop-Rd-21050/home/15265726,BRIGHT MLS,1000179331,N,Y,39.5790939,-76.4019445
PAST SALE,December-17-2018,Condo/Co-op,1715 Landmark Dr Unit 3B,Forest Hill,MD,21050,175000,2,1.0,POND CONDOS,1240,,1990,1084,141,230,Sold,,,https://www.redfin.com/MD/Forest-Hill/1715-Landmark-Dr-21050/unit-3B/home/14490393,BRIGHT MLS,MDHR100144,N,Y,39.563205,-76.374712
PAST SALE,March-25-2019,Single Family Residential,718 Pyle Rd,Forest Hill,MD,21050,675000,5,4.0,SQUIRE'S PLACE,5544,105415,1991,986,122,,Sold,,,https://www.redfin.com/MD/Forest-Hill/718-Pyle-Rd-21050/home/14550666,BRIGHT MLS,MDHR100180,N,Y,39.6115348,-76.3685671
PAST SALE,December-31-2018,Single Family Residential,1505 Highvue Ct,Forest Hill,MD,21050,370000,3,3.0,HIGH POINT MANOR,2210,56192,1971,1070,167,,Sold,,,https://www.redfin.com/MD/Forest-Hill/1505-Highvue-Ct-21050/home/14510078,BRIGHT MLS,MDHR100152,N,Y,39.548736,-76.4086028
PAST SALE,June-9-2020,Single Family Residential,2524-R Sandy Hook Rd,Forest Hill,MD,21050,170000,6,4.0,FOREST  HILL,3460,628135,1975,544,49,,Sold,,,https://www.redfin.com/MD/Forest-Hill/2524R-Sandy-Hook-Rd-21050/home/170005781,BRIGHT MLS,MDHR241428,N,Y,39.5978496,-76.3238611
PAST SALE,June-10-2020,Condo/Co-op,1713 Landmark Dr Unit 3D,Forest Hill,MD,21050,130000,2,2.0,POND CONDOS,1070,,1990,543,121,,Sold,,,https://www.redfin.com/MD/Forest-Hill/1713-Landmark-Dr-21050/unit-3D/home/14486189,BRIGHT MLS,MDHR221960,N,Y,39.563382,-76.374574
PAST SALE,November-14-2019,Single Family Residential,1819 Ridgecroft Dr,Forest Hill,MD,21050,375000,5,2.5,RIDGECROFT & ADDITION,2325,22680,1973,752,161,,Sold,,,https://www.redfin.com/MD/Forest-Hill/1819-Ridgecroft-Dr-21050/home/14534900,BRIGHT MLS,MDHR238624,N,Y,39.5593579,-76.4025451
PAST SALE,June-7-2019,Single Family Residential,100 Theodora Ct,Forest Hill,MD,21050,554900,4,3.5,VALLEYS AT HOWARD'S CHAN,3929,51836,2000,912,141,24,Sold,,,https://www.redfin.com/MD/Forest-Hill/100-Theodora-Ct-21050/home/14483179,BRIGHT MLS,MDHR100228,N,Y,39.5856765,-76.3792323
PAST SALE,August-9-2019,Single Family Residential,614 Walters Mill Rd,Forest Hill,MD,21050,450000,3,2.0,LD GEORGE R & HAZEL M CL,2118,537530,1994,849,212,,Sold,,,https://www.redfin.com/MD/Forest-Hill/614-Walters-Mill-Rd-21050/home/44647717,BRIGHT MLS,MDHR233240,N,Y,39.6217688,-76.3708506
PAST SALE,May-3-2019,Single Family Residential,506 Kilkenny Ct,Forest Hill,MD,21050,365000,4,2.5,CASTLE BLANEY,2524,8180,1997,947,145,20,Sold,,,https://www.redfin.com/MD/Forest-Hill/506-Kilkenny-Ct-21050/home/14502047,BRIGHT MLS,MDHR222776,N,Y,39.5777128,-76.352581
PAST SALE,,Single Family Residential,2426 Edwards Manor Dr,Forest Hill,MD,21050,610000,,3.5,,3448,97139,1998,,177,,,,,https://www.redfin.com/MD/Forest-Hill/2426-Edwards-Manor-Dr-21050/home/14552059,,,N,Y,39.5877675,-76.3704436
PAST SALE,August-24-2021,Condo/Co-op,106 Gwen Dr Unit 3C,Forest Hill,MD,21050,195000,3,2.0,COURTYARDS @ POND,1270,,1993,103,154,215,Sold,,,https://www.redfin.com/MD/Forest-Hill/106-Gwen-Dr-21050/unit-3C/home/14502020,BRIGHT MLS,MDHR2000716,N,Y,39.563886,-76.378194
PAST SALE,May-14-2019,Single Family Residential,48 N Forest Dr,Forest Hill,MD,21050,465000,6,3.5,NORTH FOREST,3802,14549,2000,936,122,53,Sold,,,https://www.redfin.com/MD/Forest-Hill/48-N-Forest-Dr-21050/home/14490928,BRIGHT MLS,MDHR222660,N,Y,39.5797534,-76.3811381
PAST SALE,July-16-2019,Townhouse,104 Paden Ct,Forest Hill,MD,21050,225000,3,2.5,DURHAM MANOR,1552,2100,1994,873,145,45,Sold,,,https://www.redfin.com/MD/Forest-Hill/104-Paden-Ct-21050/home/14515891,BRIGHT MLS,MDHR234340,N,Y,39.5656167,-76.3775886
PAST SALE,April-23-2019,Single Family Residential,1302 Beaumont Ct,Forest Hill,MD,21050,365000,5,3.0,RIDGECROFT & ADDITION,1904,22155,1971,957,192,,Sold,,,https://www.redfin.com/MD/Forest-Hill/1302-Beaumont-Ct-21050/home/14496637,BRIGHT MLS,MDHR222198,N,Y,39.5594685,-76.4038109
PAST SALE,November-30-2021,Townhouse,2209 Cantley Ct,Forest Hill,MD,21050,210000,3,1.5,BELLE MANOR,1920,3197,1994,5,109,55,Sold,,,https://www.redfin.com/MD/Forest-Hill/2209-Cantley-Ct-21050/home/14546124,BRIGHT MLS,MDHR2004542,N,Y,39.57434,-76.360129
PAST SALE,September-17-2021,Single Family Residential,102 Nancy Ct,Forest Hill,MD,21050,729921,4,4.5,VALLEYS AT HOWARD'S CHAN,5255,51836,1999,79,139,24,Sold,,,https://www.redfin.com/MD/Forest-Hill/102-Nancy-Ct-21050/home/14545720,BRIGHT MLS,MDHR260524,N,Y,39.5865792,-76.3804366
PAST SALE,March-8-2019,Townhouse,2023 Brandy Dr,Forest Hill,MD,21050,300000,3,3.0,ROSEFIELDS,2280,5018,1997,1003,132,60,Sold,,,https://www.redfin.com/MD/Forest-Hill/2023-Brandy-Dr-21050/home/14512371,BRIGHT MLS,MDHR197336,N,Y,39.5674846,-76.386857
PAST SALE,November-30-2021,Single Family Residential,2304 Alex Ct,Forest Hill,MD,21050,445000,4,2.5,TUCHAHOE FARMS,2058,7492,2001,5,216,40,Sold,,,https://www.redfin.com/MD/Forest-Hill/2304-Alex-Ct-21050/home/14551483,BRIGHT MLS,MDHR2004406,N,Y,39.5789298,-76.365786
PAST SALE,February-19-2021,Single Family Residential,2254 Phillips Mill Rd,Forest Hill,MD,21050,640000,5,2.5,PHILLIPS MANOR,4367,155509,2002,289,147,,Sold,,,https://www.redfin.com/MD/Forest-Hill/2254-Phillips-Mill-Rd-21050/home/14491361,BRIGHT MLS,MDHR255812,N,Y,39.5849668,-76.4376307
PAST SALE,April-12-2019,Single Family Residential,1723 O'conner Rd,Forest Hill,MD,21050,548000,4,3.5,FOREST HILL,3426,87120,2011,968,160,,Sold,,,https://www.redfin.com/MD/Forest-Hill/1723-O-Connor-Rd-21050/home/26790763,BRIGHT MLS,MDHR222150,N,Y,39.580634,-76.4511339
PAST SALE,May-27-2021,Townhouse,327 Donald Cir #22,Forest Hill,MD,21050,385000,3,3.5,SPENCEOLA FARMS,3322,6098,2002,192,116,261,Sold,,,https://www.redfin.com/MD/Forest-Hill/327-Donald-Cir-21050/unit-22/home/14563430,BRIGHT MLS,MDHR257932,N,Y,39.5687056,-76.3704863
PAST SALE,,Condo/Co-op,1710 Landmark Dr Unit 1J,Forest Hill,MD,21050,130000,,,,1065,,1991,,122,,,,,https://www.redfin.com/MD/Forest-Hill/1710-Landmark-Dr-21050/unit-1J/home/14557725,,,N,Y,39.562493,-76.374458
PAST SALE,January-8-2020,Townhouse,2062 Brandy Dr,Forest Hill,MD,21050,312000,3,3.0,ROSEFIELDS,2518,3645,1997,697,124,60,Sold,,,https://www.redfin.com/MD/Forest-Hill/2062-Brandy-Dr-21050/home/14519715,BRIGHT MLS,MDHR239746,N,Y,39.5672582,-76.3886203
PAST SALE,March-13-2020,Condo/Co-op,202 Clifford Ln Unit 1J,Forest Hill,MD,21050,168000,2,1.0,COURTYARDS @ POND,1180,,1995,632,142,205,Sold,,,https://www.redfin.com/MD/Forest-Hill/202-Clifford-Ln-21050/unit-1J/home/14533870,BRIGHT MLS,MDHR241624,N,Y,39.562581,-76.379698
PAST SALE,September-20-2019,Condo/Co-op,1714 Landmark Dr Unit 1L,Forest Hill,MD,21050,140000,2,2.0,POND CONDOS,1080,,1991,807,130,240,Sold,,,https://www.redfin.com/MD/Forest-Hill/1714-Landmark-Dr-21050/unit-1L/home/19000781,BRIGHT MLS,MDHR237616,N,Y,39.562431,-76.375505
PAST SALE,July-31-2019,Condo/Co-op,202 Kimary Ct Unit 2C,Forest Hill,MD,21050,170000,2,2.0,SPENCEOLA FARMS,1300,,1997,858,131,283,Sold,,,https://www.redfin.com/MD/Forest-Hill/202-Kimary-Ct-21050/unit-2C/home/176556660,BRIGHT MLS,MDHR235054,N,Y,39.5620689,-76.3719748
PAST SALE,,Vacant Land,DIXIE LN,FOREST HILL,MD,21050,10000,,,,,284011,,,,,,,,https://www.redfin.com/MD/FOREST-HILL/DIXIE-LN-21050/home/14539651,,,N,Y,39.578646,-76.360815
PAST SALE,,Single Family Residential,504 Kilkenny Ct,Forest Hill,MD,21050,408000,,3.0,,2423,8882,1997,,168,,,,,https://www.redfin.com/MD/Forest-Hill/504-Kilkenny-Ct-21050/home/14554158,,,N,Y,39.5778875,-76.3527167
PAST SALE,June-28-2019,Single Family Residential,1857 Trudeau Dr,Forest Hill,MD,21050,410000,4,2.5,FOREST LAKES,3460,7700,2002,891,118,9,Sold,,,https://www.redfin.com/MD/Forest-Hill/1857-Trudeau-Dr-21050/home/14526929,BRIGHT MLS,MDHR230878,N,Y,39.56627,-76.376923
PAST SALE,April-30-2019,Single Family Residential,2504 Eudora Ct,Forest Hill,MD,21050,600000,4,3.5,COLVARD CHOICE PT,3092,47480,2016,950,194,135,Sold,,,https://www.redfin.com/MD/Forest-Hill/2504-Eudora-Ct-21050/home/15266944,BRIGHT MLS,MDHR100556,N,Y,39.596065,-76.378576
PAST SALE,October-17-2019,Townhouse,2046 Mardic Dr,Forest Hill,MD,21050,311000,3,3.5,SPENCEOLA FARMS,1980,4047,2000,780,157,61,Sold,,,https://www.redfin.com/MD/Forest-Hill/2046-Mardic-Dr-21050/home/14513723,BRIGHT MLS,MDHR237378,N,Y,39.572378,-76.37408
PAST SALE,September-27-2019,Single Family Residential,10 Haystack Ct,Forest Hill,MD,21050,586222,4,3.0,Forest Hill,2800,10454,2019,800,209,,Sold,,,https://www.redfin.com/MD/Forest-Hill/10-Haystack-Ct-21050/home/166451403,BRIGHT MLS,MDHR239308,N,Y,39.582394,-76.386039
PAST SALE,September-27-2019,Townhouse,1839 Beth Bridge Cir,Forest Hill,MD,21050,227000,3,2.5,DURHAM MANOR,2100,2614,1989,800,108,29,Sold,,,https://www.redfin.com/MD/Forest-Hill/1839-Beth-Bridge-Cir-21050/home/14541658,BRIGHT MLS,MDHR237794,N,Y,39.560735,-76.380441
PAST SALE,December-2-2020,Townhouse,2232 Melrose Ln,Forest Hill,MD,21050,190000,3,1.5,BYNUM WOODS,1420,600,1997,368,134,,Sold,,,https://www.redfin.com/MD/Forest-Hill/2232-Melrose-Ln-21050/home/14525780,BRIGHT MLS,MDHR252032,N,Y,39.5712557,-76.3632537
PAST SALE,November-12-2021,Condo/Co-op,110 Gwen Dr Unit 2E,Forest Hill,MD,21050,175148,2,2.0,COURTYARDS @ POND,1185,,1994,23,148,215,Sold,,,https://www.redfin.com/MD/Forest-Hill/110-Gwen-Dr-21050/unit-2E/home/14548987,BRIGHT MLS,MDHR2000087,N,Y,39.56342,-76.378692
PAST SALE,,Single Family Residential,1406 Persimmon Pl,Forest Hill,MD,21050,250000,,1.5,,1272,13800,1968,,197,,,,,https://www.redfin.com/MD/Forest-Hill/1406-Persimmon-Pl-21050/home/14520619,,,N,Y,39.5584023,-76.3675044
PAST SALE,July-7-2020,Single Family Residential,306 Bynum Ridge Rd,Forest Hill,MD,21050,346000,4,3.5,BYNUM RIDGE,3350,21000,1963,516,103,,Sold,,,https://www.redfin.com/MD/Forest-Hill/306-Bynum-Ridge-Rd-21050/home/14532814,BRIGHT MLS,MDHR246480,N,Y,39.5628437,-76.3608569
PAST SALE,,Vacant Land,ROUTE 23,FOREST HILL,MD,21050,7250,,,,,252648,,,,,,,,https://www.redfin.com/MD/FOREST-HILL/ROUTE-23-21050/home/14557086,,,N,Y,39.587293,-76.392368
PAST SALE,July-23-2019,Townhouse,119 Paden Ct,Forest Hill,MD,21050,229999,3,2.5,DURHAM MANOR,1740,2135,1995,866,132,45,Sold,,,https://www.redfin.com/MD/Forest-Hill/119-Paden-Ct-21050/home/14497983,BRIGHT MLS,MDHR234948,N,Y,39.5651363,-76.3784471
PAST SALE,May-3-2019,Townhouse,347 Donald Cir #32,Forest Hill,MD,21050,345000,3,3.5,SPENCEOLA FARMS,3172,,2000,947,109,275,Sold,,,https://www.redfin.com/MD/Forest-Hill/347-Donald-Cir-21050/unit-32/home/171165332,BRIGHT MLS,1009994600,N,Y,39.569563,-76.371319
PAST SALE,March-8-2019,Condo/Co-op,1701-K Rich Way Unit K,Forest Hill,MD,21050,189000,2,2.0,SPENCEOLA FARMS,1340,,2000,1003,141,283,Sold,,,https://www.redfin.com/MD/Bel-Air-North/1701-K-Rich-Way-21050/unit-K/home/148752041,BRIGHT MLS,MDHR180482,N,Y,39.56457,-76.37301
PAST SALE,,Townhouse,2016 Maria Ct,Forest Hill,MD,21050,330000,,2.5,,2034,2908,2001,,162,,,,,https://www.redfin.com/MD/Forest-Hill/2016-Maria-Ct-21050/home/14544377,,,N,Y,39.5730519,-76.372299
PAST SALE,April-8-2020,Single Family Residential,1950 Castle Rd,Forest Hill,MD,21050,435000,4,3.5,CASTLE BLANEY,3274,11123,1996,606,133,20,Sold,,,https://www.redfin.com/MD/Forest-Hill/1950-Castle-Rd-21050/home/14534630,BRIGHT MLS,MDHR239528,N,Y,39.5777853,-76.3508625
PAST SALE,June-14-2019,Single Family Residential,1729 Grafton Shop Rd,Forest Hill,MD,21050,650000,4,3.5,LD KLEIN H S,3700,110207,2019,905,176,,Sold,,,https://www.redfin.com/MD/Forest-Hill/1729-Grafton-Shop-Rd-21050/home/14549266,BRIGHT MLS,MDHR232130,N,Y,39.5561007,-76.3974498
PAST SALE,April-30-2019,Single Family Residential,2516 Bailey Rd,Forest Hill,MD,21050,708000,5,4.5,REEVES CROSSING,7632,225641,2003,950,93,,Sold,,,https://www.redfin.com/MD/Forest-Hill/2516-Bailey-Rd-21050/home/14536258,BRIGHT MLS,1002612186,N,Y,39.5889701,-76.4033814
PAST SALE,July-22-2019,Single Family Residential,335A Chestnut Hill Rd,Forest Hill,MD,21050,593150,4,3.5,LD WH HARKINS,3642,141134,2001,867,163,,Sold,,,https://www.redfin.com/MD/Forest-Hill/335A-Chestnut-Hill-Rd-21050/home/167045001,BRIGHT MLS,MDHR233730,N,Y,39.6034631,-76.3706471
PAST SALE,April-15-2021,Townhouse,2176 Sewanee Dr,Forest Hill,MD,21050,285000,3,2.5,BELLE MANOR,1706,3106,1995,234,167,55,Sold,,,https://www.redfin.com/MD/Forest-Hill/2176-Sewanee-Dr-21050/home/14488247,BRIGHT MLS,MDHR257232,N,Y,39.573634,-76.360967
PAST SALE,October-30-2020,Single Family Residential,76 Lillian Ct,Forest Hill,MD,21050,650000,5,3.5,VALLEYS AT HOWARD'S CHAN,5330,70567,2001,401,122,24,Sold,,,https://www.redfin.com/MD/Forest-Hill/76-Lillian-Ct-21050/home/14492042,BRIGHT MLS,MDHR251148,N,Y,39.5914407,-76.382638
PAST SALE,December-3-2021,Townhouse,2019 Colgate Cir,Forest Hill,MD,21050,395000,3,3.5,DEER SPRING,2928,5206,2003,2,135,70,Sold,,,https://www.redfin.com/MD/Forest-Hill/2019-Colgate-Cir-21050/home/14500479,BRIGHT MLS,MDHR2003896,N,Y,39.5745597,-76.3817367
PAST SALE,June-19-2019,Condo/Co-op,319 Donald Cir #18,Forest Hill,MD,21050,345000,3,2.5,SPENCEOLA FARMS,2372,,2001,900,145,260,Sold,,,https://www.redfin.com/MD/Forest-Hill/319-Donald-Cir-21050/unit-18/home/171695890,BRIGHT MLS,MDHR231718,N,Y,39.5684357,-76.3708191
PAST SALE,May-7-2021,Condo/Co-op,201 Kimary Ct Unit L,Forest Hill,MD,21050,200000,2,2.0,SPENCEOLA FARMS,1400,,1994,212,143,378,Sold,,,https://www.redfin.com/MD/Forest-Hill/201-Kimary-Ct-21050/unit-L/home/145844055,BRIGHT MLS,MDHR258508,N,Y,39.562128,-76.3707161
PAST SALE,April-15-2019,Condo/Co-op,200 Clifford Ln Unit 1K,Forest Hill,MD,21050,169500,3,2.0,COURTYARDS @ POND,1260,,1996,965,135,205,Sold,,,https://www.redfin.com/MD/Forest-Hill/200-Clifford-Ln-21050/unit-1K/home/14514955,BRIGHT MLS,MDHR222522,N,Y,39.56285,-76.37958
PAST SALE,July-20-2020,Single Family Residential,1700 Ingleside Rd,Forest Hill,MD,21050,460000,5,3.5,PLEASANT VIEW FARMS,2804,41216,1995,503,164,,Sold,,,https://www.redfin.com/MD/Forest-Hill/1700-Ingleside-Rd-21050/home/14526520,BRIGHT MLS,MDHR239040,N,Y,39.5521948,-76.4217118
PAST SALE,,Single Family Residential,7 Haystack Ct,Forest Hill,MD,21050,174000,,2.5,,3398,14200,2019,,51,,,,,https://www.redfin.com/MD/Forest-Hill/7-Haystack-Ct-21050/home/166451399,,,N,Y,39.581844,-76.386328
PAST SALE,October-18-2019,Condo/Co-op,1710 Landmark Dr Unit 1K,Forest Hill,MD,21050,150000,3,2.0,POND CONDOS,1235,,1991,779,121,240,Sold,,,https://www.redfin.com/MD/Forest-Hill/1710-Landmark-Dr-21050/unit-1K/home/176134485,BRIGHT MLS,MDHR238472,N,Y,39.5630611,-76.373832
PAST SALE,,Single Family Residential,13 Haystack Ct,Forest Hill,MD,21050,174000,,2.5,,2752,11107,2020,,63,,,,,https://www.redfin.com/MD/Forest-Hill/13-Haystack-Ct-21050/home/166456803,,,N,Y,39.582497,-76.386779
PAST SALE,,Single Family Residential,2303 Issacs Way,Forest Hill,MD,21050,174000,,2.5,,3473,10280,2019,,50,,,,,https://www.redfin.com/MD/Forest-Hill/2303-Issacs-Way-21050/home/166456805,,,N,Y,39.582017,-76.385033
PAST SALE,,Single Family Residential,2524 Sandy Hook Rd Unit R,Forest Hill,MD,21050,170000,,3.0,,3460,628135,1975,,49,,,,,https://www.redfin.com/MD/Forest-Hill/2524-Sandy-Hook-Rd-21050/unit-R/home/14511222,,,N,Y,39.5979,-76.323857
PAST SALE,,Single Family Residential,1385 Jarrettsville Rd,Forest Hill,MD,21050,320000,,2.0,,2508,204296,1920,,128,,,,,https://www.redfin.com/MD/Forest-Hill/1385-Jarrettsville-Rd-21050/home/166451917,,,N,Y,39.5918051,-76.4374995
PAST SALE,,Condo/Co-op,1701 Rich Way Unit C,Forest Hill,MD,21050,170000,,,,1400,,2000,,121,,,,,https://www.redfin.com/MD/Forest-Hill/1701-Rich-Way-21050/unit-C/home/14510525,,,N,Y,39.5644772,-76.372736
PAST SALE,June-28-2019,Single Family Residential,809 Kensington Farm Ct,Forest Hill,MD,21050,735000,5,4.0,KENSINGTON FARM,5424,199940,2003,891,136,,Sold,,,https://www.redfin.com/MD/Forest-Hill/809-Kensington-Farm-Ct-21050/home/14494935,BRIGHT MLS,MDHR231438,N,Y,39.6032053,-76.3664869
PAST SALE,March-6-2020,Condo/Co-op,107-M Sunshine Ct,Forest Hill,MD,21050,201500,2,2.0,DURHAM MANOR,1330,,1999,639,152,295,Sold,,,https://www.redfin.com/MD/Forest-Hill/107-Sunshine-Ct-21050/unit-M/home/14561615,BRIGHT MLS,MDHR241276,N,Y,39.563437,-76.377754
PAST SALE,July-31-2019,Single Family Residential,2446 Maxa Meadows Ln,Forest Hill,MD,21050,585000,4,3.5,VALLEYS AT HOWARD'S CHAN,4268,56628,2003,858,137,24,Sold,,,https://www.redfin.com/MD/Forest-Hill/2446-Maxa-Meadows-Ln-21050/home/14527945,BRIGHT MLS,MDHR234992,N,Y,39.5912663,-76.3786958
PAST SALE,July-19-2019,Condo/Co-op,1706 Landmark Dr Unit 3C,Forest Hill,MD,21050,152000,2,1.0,POND CONDOS,1080,,1992,870,141,240,Sold,,,https://www.redfin.com/MD/Forest-Hill/1706-Landmark-Dr-21050/unit-3C/home/14497397,BRIGHT MLS,MDHR230938,N,Y,39.5627468,-76.3739725
PAST SALE,December-28-2018,Single Family Residential,22 Jarrettsville Rd,Forest Hill,MD,21050,320000,5,2.0,FOREST HILL,2272,43996,1880,1073,141,,Sold,,,https://www.redfin.com/MD/Forest-Hill/22-E-Jarrettsville-Rd-21050/home/14558220,BRIGHT MLS,1002260006,N,Y,39.5852202,-76.3850033
PAST SALE,,Townhouse,2035 Mardic Dr,Forest Hill,MD,21050,173000,,2.5,,1650,3180,2000,,105,,,,,https://www.redfin.com/MD/Forest-Hill/2035-Mardic-Dr-21050/home/14503263,,,N,Y,39.5727554,-76.3735096
PAST SALE,June-23-2021,Single Family Residential,2314 Howland Ct,Forest Hill,MD,21050,448500,3,3.0,TUCHAHOE FARMS,2425,8407,1999,165,185,13,Sold,,,https://www.redfin.com/MD/Forest-Hill/2314-Howland-Ct-21050/home/14483845,BRIGHT MLS,MDHR259308,N,Y,39.5761419,-76.3633441
PAST SALE,May-14-2020,Single Family Residential,2601 Bailey Rd,Forest Hill,MD,21050,394330,6,4.5,LD LANGFORD T,3914,473933,1990,570,101,,Sold,,,https://www.redfin.com/MD/Forest-Hill/2601-Bailey-Rd-21050/home/143342568,BRIGHT MLS,MDHR244216,N,Y,39.5943585,-76.4062069
PAST SALE,July-30-2021,Condo/Co-op,1704 Rich Way Unit 1D,Forest Hill,MD,21050,215000,2,2.0,SPENCEOLA FARMS,1330,,1998,128,162,263,Sold,,,https://www.redfin.com/MD/Forest-Hill/1704-Rich-Way-21050/unit-1D/home/175394779,BRIGHT MLS,MDHR261176,N,Y,39.5646282,-76.3738466
PAST SALE,August-12-2021,Condo/Co-op,1708 Landmark Dr Unit 3D,Forest Hill,MD,21050,179000,2,2.0,POND CONDOS,1070,,1992,115,167,245,Sold,,,https://www.redfin.com/MD/Forest-Hill/1708-Landmark-Dr-21050/unit-3D/home/14535471,BRIGHT MLS,MDHR2000902,N,Y,39.562593,-76.374415
PAST SALE,,Condo/Co-op,206 Kimary Ct Unit 2B,Forest Hill,MD,21050,180000,,,,1300,,1997,,138,,,,,https://www.redfin.com/MD/Forest-Hill/206-Kimary-Ct-21050/unit-2B/home/14496468,,,N,Y,39.56303,-76.372301
PAST SALE,December-30-2020,Condo/Co-op,110 Gwen Dr Unit 1M,Forest Hill,MD,21050,165000,2,2.0,COURTYARDS @ POND,1180,,1994,340,140,205,Sold,,,https://www.redfin.com/MD/Forest-Hill/110-Gwen-Dr-21050/unit-1M/home/14493536,BRIGHT MLS,MDHR255430,N,Y,39.563425,-76.37862
PAST SALE,July-28-2020,Single Family Residential,1615 Creston Dr,Forest Hill,MD,21050,450000,4,2.5,PLEASANT VIEW FARMS,2850,28792,1985,495,158,,Sold,,,https://www.redfin.com/MD/Forest-Hill/1615-Creston-Dr-21050/home/14511193,BRIGHT MLS,MDHR246012,N,Y,39.55184,-76.4264126
PAST SALE,April-7-2020,Single Family Residential,1302 W Jarrettsville Rd,Forest Hill,MD,21050,275000,3,1.0,THREE OAKS,2056,24959,1953,607,134,,Sold,,,https://www.redfin.com/MD/Forest-Hill/1302-Jarrettsville-Rd-21050/home/14544093,BRIGHT MLS,MDHR242978,N,Y,39.5862581,-76.4291245
PAST SALE,October-11-2019,Townhouse,105 Paden Ct,Forest Hill,MD,21050,235000,3,2.5,DURHAM MANOR,1677,2100,1994,786,140,45,Sold,,,https://www.redfin.com/MD/Forest-Hill/105-Paden-Ct-21050/home/14543762,BRIGHT MLS,MDHR237770,N,Y,39.5651462,-76.3777802
PAST SALE,,Townhouse,2037 Brandy Dr,Forest Hill,MD,21050,306000,,3.5,,2349,3127,1996,,130,,,,,https://www.redfin.com/MD/Forest-Hill/2037-Brandy-Dr-21050/home/14494811,,,N,Y,39.56723,-76.3877161
PAST SALE,May-15-2020,Townhouse,2184 Historic Dr,Forest Hill,MD,21050,237000,4,2.5,BELLE MANOR,2404,3068,1994,569,99,50,Sold,,,https://www.redfin.com/MD/Forest-Hill/2184-Historic-Dr-21050/home/14535575,BRIGHT MLS,MDHR242888,N,Y,39.5744015,-76.3622927
PAST SALE,August-6-2021,Condo/Co-op,1721 Chrisemmett Ct Unit 3A,Forest Hill,MD,21050,179000,2,2.0,POND CONDOS,1070,,1991,121,167,245,Sold,,,https://www.redfin.com/MD/Forest-Hill/1721-Chrisemmett-Ct-21050/unit-3A/home/14520335,BRIGHT MLS,MDHR2000498,N,Y,39.564108,-76.374807
PAST SALE,October-13-2021,Single Family Residential,733 Rosecroft Ct,Forest Hill,MD,21050,483500,4,3.0,FOREST LAKES,2403,8968,1998,53,201,18,Sold,,,https://www.redfin.com/MD/Forest-Hill/733-Rosecroft-Ct-21050/home/14488433,BRIGHT MLS,MDHR2002676,N,Y,39.564741,-76.382119
PAST SALE,December-1-2021,Single Family Residential,1605 Big Timber Ct,Forest Hill,MD,21050,945000,6,6.0,MORNING BROOK,7192,39407,2009,4,131,16,Sold,,,https://www.redfin.com/MD/Forest-Hill/1605-Big-Timber-Ct-21050/home/14488235,BRIGHT MLS,MDHR2003724,N,Y,39.5733777,-76.4495614
PAST SALE,November-13-2020,Townhouse,317 Betty Ct,Forest Hill,MD,21050,285000,3,2.5,SPENCEOLA FARMS,1616,2400,2002,387,176,49,Sold,,,https://www.redfin.com/MD/Forest-Hill/317-Betty-Ct-21050/home/14519288,BRIGHT MLS,MDHR252470,N,Y,39.573465,-76.37332
PAST SALE,,Single Family Residential,2308 Issacs Way,Forest Hill,MD,21050,174000,,3.0,,4004,10454,2019,,43,,,,,https://www.redfin.com/MD/Forest-Hill/2308-Issacs-Way-21050/home/148462114,,,N,Y,39.582559,-76.385636
PAST SALE,October-18-2019,Single Family Residential,2004 Galway Rd,Forest Hill,MD,21050,415000,3,3.0,MONTFORD GLEN,3038,31860,1973,779,137,,Sold,,,https://www.redfin.com/MD/Forest-Hill/2004-Galway-Rd-21050/home/14559065,BRIGHT MLS,MDHR238304,N,Y,39.5521561,-76.4290793
PAST SALE,January-15-2019,Single Family Residential,2510 Floreta Ct,Forest Hill,MD,21050,534990,4,3.5,COLVARD CHOICE PT,3743,79279,2018,1055,143,133,Sold,,,https://www.redfin.com/MD/Forest-Hill/2510-Floreta-Ct-21050/home/15266938,BRIGHT MLS,1006309150,N,Y,39.592593,-76.3813855
PAST SALE,May-10-2019,Condo/Co-op,204 Kimary Ct Unit 2-A,Forest Hill,MD,21050,169000,2,2.0,SPENCEOLA FARMS,1200,,1997,940,141,283,Sold,,,https://www.redfin.com/MD/Forest-Hill/204-Kimary-Ct-21050/unit-2A/home/14507160,BRIGHT MLS,MDHR231094,N,Y,39.5624895,-76.3722027
PAST SALE,January-2-2020,Single Family Residential,1701 Ingleside Rd,Forest Hill,MD,21050,334900,3,2.0,FOREST  HILL,2654,81457,1974,703,126,,Sold,,,https://www.redfin.com/MD/Forest-Hill/1701-Ingleside-Rd-21050/home/14556501,BRIGHT MLS,MDHR239176,N,Y,39.5529802,-76.420818
PAST SALE,June-3-2019,Single Family Residential,1703 Cosner Rd,Forest Hill,MD,21050,377000,3,3.5,WALES OF HARFORD,1736,27020,1975,916,217,,Sold,,,https://www.redfin.com/MD/Forest-Hill/1703-Cosner-Rd-21050/home/14491182,BRIGHT MLS,MDHR231256,N,Y,39.565632,-76.4250114
PAST SALE,December-13-2019,Single Family Residential,2628 Johnson Mill Rd,Forest Hill,MD,21050,390000,5,3.0,FOREST  HILL,2328,101930,1968,723,168,,Sold,,,https://www.redfin.com/MD/Forest-Hill/2628-Johnson-Mill-Rd-21050/home/14541591,BRIGHT MLS,MDHR240242,N,Y,39.5962445,-76.3690871
PAST SALE,,Single Family Residential,1899 Bear Creek Dr,Forest Hill,MD,21050,485000,,2.5,,2420,15948,2001,,200,,,,,https://www.redfin.com/MD/Forest-Hill/1899-Bear-Creek-Dr-21050/home/14554738,,,N,Y,39.5580849,-76.3850431
PAST SALE,December-28-2018,Condo/Co-op,1704 Rich Way Unit 1C,Forest Hill,MD,21050,165000,2,2.0,SPENCEOLA FARMS,1300,,1998,1073,127,258,Sold,,,https://www.redfin.com/MD/Forest-Hill/1704-Rich-Way-21050/unit-1C/home/14562722,BRIGHT MLS,1009921234,N,Y,39.5646282,-76.3738466
PAST SALE,November-23-2020,Condo/Co-op,1719 Landmark Dr Unit 3B,Forest Hill,MD,21050,175000,3,2.0,POND CONDOS,1240,,1991,377,141,245,Sold,,,https://www.redfin.com/MD/Forest-Hill/1719-Landmark-Dr-21050/unit-3B/home/143207384,BRIGHT MLS,MDHR251532,N,Y,39.5635954,-76.3757446
PAST SALE,,Condo/Co-op,1719 Landmark Dr #2,Forest Hill,MD,21050,175000,,,,1240,,1991,,141,,,,,https://www.redfin.com/MD/Forest-Hill/1719-Landmark-Dr-21050/unit-2/home/14520922,,,N,Y,39.563197,-76.375786
PAST SALE,August-20-2019,Condo/Co-op,111-E Sunshine Ct,Forest Hill,MD,21050,202500,2,2.0,DURHAM MANOR,1330,,2000,838,152,234,Sold,,,https://www.redfin.com/MD/Forest-Hill/111-Sunshine-Ct-21050/unit-E/home/14539723,BRIGHT MLS,MDHR235844,N,Y,39.562975,-76.3782906
PAST SALE,April-15-2021,Condo/Co-op,106 Gwen Dr Unit 1M,Forest Hill,MD,21050,185000,2,1.0,COURTYARDS @ POND,1180,,1993,234,157,215,Sold,,,https://www.redfin.com/MD/Forest-Hill/106-Gwen-Dr-21050/unit-1M/home/14522651,BRIGHT MLS,MDHR257228,N,Y,39.563989,-76.378065
PAST SALE,April-26-2019,Single Family Residential,1613 Big Timber Ct,Forest Hill,MD,21050,640000,5,4.5,MORNING BROOK,5058,52272,2008,954,127,13,Sold,,,https://www.redfin.com/MD/Forest-Hill/1613-Big-Timber-Ct-21050/home/14529621,BRIGHT MLS,MDHR222574,N,Y,39.5720477,-76.4502941
PAST SALE,,Townhouse,272 Cherry Tree Sq,Forest Hill,MD,21050,284000,,3.0,,1870,2360,1997,,152,,,,,https://www.redfin.com/MD/Forest-Hill/272-Cherry-Tree-Sq-21050/home/14511721,,,N,Y,39.5641923,-76.3723403
PAST SALE,November-4-2021,Single Family Residential,1865 Trudeau Dr,Forest Hill,MD,21050,530000,4,3.0,FOREST LAKES,3478,8996,2002,31,152,37,Sold,,,https://www.redfin.com/MD/Forest-Hill/1865-Trudeau-Dr-21050/home/14499587,BRIGHT MLS,MDHR2003552,N,Y,39.5669943,-76.3772103
PAST SALE,January-1-2021,Single Family Residential,1209 Sharon Acres Rd,Forest Hill,MD,21050,576000,4,2.5,TWIN OAKS,2168,1315512,1963,338,266,,Sold,,,https://www.redfin.com/MD/Forest-Hill/1209-Sharon-Acres-Rd-21050/home/173170595,BRIGHT MLS,MDHR251080,N,Y,39.599413,-76.414293
PAST SALE,June-12-2020,Single Family Residential,2430 Bailey Rd,Forest Hill,MD,21050,689000,5,3.5,FOREST HILL,3700,88427,2020,541,186,,Sold,,,https://www.redfin.com/MD/Forest-Hill/2430-Bailey-Rd-21050/home/170446434,BRIGHT MLS,MDHR242922,N,Y,39.583627,-76.401587
PAST SALE,December-15-2020,Single Family Residential,318 Pond View Ct,Forest Hill,MD,21050,510000,4,3.5,SPENCEOLA FARMS,3688,10367,1994,355,138,38,Sold,,,https://www.redfin.com/MD/Forest-Hill/318-Pond-View-Ct-21050/home/14537698,BRIGHT MLS,MDHR253112,N,Y,39.5624618,-76.3693821
PAST SALE,April-1-2020,Condo/Co-op,306 Willrich Cir Unit L,Forest Hill,MD,21050,240000,2,2.0,SPENCEOLA FARMS,1340,,2003,613,179,335,Sold,,,https://www.redfin.com/MD/Forest-Hill/306-Willrich-Cir-21050/unit-L/home/14560241,BRIGHT MLS,MDHR242028,N,Y,39.5726199,-76.3688279
PAST SALE,,Condo/Co-op,347 Donald Cir,Forest Hill,MD,21050,345000,,3.5,,3172,,2000,,109,,,,,https://www.redfin.com/MD/Forest-Hill/347-Donald-Cir-21050/home/14493968,,,N,Y,39.569563,-76.371319
PAST SALE,,Townhouse,310 Betty Ct #222,Forest Hill,MD,21050,275000,,2.5,,1920,2950,2002,,143,,,,,https://www.redfin.com/MD/Forest-Hill/310-Betty-Ct-21050/unit-222/home/14515710,,,N,Y,39.573913,-76.374144
PAST SALE,November-8-2019,Townhouse,2103 Mardic Dr,Forest Hill,MD,21050,278000,3,2.5,SPENCEOLA FARMS,2084,2120,2002,758,133,64,Sold,,,https://www.redfin.com/MD/Forest-Hill/2103-Mardic-Dr-21050/home/14504998,BRIGHT MLS,MDHR238532,N,Y,39.5730008,-76.3741628
PAST SALE,,Condo/Co-op,319 Donald Cir,Forest Hill,MD,21050,345000,,2.5,,2372,,2001,,145,,,,,https://www.redfin.com/MD/Forest-Hill/319-Donald-Cir-21050/home/14532197,,,N,Y,39.5684357,-76.3708191
PAST SALE,April-30-2020,Vacant Land,0 Sharon Acres Rd,Forest Hill,MD,21050,500000,,,Forest Hill,,2624054,,584,,,Sold,,,https://www.redfin.com/MD/Forest-Hill/1437-Sharon-Acres-Rd-21050/home/143791764,BRIGHT MLS,MDHR239114,N,Y,39.5890745,-76.4274073
PAST SALE,,Condo/Co-op,331 Donald Cir,Forest Hill,MD,21050,355000,,3.5,,3176,,2002,,112,,,,,https://www.redfin.com/MD/Forest-Hill/331-Donald-Cir-21050/home/14491286,,,N,Y,39.5688842,-76.3704132
PAST SALE,,Condo/Co-op,202 Kimary Ct,Forest Hill,MD,21050,165000,,,,1300,,1997,,127,,,,,https://www.redfin.com/MD/Forest-Hill/202-Kimary-Ct-21050/home/14506560,,,N,Y,39.5620689,-76.3719748
PAST SALE,,Single Family Residential,2310 Issacs Way,Forest Hill,MD,21050,174000,,2.5,,4325,10454,2019,,40,,,,,https://www.redfin.com/MD/Forest-Hill/2310-Issacs-Way-21050/home/148462115,,,N,Y,39.582828,-76.385631
PAST SALE,January-18-2019,Condo/Co-op,203 Kimary Ct Unit I,Forest Hill,MD,21050,175000,2,2.5,SPENCEOLA FARMS,1600,,1994,1052,109,378,Sold,,,https://www.redfin.com/MD/Forest-Hill/203-Kimary-Ct-21050/unit-I/home/14485113,BRIGHT MLS,1003926518,N,Y,39.562914,-76.371282
PAST SALE,November-7-2019,Condo/Co-op,1715 Landmark Dr Unit 2G,Forest Hill,MD,21050,137000,2,2.0,POND CONDOS,1080,,1990,759,127,240,Sold,,,https://www.redfin.com/MD/Forest-Hill/1715-Landmark-Dr-21050/unit-2G/home/14543900,BRIGHT MLS,MDHR239442,N,Y,39.563213,-76.374585
PAST SALE,October-4-2019,Single Family Residential,910 Bernadette Dr,Forest Hill,MD,21050,269900,3,1.5,FOREST LAKES,2087,10974,1973,793,129,,Sold,,,https://www.redfin.com/MD/Forest-Hill/910-Bernadette-Dr-21050/home/14527646,BRIGHT MLS,MDHR237188,N,Y,39.556888,-76.3894342
PAST SALE,December-17-2018,Condo/Co-op,107-C Sunshine Ct Unit C,Forest Hill,MD,21050,160000,2,2.0,DURHAM MANOR,1000,,1999,1084,160,250,Sold,,,https://www.redfin.com/MD/Forest-Hill/107-Sunshine-Ct-21050/unit-C/home/160600283,BRIGHT MLS,1005928910,N,Y,39.5632017,-76.377334
PAST SALE,September-6-2019,Single Family Residential,1407 Kahoe Rd,Forest Hill,MD,21050,275000,3,1.0,BYNUM RIDGE,1334,15600,1963,821,206,,Sold,,,https://www.redfin.com/MD/Forest-Hill/1407-Kahoe-Rd-21050/home/14491385,BRIGHT MLS,MDHR234000,N,Y,39.5636166,-76.3613544
PAST SALE,July-17-2019,Single Family Residential,1604 Rushing Stream Ct,Forest Hill,MD,21050,650000,5,4.5,MORNING BROOK,6791,53143,2008,872,96,16,Sold,,,https://www.redfin.com/MD/Forest-Hill/1604-Rushing-Stream-Ct-21050/home/14526562,BRIGHT MLS,MDHR231584,N,Y,39.581141,-76.4539229
PAST SALE,February-25-2021,Single Family Residential,2503 Eudora Ct,Forest Hill,MD,21050,770000,5,4.5,COLVARD CHOICE PT,6559,60548,2016,283,117,135,Sold,,,https://www.redfin.com/MD/Forest-Hill/2503-Eudora-Ct-21050/home/15266783,BRIGHT MLS,MDHR255356,N,Y,39.5962911,-76.3778177
PAST SALE,September-21-2021,Condo/Co-op,200 Kimary Ct #2,Forest Hill,MD,21050,205000,2,2.0,SPENCEOLA FARMS,1300,,1996,75,158,293,Sold,,,https://www.redfin.com/MD/Forest-Hill/200-Kimary-Ct-21050/unit-2/home/143416112,BRIGHT MLS,MDHR2001738,N,Y,39.5622364,-76.3714027
PAST SALE,May-22-2020,Single Family Residential,1324 Sharon Acres Rd,Forest Hill,MD,21050,372000,3,2.0,FOREST HILL,2353,54450,1966,562,158,,Sold,,,https://www.redfin.com/MD/Forest-Hill/1324-Sharon-Acres-Rd-21050/home/14492258,BRIGHT MLS,MDHR244824,N,Y,39.5931862,-76.4243786
PAST SALE,April-24-2019,Condo/Co-op,305-J Willrich Cir,Forest Hill,MD,21050,235000,2,2.0,SPENCEOLA FARMS,1340,,2001,956,175,323,Sold,,,https://www.redfin.com/MD/Forest-Hill/305-Willrich-Cir-21050/unit-J/home/14515662,BRIGHT MLS,MDHR223258,N,Y,39.5719924,-76.3688611
PAST SALE,March-2-2020,Single Family Residential,1231 Bear Hollow Ct,Forest Hill,MD,21050,600000,4,3.5,WATER VALE FARM,3862,87556,2005,643,155,21,Sold,,,https://www.redfin.com/MD/Forest-Hill/1231-Bear-Hollow-Ct-21050/home/14511576,BRIGHT MLS,MDHR239844,N,Y,39.5489944,-76.3985893
PAST SALE,January-16-2020,Condo/Co-op,107-F Sunshine Ct,Forest Hill,MD,21050,195000,2,2.0,DURHAM MANOR,1330,,1999,689,147,295,Sold,,,https://www.redfin.com/MD/Forest-Hill/107-Sunshine-Ct-21050/unit-F/home/14548160,BRIGHT MLS,MDHR239816,N,Y,39.563477,-76.37783
PAST SALE,July-31-2019,Single Family Residential,2420 Fairview Dr,Forest Hill,MD,21050,349900,3,2.0,MARTINDALE,2502,24393,1969,858,140,,Sold,,,https://www.redfin.com/MD/Forest-Hill/2420-Fairview-Dr-21050/home/14556453,BRIGHT MLS,MDHR103280,N,Y,39.5828765,-76.3666452
PAST SALE,April-15-2019,Single Family Residential,343 Bynum Rd,Forest Hill,MD,21050,215000,2,1.0,BYNUM,1362,49658,1950,965,158,,Sold,,,https://www.redfin.com/MD/Forest-Hill/343-Bynum-Rd-21050/home/14532451,BRIGHT MLS,MDHR231244,N,Y,39.5664104,-76.3591837
PAST SALE,,Single Family Residential,2417 Edwards Manor Dr,Forest Hill,MD,21050,391000,,2.5,,2244,82328,1997,,174,,,,,https://www.redfin.com/MD/Forest-Hill/2417-Edwards-Manor-Dr-21050/home/14518808,,,N,Y,39.5862523,-76.3710315
PAST SALE,November-24-2021,Townhouse,295 Cherry Tree Sq,Forest Hill,MD,21050,295000,3,2.5,SPENCEOLA FARMS,1760,2040,1996,11,168,47,Sold,,,https://www.redfin.com/MD/Forest-Hill/295-Cherry-Tree-Sq-21050/home/14502789,BRIGHT MLS,MDHR2005278,N,Y,39.5642094,-76.3707246
PAST SALE,November-29-2021,Single Family Residential,119 Theodora Ct,Forest Hill,MD,21050,740777,4,3.5,VALLEYS AT HOWARD'S CHAN,4393,79715,2000,6,169,24,Sold,,,https://www.redfin.com/MD/Forest-Hill/119-Theodora-Ct-21050/home/14547747,BRIGHT MLS,MDHR2004304,N,Y,39.5881806,-76.3769098
PAST SALE,May-12-2020,Single Family Residential,2422 Rocks Rd,Forest Hill,MD,21050,556000,5,2.5,FOREST  HILL,3780,43081,1900,572,147,,Sold,,,https://www.redfin.com/MD/Forest-Hill/2422-Rocks-Rd-21050/home/14488213,BRIGHT MLS,MDHR237016,N,Y,39.5879563,-76.3883491
PAST SALE,,Single Family Residential,30 E Jarrettsville Rd Unit A,Forest Hill,MD,21050,290000,,1.5,,1536,187744,1992,,189,,,,,https://www.redfin.com/MD/Forest-Hill/30-E-Jarrettsville-Rd-21050/unit-A/home/14490966,,,N,Y,39.587596,-76.383514
PAST SALE,,Single Family Residential,2234 Rock Spring Rd,Forest Hill,MD,21050,357500,,1.5,,1767,21780,1957,,202,,,,,https://www.redfin.com/MD/Forest-Hill/2234-Rock-Spring-Rd-21050/home/14501013,,,N,Y,39.5797838,-76.3872135
PAST SALE,,Single Family Residential,1994 Hill View Ct,Forest Hill,MD,21050,440000,,3.5,,2800,8557,1997,,157,,,,,https://www.redfin.com/MD/Forest-Hill/1994-Hill-View-Ct-21050/home/14507496,,,N,Y,39.5635555,-76.3821548
PAST SALE,,Single Family Residential,2209 Tory Way,Forest Hill,MD,21050,445000,,2.5,,2710,11586,1999,,164,,,,,https://www.redfin.com/MD/Forest-Hill/2209-Tory-Way-21050/home/14531859,,,N,Y,39.580109,-76.3835245
PAST SALE,,Single Family Residential,1601 Lasalle Rd,Forest Hill,MD,21050,360000,,2.0,,3334,155074,1970,,108,,,,,https://www.redfin.com/MD/Forest-Hill/1601-Lasalle-Rd-21050/home/14520344,,,N,Y,39.5536143,-76.4059356
PAST SALE,November-5-2021,Single Family Residential,1403-A Kahoe Rd,Forest Hill,MD,21050,395000,3,2.5,BYNUM RIDGE,2142,12065,1985,30,184,,Sold,,,https://www.redfin.com/MD/Forest-Hill/1403A-Kahoe-Rd-21050/home/59412019,BRIGHT MLS,MDHR2003550,N,Y,39.5630327,-76.3614448
PAST SALE,,Single Family Residential,1708 Belvue Dr,Forest Hill,MD,21050,260001,,2.0,,2064,181210,1967,,126,,,,,https://www.redfin.com/MD/Forest-Hill/1708-Belvue-Dr-21050/home/14544886,,,N,Y,39.5531963,-76.4126034
PAST SALE,,Single Family Residential,1539 Boggs Rd,Forest Hill,MD,21050,235000,,1.0,,1296,43560,1971,,181,,,,,https://www.redfin.com/MD/Forest-Hill/1539-Boggs-Rd-21050/home/14494298,,,N,Y,39.558505,-76.4167395
PAST SALE,June-28-2021,Single Family Residential,2201 Daly Ct,Forest Hill,MD,21050,500000,4,2.5,TUCHAHOE FARMS,2154,8537,2000,160,232,37,Sold,,,https://www.redfin.com/MD/Forest-Hill/2201-Daly-Ct-21050/home/14553070,BRIGHT MLS,MDHR260162,N,Y,39.5746438,-76.3657408
PAST SALE,August-6-2021,Townhouse,2017 Mardic Dr,Forest Hill,MD,21050,308000,4,2.5,SPENCEOLA FARMS,1760,2120,1999,121,175,45,Sold,,,https://www.redfin.com/MD/Forest-Hill/2017-Mardic-Dr-21050/home/14511441,BRIGHT MLS,MDHR2000168,N,Y,39.5724423,-76.372744
PAST SALE,December-30-2019,Condo/Co-op,206 Kimary Ct Unit 3A,Forest Hill,MD,21050,185000,2,2.0,SPENCEOLA FARMS,1200,,1997,706,154,283,Sold,,,https://www.redfin.com/MD/Forest-Hill/206-Kimary-Ct-21050/unit-3A/home/176134476,BRIGHT MLS,MDHR238856,N,Y,39.5623004,-76.3704225
PAST SALE,October-15-2021,Single Family Residential,2209 Ady Rd,Forest Hill,MD,21050,225000,4,4.0,HICKORY,2700,26353,1969,51,83,,Sold,,,https://www.redfin.com/MD/Forest-Hill/2209-Ady-Rd-21050/home/14563440,BRIGHT MLS,MDHR2002026,N,Y,39.5797844,-76.3450282
PAST SALE,May-15-2020,Townhouse,1987 Esther Ct,Forest Hill,MD,21050,267000,3,2.5,SPENCEOLA FARMS,1873,2400,2000,569,143,45,Sold,,,https://www.redfin.com/MD/Forest-Hill/1987-Esther-Ct-21050/home/14496721,BRIGHT MLS,MDHR244748,N,Y,39.57318,-76.3708
PAST SALE,,Single Family Residential,813 Yvette Dr,Forest Hill,MD,21050,240000,,2.0,,1622,11988,1975,,148,,,,,https://www.redfin.com/MD/Forest-Hill/813-Yvette-Dr-21050/home/14487645,,,N,Y,39.557716,-76.3883943
PAST SALE,October-22-2021,Single Family Residential,2554 Flora Meadows Dr,Forest Hill,MD,21050,820000,5,3.5,FLORA MEADOWS,5594,73616,2005,44,147,33,Sold,,,https://www.redfin.com/MD/Forest-Hill/2554-Flora-Meadows-Dr-21050/home/14544086,BRIGHT MLS,MDHR2002202,N,Y,39.5907875,-76.3846642
PAST SALE,November-14-2019,Single Family Residential,1823 Cosner Rd,Forest Hill,MD,21050,746000,5,5.5,THE OVERLOOK,7171,89734,2005,752,104,,Sold,,,https://www.redfin.com/MD/Forest-Hill/1823-Cosner-Rd-21050/home/14544335,BRIGHT MLS,MDHR232006,N,Y,39.5630374,-76.4333957
PAST SALE,,Single Family Residential,1903 Cherish Ct,Forest Hill,MD,21050,530000,4,4.0,,3991,19033,2002,,133,,,,,https://www.redfin.com/MD/Forest-Hill/1903-Cherish-Ct-21050/home/14501032,,,N,Y,39.5615009,-76.3940148
PAST SALE,June-21-2019,Townhouse,271 Trudy Ct,Forest Hill,MD,21050,300000,3,2.5,SPENCEOLA FARMS,2401,2952,2002,898,125,61,Sold,,,https://www.redfin.com/MD/Forest-Hill/271-Trudy-Ct-21050/home/14524668,BRIGHT MLS,MDHR232058,N,Y,39.5712136,-76.3728854
PAST SALE,October-14-2021,Condo/Co-op,1708 Landmark Dr Unit 2G,Forest Hill,MD,21050,188000,2,1.0,POND CONDOS,1080,,1992,52,174,245,Sold,,,https://www.redfin.com/MD/Forest-Hill/1708-Landmark-Dr-21050/unit-2G/home/14513486,BRIGHT MLS,MDHR2003656,N,Y,39.56264,-76.374301
PAST SALE,August-2-2019,Condo/Co-op,1700 Rich Way Unit 9 - I (3 A),Forest Hill,MD,21050,180000,2,2.0,SPENCEOLA FARMS,1330,,1998,856,135,263,Sold,,,https://www.redfin.com/MD/Forest-Hill/1700-Rich-Way-21050/unit-9-I-3-A/home/166835808,BRIGHT MLS,MDHR233542,N,Y,39.5646035,-76.373003
PAST SALE,October-7-2021,Townhouse,2038 Mardic Dr,Forest Hill,MD,21050,283000,3,2.5,SPENCEOLA FARMS,1980,3000,2000,59,143,49,Sold,,,https://www.redfin.com/MD/Forest-Hill/2038-Mardic-Dr-21050/home/14520091,BRIGHT MLS,MDHR2003378,N,Y,39.5722983,-76.3737559
PAST SALE,,Vacant Land,PLEASANTVILLE RD,FOREST HILL,MD,21050,345000,,,,,1495850,,,,,,,,https://www.redfin.com/MD/FOREST-HILL/PLEASANTVILLE-RD-21050/home/14486165,,,N,Y,39.551123,-76.435257
PAST SALE,October-19-2021,Townhouse,1811 Beth Bridge Cir,Forest Hill,MD,21050,249333,3,1.5,DURHAM MANOR,1480,2221,1988,47,168,33,Sold,,,https://www.redfin.com/MD/Forest-Hill/1811-Beth-Bridge-Cir-21050/home/14554423,BRIGHT MLS,MDHR2003388,N,Y,39.561167,-76.379282
PAST SALE,April-27-2020,Single Family Residential,1807 Belvue Dr,Forest Hill,MD,21050,359000,4,2.5,RIDGECROFT & ADDITION,2700,58806,1973,587,133,,Sold,,,https://www.redfin.com/MD/Forest-Hill/1807-Belvue-Dr-21050/home/14556626,BRIGHT MLS,MDHR244818,N,Y,39.5579577,-76.4104562
PAST SALE,January-15-2021,Single Family Residential,2621 Johnson Mill Rd,Forest Hill,MD,21050,640000,5,3.5,JOHNSON MILL FARMS,3490,167706,2000,324,183,,Sold,,,https://www.redfin.com/MD/Forest-Hill/2621-Johnson-Mill-Rd-21050/home/15268793,BRIGHT MLS,MDHR254518,N,Y,39.5987247,-76.3661252
PAST SALE,December-11-2020,Single Family Residential,1714 Campbell Rd,Forest Hill,MD,21050,480000,4,2.5,PLEASANT VIEW FARMS,2941,51401,1978,359,163,,Sold,,,https://www.redfin.com/MD/Forest-Hill/1714-Campbell-Rd-21050/home/14527725,BRIGHT MLS,MDHR250586,N,Y,39.5551761,-76.4250577
PAST SALE,January-2-2019,Townhouse,2018 Maria Ct,Forest Hill,MD,21050,239900,3,3.5,SPENCEOLA FARMS,1354,2100,2001,1068,177,46,Sold,,,https://www.redfin.com/MD/Forest-Hill/2018-Maria-Ct-21050/home/14483491,BRIGHT MLS,MDHR100064,N,Y,39.5730237,-76.3723775
PAST SALE,December-6-2019,Single Family Residential,109 Rock Spring Church Rd,Forest Hill,MD,21050,334900,3,2.0,FOREST  HILL,1548,30492,1983,730,216,,Sold,,,https://www.redfin.com/MD/Forest-Hill/109-Rockspring-Church-Rd-21050/home/14547029,BRIGHT MLS,MDHR240520,N,Y,39.5727883,-76.3906449
PAST SALE,,Single Family Residential,15 Haystack Ct,Forest Hill,MD,21050,536316,,,,,13372,,,,,,,,https://www.redfin.com/MD/Forest-Hill/15-Haystack-Ct-21050/home/147346181,,,N,Y,39.582757,-76.386699
PAST SALE,,Single Family Residential,2406 Edwards Manor Dr,Forest Hill,MD,21050,525000,,3.0,,3240,157252,1996,,162,,,,,https://www.redfin.com/MD/Forest-Hill/2406-Edwards-Manor-Dr-21050/home/14485205,,,N,Y,39.5814443,-76.3694129
PAST SALE,June-21-2019,Single Family Residential,503 Limerick Ct,Forest Hill,MD,21050,370000,3,3.0,CASTLE BLANEY,2868,8070,1999,898,129,20,Sold,,,https://www.redfin.com/MD/Forest-Hill/503-Limerick-Ct-21050/home/14505695,BRIGHT MLS,MDHR232806,N,Y,39.576767,-76.3526262
PAST SALE,June-28-2019,Single Family Residential,1800 Creston Dr,Forest Hill,MD,21050,363000,3,2.5,MONTFORD GLEN,2016,30284,1977,891,180,,Sold,,,https://www.redfin.com/MD/Forest-Hill/1800-Creston-Dr-21050/home/14517653,BRIGHT MLS,MDHR232322,N,Y,39.5519074,-76.4306613
PAST SALE,July-15-2019,Condo/Co-op,112 Gwen Dr Unit 1K,Forest Hill,MD,21050,148000,3,2.0,COURTYARDS @ POND,1260,,1995,874,117,205,Sold,,,https://www.redfin.com/MD/Forest-Hill/112-Gwen-Dr-21050/unit-1K/home/14545314,BRIGHT MLS,MDHR222858,N,Y,39.5630961,-76.3788193
PAST SALE,April-10-2020,Single Family Residential,2444 Dixie Ln,Forest Hill,MD,21050,612000,4,4.0,MICHAEL'S MEADOW,5464,200812,1994,604,112,,Sold,,,https://www.redfin.com/MD/Forest-Hill/2444-Dixie-Ln-21050/home/14554812,BRIGHT MLS,MDHR243024,N,Y,39.5824573,-76.3544804
PAST SALE,August-2-2021,Townhouse,1807 Beth Bridge Cir,Forest Hill,MD,21050,280000,3,2.5,DURHAM MANOR,1900,2221,1988,125,147,33,Sold,,,https://www.redfin.com/MD/Forest-Hill/1807-Beth-Bridge-Cir-21050/home/14482870,BRIGHT MLS,MDHR260370,N,Y,39.561274,-76.379246
PAST SALE,November-29-2021,Townhouse,2121 Mardic Dr,Forest Hill,MD,21050,310000,3,2.5,SPENCEOLA FARMS,1622,2120,2002,6,191,49,Sold,,,https://www.redfin.com/MD/Forest-Hill/2121-Mardic-Dr-21050/home/14492083,BRIGHT MLS,MDHR2005128,N,Y,39.5735104,-76.374615
PAST SALE,October-14-2019,Single Family Residential,1913 Munsey Dr,Forest Hill,MD,21050,430000,4,3.0,FOREST LAKES,3144,14375,1990,783,137,3,Sold,,,https://www.redfin.com/MD/Forest-Hill/1913-Munsey-Dr-21050/home/14522941,BRIGHT MLS,MDHR237748,N,Y,39.5619302,-76.38749
PAST SALE,July-19-2021,Single Family Residential,1908 Bowen Way,Forest Hill,MD,21050,450500,3,3.0,FOREST LAKES,2548,12674,1992,139,177,3,Sold,,,https://www.redfin.com/MD/Forest-Hill/1908-Bowen-Way-21050/home/14504053,BRIGHT MLS,MDHR259938,N,Y,39.5616647,-76.3867658
PAST SALE,March-15-2021,Townhouse,1844 Beth Bridge Cir,Forest Hill,MD,21050,280000,4,2.5,DURHAM MANOR,1628,3833,1991,265,172,11,Sold,,,https://www.redfin.com/MD/Forest-Hill/1844-Beth-Bridge-Cir-21050/home/14488360,BRIGHT MLS,MDHR255774,N,Y,39.5606568,-76.3797756
PAST SALE,May-15-2020,Townhouse,1846 Beth Bridge Cir,Forest Hill,MD,21050,238000,3,3.0,DURHAM MANOR,1574,2221,1991,569,151,32,Sold,,,https://www.redfin.com/MD/Forest-Hill/1846-Beth-Bridge-Cir-21050/home/14503132,BRIGHT MLS,MDHR243898,N,Y,39.5606129,-76.379728
PAST SALE,,Condo/Co-op,201 Kimary Ct Unit 201-L,Forest Hill,MD,21050,200000,,,,1400,,1994,,143,,,,,https://www.redfin.com/MD/Forest-Hill/201-Kimary-Ct-21050/unit-201-L/home/14534827,,,N,Y,39.562531,-76.370576
PAST SALE,August-30-2019,Single Family Residential,2019 Hillcroft Dr,Forest Hill,MD,21050,360000,3,2.5,HIGHFIELD PARK,2476,28050,1987,828,145,,Sold,,,https://www.redfin.com/MD/Forest-Hill/2019-Hillcroft-Dr-21050/home/14519903,BRIGHT MLS,MDHR232356,N,Y,39.5743795,-76.4396102
PAST SALE,January-14-2019,Single Family Residential,1800 Morning Brook Dr,Forest Hill,MD,21050,592000,5,4.5,MORNING BROOK,4400,43124,2004,1056,135,16,Sold,,,https://www.redfin.com/MD/Forest-Hill/1800-Morning-Brook-Dr-21050/home/14555547,BRIGHT MLS,1009908324,N,Y,39.5734084,-76.4538458
PAST SALE,December-20-2019,Condo/Co-op,1702 Rich Way Unit 2B,Forest Hill,MD,21050,175000,2,2.0,SPENCEOLA FARMS,1330,,1998,716,132,263,Sold,,,https://www.redfin.com/MD/Forest-Hill/1702-Rich-Way-21050/unit-2B/home/14556443,BRIGHT MLS,MDHR240578,N,Y,39.564464,-76.373624
PAST SALE,August-10-2021,Single Family Residential,1639 Denwright Ct,Forest Hill,MD,21050,895000,4,4.5,HIGH POINT MEADOWS,5890,124582,2006,117,152,,Sold,,,https://www.redfin.com/MD/Forest-Hill/1639-Denwright-Ct-21050/home/14563711,BRIGHT MLS,MDHR258424,N,Y,39.5686857,-76.4206721
PAST SALE,November-26-2021,Townhouse,231 Melrose Ct,Forest Hill,MD,21050,147000,2,1.0,BYNUM WOODS,832,,1968,9,177,115,Sold,,,https://www.redfin.com/MD/Forest-Hill/231-Melrose-Ct-21050/home/14531494,BRIGHT MLS,MDHR2002138,N,Y,39.5704867,-76.3648522
PAST SALE,November-3-2021,Townhouse,1982 Esther Ct,Forest Hill,MD,21050,310000,3,2.5,SPENCEOLA FARMS,1650,2400,2001,32,188,49,Sold,,,https://www.redfin.com/MD/Forest-Hill/1982-Esther-Ct-21050/home/14520457,BRIGHT MLS,MDHR2003088,N,Y,39.572566,-76.370948
PAST SALE,June-7-2019,Condo/Co-op,111 Sunshine Ct Unit H,Forest Hill,MD,21050,200000,2,2.0,DURHAM MANOR,1330,,2000,912,150,234,Sold,,,https://www.redfin.com/MD/Forest-Hill/111-Sunshine-Ct-21050/unit-H/home/14500194,BRIGHT MLS,MDHR231374,N,Y,39.562975,-76.3782906
PAST SALE,April-19-2021,Condo/Co-op,1716 C Landmark,Forest Hill,MD,21050,180000,2,2.0,THE POND,1080,,1991,230,167,245,Sold,,,https://www.redfin.com/MD/Forest-Hill/1716-Landmark-Dr-21050/unit-3C/home/14501257,BRIGHT MLS,MDHR257334,N,Y,39.562495,-76.37576
PAST SALE,August-16-2019,Single Family Residential,2318 Howland Ct,Forest Hill,MD,21050,340000,3,2.5,TUCHAHOE FARMS,2264,11194,1999,842,150,33,Sold,,,https://www.redfin.com/MD/Forest-Hill/2318-Howland-Ct-21050/home/14544218,BRIGHT MLS,MDHR235108,N,Y,39.5762466,-76.3628919
PAST SALE,,Single Family Residential,310 Streett Cir,Forest Hill,MD,21050,395470,,3.5,,2994,9016,1999,,132,,,,,https://www.redfin.com/MD/Forest-Hill/310-Streett-Cir-21050/home/14510026,,,N,Y,39.5640295,-76.3688158
PAST SALE,January-23-2020,Single Family Residential,2008 Hialeah Ct,Forest Hill,MD,21050,413900,3,2.5,FOREST LAKES,2546,15554,1997,682,163,19,Sold,,,https://www.redfin.com/MD/Forest-Hill/2008-Hialeah-Ct-21050/home/14489263,BRIGHT MLS,MDHR238808,N,Y,39.5667703,-76.3851841
PAST SALE,,Mobile/Manufactured Home,2252 Phillips Mill Rd,Forest Hill,MD,21050,265000,,2.5,,980,53579,1980,,270,,,,,https://www.redfin.com/MD/Forest-Hill/2252-Phillips-Mill-Rd-21050/home/14522750,,,N,Y,39.5826956,-76.4342658
PAST SALE,,Townhouse,2170 Historic Dr,Forest Hill,MD,21050,210000,,1.5,,1652,2005,1994,,127,,,,,https://www.redfin.com/MD/Forest-Hill/2170-Historic-Dr-21050/home/14562824,,,N,Y,39.5739222,-76.362172
PAST SALE,August-15-2019,Townhouse,2094 Brandy Dr,Forest Hill,MD,21050,300000,3,3.0,ROSEFIELDS,2208,4717,1994,843,136,60,Sold,,,https://www.redfin.com/MD/Forest-Hill/2094-Brandy-Dr-21050/home/14527523,BRIGHT MLS,MDHR235360,N,Y,39.565893,-76.388328
PAST SALE,,Townhouse,2198 Cantley Dr,Forest Hill,MD,21050,230000,,2.5,,1934,2000,1994,,119,,,,,https://www.redfin.com/MD/Forest-Hill/2198-Cantley-Dr-21050/home/14542395,,,N,Y,39.574214,-76.3606436
PAST SALE,,Townhouse,296 Spencer Cir,Forest Hill,MD,21050,265000,,3.0,,2140,2040,1994,,124,,,,,https://www.redfin.com/MD/Forest-Hill/296-Spencer-Cir-21050/home/14484712,,,N,Y,39.5635749,-76.3702244
PAST SALE,February-26-2020,Townhouse,263 Spencer Cir,Forest Hill,MD,21050,225000,3,2.5,SPENCEOLA FARMS,1666,2040,1995,648,135,42,Sold,,,https://www.redfin.com/MD/Forest-Hill/263-Spencer-Cir-21050/home/14560387,BRIGHT MLS,MDHR240124,N,Y,39.5634581,-76.3714494
PAST SALE,,Condo/Co-op,201 Kimary Ct Unit 201-B,Forest Hill,MD,21050,145000,,,,1330,,1994,,109,,,,,https://www.redfin.com/MD/Forest-Hill/201-Kimary-Ct-21050/unit-201-B/home/14516876,,,N,Y,39.562463,-76.370664
PAST SALE,,Townhouse,2039 Brandy Dr,Forest Hill,MD,21050,290000,,3.5,,2338,3777,1996,,124,,,,,https://www.redfin.com/MD/Forest-Hill/2039-Brandy-Dr-21050/home/14562200,,,N,Y,39.5672011,-76.3878065
PAST SALE,January-15-2020,Townhouse,1725 Chrisara Ct,Forest Hill,MD,21050,276000,3,3.0,SPENCEOLA FARMS,1480,2200,1999,690,186,45,Sold,,,https://www.redfin.com/MD/Forest-Hill/1725-Chrisara-Ct-21050/home/14554567,BRIGHT MLS,MDHR241504,N,Y,39.565578,-76.37263
PAST SALE,,Single Family Residential,224 Thomas Manor Ln,Forest Hill,MD,21050,500000,,2.5,,3416,108029,1996,,146,,,,,https://www.redfin.com/MD/Forest-Hill/224-Thomas-Manor-Ln-21050/home/14557586,,,N,Y,39.5837138,-76.3676853
PAST SALE,August-9-2019,Single Family Residential,1704 Grafton Ridge Ct,Forest Hill,MD,21050,625000,4,3.5,GRAFTON RIDGE,4202,40554,2007,849,149,43,Sold,,,https://www.redfin.com/MD/Forest-Hill/1704-Grafton-Ridge-Ct-21050/home/14517446,BRIGHT MLS,MDHR232024,N,Y,39.5527154,-76.397866
PAST SALE,,Townhouse,2182 Sewanee Dr,Forest Hill,MD,21050,235000,,2.5,,1625,2160,1995,,145,,,,,https://www.redfin.com/MD/Forest-Hill/2182-Sewanee-Dr-21050/home/14541226,,,N,Y,39.573704,-76.360757
PAST SALE,February-24-2020,Condo/Co-op,200 Kimary Ct Unit 3B,Forest Hill,MD,21050,159900,2,2.0,SPENCEOLA FARMS,1300,,1996,650,123,288,Sold,,,https://www.redfin.com/MD/Forest-Hill/200-Kimary-Ct-21050/unit-10/home/14516667,BRIGHT MLS,MDHR241914,N,Y,39.5620689,-76.3719748
PAST SALE,November-18-2021,Single Family Residential,1819 Morning Brook Dr,Forest Hill,MD,21050,975000,6,6.5,MORNING BROOK,8124,38665,2006,17,120,16,Sold,,,https://www.redfin.com/MD/Forest-Hill/1819-Morning-Brook-Dr-21050/home/14502399,BRIGHT MLS,MDHR2001320,N,Y,39.5718247,-76.4486715
PAST SALE,July-16-2020,Single Family Residential,327 Streett Cir,Forest Hill,MD,21050,490000,5,3.0,SPENCEOLA FARMS,3099,9452,1998,507,158,33,Sold,,,https://www.redfin.com/MD/Forest-Hill/327-Streett-Cir-21050/home/14554067,BRIGHT MLS,MDHR245978,N,Y,39.5655108,-76.3674823
PAST SALE,July-16-2020,Condo/Co-op,301 Willrich Cir Unit A,Forest Hill,MD,21050,219000,2,2.0,SPENCEOLA FARMS,1400,,2000,507,156,274,Sold,,,https://www.redfin.com/MD/Forest-Hill/301-Willrich-Cir-21050/unit-A/home/14537901,BRIGHT MLS,MDHR245898,N,Y,39.5723345,-76.3703404
PAST SALE,December-21-2020,Condo/Co-op,200 Clifford Ln Unit 3C,Forest Hill,MD,21050,206000,3,2.0,COURTYARDS @ POND,1468,,1996,349,140,205,Sold,,,https://www.redfin.com/MD/Forest-Hill/200-Clifford-Ln-21050/unit-3C/home/14517078,BRIGHT MLS,MDHR252418,N,Y,39.562711,-76.379759
PAST SALE,,Single Family Residential,2311 Howland Ct,Forest Hill,MD,21050,357000,,2.5,,2154,7143,1998,,166,,,,,https://www.redfin.com/MD/Forest-Hill/2311-Howland-Ct-21050/home/14554460,,,N,Y,39.5755943,-76.3630728
PAST SALE,February-10-2020,Condo/Co-op,1702 Rich Way Unit 2A,Forest Hill,MD,21050,180000,2,2.0,SPENCEOLA FARMS,1320,,1998,664,136,230,Sold,,,https://www.redfin.com/MD/Forest-Hill/1702-Rich-Way-21050/unit-5/home/14509106,BRIGHT MLS,MDHR242690,N,Y,39.56454,-76.373839
PAST SALE,May-28-2019,Single Family Residential,2411 Feather Mae Ct,Forest Hill,MD,21050,540000,4,3.5,FIELDER'S FARM P 92/43,4218,72310,1999,922,128,40,Sold,,,https://www.redfin.com/MD/Forest-Hill/2411-Feather-Mae-Ct-21050/home/14539313,BRIGHT MLS,MDHR221786,N,Y,39.5859481,-76.3726367
PAST SALE,October-13-2020,Single Family Residential,1118 Bernadette Dr,Forest Hill,MD,21050,340000,3,2.0,FOREST LAKES,2275,19012,1971,418,149,,Sold,,,https://www.redfin.com/MD/Forest-Hill/1118-Bernadette-Dr-21050/home/14528686,BRIGHT MLS,MDHR250280,N,Y,39.5590207,-76.396035
PAST SALE,June-24-2019,Condo/Co-op,305 Willrich Cir Unit G,Forest Hill,MD,21050,224000,2,2.0,SPENCEOLA FARMS,1340,,2001,895,167,323,Sold,,,https://www.redfin.com/MD/Forest-Hill/305-Willrich-Cir-21050/unit-G/home/14529563,BRIGHT MLS,MDHR232930,N,Y,39.5719924,-76.3688611
PAST SALE,,Townhouse,208 Colgate Dr,Forest Hill,MD,21050,296501,,2.5,,2788,5206,2002,,106,,,,,https://www.redfin.com/MD/Forest-Hill/208-Colgate-Dr-21050/home/14538558,,,N,Y,39.5740534,-76.3797993
PAST SALE,November-19-2021,Single Family Residential,2398 Edwards Manor Dr,Forest Hill,MD,21050,693000,4,4.5,EDWARDS MANOR,4496,118048,1997,16,154,42,Sold,,,https://www.redfin.com/MD/Forest-Hill/2398-Edwards-Manor-Dr-21050/home/14541423,BRIGHT MLS,MDHR2000876,N,Y,39.5800805,-76.3711219
PAST SALE,July-16-2020,Single Family Residential,2303 Tyler Rd,Forest Hill,MD,21050,285000,3,1.0,HICKORY HILLS,1556,20037,1960,507,183,,Sold,,,https://www.redfin.com/MD/Forest-Hill/2303-Tyler-Rd-21050/home/14488672,BRIGHT MLS,MDHR247148,N,Y,39.5806081,-76.3512695
PAST SALE,April-5-2019,Single Family Residential,801 Kensington Farm Ct,Forest Hill,MD,21050,725000,5,5.0,KENSINGTON FARM,6172,87991,2004,975,117,,Sold,,,https://www.redfin.com/MD/Forest-Hill/801-Kensington-Farm-Ct-21050/home/14559346,BRIGHT MLS,1006138918,N,Y,39.6055778,-76.3691097
PAST SALE,,Single Family Residential,335 Chestnut Hill Rd Unit A,Forest Hill,MD,21050,593150,,3.5,,3722,141134,2001,,159,,,,,https://www.redfin.com/MD/Forest-Hill/335-Chestnut-Hill-Rd-21050/unit-A/home/14485838,,,N,Y,39.6034231,-76.3716419
PAST SALE,March-27-2019,Condo/Co-op,1708 Landmark Dr Unit 3B,Forest Hill,MD,21050,158000,3,1.0,POND CONDOS,1240,,1992,984,127,230,Sold,,,https://www.redfin.com/MD/Forest-Hill/1708-Landmark-Dr-21050/unit-3B/home/14504944,BRIGHT MLS,MDHR221746,N,Y,39.562536,-76.374368
PAST SALE,July-1-2019,Single Family Residential,129 Loretta Way,Forest Hill,MD,21050,445000,4,3.5,FOREST GLEN,3118,10576,2002,888,143,21,Sold,,,https://www.redfin.com/MD/Forest-Hill/129-Loretta-Way-21050/home/14523593,BRIGHT MLS,MDHR232912,N,Y,39.5694983,-76.372795
PAST SALE,,Condo/Co-op,1701 Rich Way Unit K,Forest Hill,MD,21050,189000,,,,1340,,2000,,141,,,,,https://www.redfin.com/MD/Forest-Hill/1701-Rich-Way-21050/unit-K/home/14513003,,,N,Y,39.5644772,-76.372736
PAST SALE,,Single Family Residential,2409 Cone Hill Ct,Forest Hill,MD,21050,770000,,3.5,,4506,156816,2002,,171,,,,,https://www.redfin.com/MD/Forest-Hill/2409-Cone-Hill-Ct-21050/home/14510279,,,N,Y,39.5980988,-76.3495735
PAST SALE,September-30-2020,Townhouse,2115 Mardic Dr,Forest Hill,MD,21050,269000,3,2.5,SPENCEOLA FARMS,1650,2120,2002,431,163,,Sold,,,https://www.redfin.com/MD/Forest-Hill/2115-Mardic-Dr-21050/home/14527186,BRIGHT MLS,MDHR252284,N,Y,39.5733609,-76.3745246
PAST SALE,April-22-2021,Condo/Co-op,1721 Chrisemmett Ct Unit 2A,Forest Hill,MD,21050,150000,2,1.0,POND CONDOS,1070,,1991,227,140,245,Sold,,,https://www.redfin.com/MD/Forest-Hill/1721-Chrisemmett-Ct-21050/unit-2A/home/14529434,BRIGHT MLS,MDHR259102,N,Y,39.564235,-76.374907
PAST SALE,August-30-2019,Condo/Co-op,307 Willrich Cir Unit G,Forest Hill,MD,21050,227500,2,2.0,SPENCEOLA FARMS,1340,,2002,828,170,323,Sold,,,https://www.redfin.com/MD/Forest-Hill/307-Willrich-Cir-21050/unit-G/home/14497786,BRIGHT MLS,MDHR234330,N,Y,39.5717351,-76.3683439
PAST SALE,January-21-2020,Condo/Co-op,303-G Willrich Cir,Forest Hill,MD,21050,227500,2,2.0,SPENCEOLA FARMS,1340,,2000,684,170,300,Sold,,,https://www.redfin.com/MD/Forest-Hill/303-Willrich-Cir-21050/unit-G/home/14552325,BRIGHT MLS,MDHR239862,N,Y,39.572087,-76.369682
PAST SALE,,Condo/Co-op,306 Willrich Cir Unit D,Forest Hill,MD,21050,231562,,,,1400,,2003,,165,,,,,https://www.redfin.com/MD/Forest-Hill/306-Willrich-Cir-21050/unit-D/home/14548753,,,N,Y,39.5726199,-76.3688279
PAST SALE,June-22-2020,Single Family Residential,2519 Chestnut Hill Rd,Forest Hill,MD,21050,387000,3,2.5,CHESTNUT MANOR,1760,120661,1920,531,220,,Sold,,,https://www.redfin.com/MD/Forest-Hill/2519-Chestnut-Hill-Rd-21050/home/14512654,BRIGHT MLS,MDHR243458,N,Y,39.5998843,-76.343946
PAST SALE,January-22-2021,Single Family Residential,2552 Flora Meadows Dr,Forest Hill,MD,21050,715000,4,3.0,FLORA MEADOWS,4156,68825,2004,317,172,33,Sold,,,https://www.redfin.com/MD/Forest-Hill/2552-Flora-Meadows-Dr-21050/home/14496167,BRIGHT MLS,MDHR254818,N,Y,39.5914001,-76.3844833
PAST SALE,,Townhouse,297 Spencer Cir,Forest Hill,MD,21050,257000,,2.5,,1680,2040,1996,,153,,,,,https://www.redfin.com/MD/Forest-Hill/297-Spencer-Cir-21050/home/14516060,,,N,Y,39.5632021,-76.3700786
PAST SALE,August-13-2020,Single Family Residential,116 Aqueduct Ct,Forest Hill,MD,21050,425000,4,2.5,FOREST LAKES,2968,9736,2002,479,143,19,Sold,,,https://www.redfin.com/MD/Forest-Hill/116-Aqueduct-Ct-21050/home/14484114,BRIGHT MLS,MDHR248452,N,Y,39.5659527,-76.3783115
PAST SALE,July-29-2021,Single Family Residential,1112 Bernadette Dr,Forest Hill,MD,21050,435000,3,2.5,FOREST LAKES,2037,31613,1966,129,214,,Sold,,,https://www.redfin.com/MD/Forest-Hill/1112-Bernadette-Dr-21050/home/14485118,BRIGHT MLS,MDHR260532,N,Y,39.558861,-76.3951494
PAST SALE,March-17-2021,Single Family Residential,2225 Grafton Shop,Forest Hill,MD,21050,725000,6,9.5,FOREST HILL,11914,565844,1940,263,61,,Sold,,,https://www.redfin.com/MD/Forest-Hill/2225-Grafton-Shop-Rd-21050/home/14491580,BRIGHT MLS,MDHR243782,N,Y,39.5779179,-76.400955
PAST SALE,September-29-2020,Single Family Residential,511 Kilarney Ct,Forest Hill,MD,21050,446000,4,3.5,CASTLE BLANEY,2176,9734,1997,432,205,22,Sold,,,https://www.redfin.com/MD/Forest-Hill/511-Kilarney-Ct-21050/home/14554737,BRIGHT MLS,MDHR250108,N,Y,39.5776085,-76.3520383
PAST SALE,August-13-2020,Single Family Residential,1644 Kreitler Valley Rd,Forest Hill,MD,21050,398000,4,4.0,JARRETTSWOOD,2625,32444,1978,479,152,,Sold,,,https://www.redfin.com/MD/Forest-Hill/1644-Kreitler-Valley-Rd-21050/home/14549642,BRIGHT MLS,MDHR247328,N,Y,39.5903184,-76.4649142
PAST SALE,February-15-2019,Condo/Co-op,305-C Willrich Cir,Forest Hill,MD,21050,229000,2,2.0,SPENCEOLA FARMS,1400,,2001,1024,164,320,Sold,,,https://www.redfin.com/MD/Forest-Hill/305-Willrich-Cir-21050/unit-C/home/14488118,BRIGHT MLS,MDHR179742,N,Y,39.5719924,-76.3688611
PAST SALE,January-7-2021,Single Family Residential,2851 Grier Nursery Rd,Forest Hill,MD,21050,425000,3,2.0,LD BELCHER,2174,23522,1978,332,195,,Sold,,,https://www.redfin.com/MD/Forest-Hill/2851-Grier-Nursery-Rd-21050/home/14511260,BRIGHT MLS,MDHR254642,N,Y,39.6081845,-76.3851841
PAST SALE,,Single Family Residential,2317 Issacs Way,Forest Hill,MD,21050,174000,,2.5,,2317,13242,2020,,75,,,,,https://www.redfin.com/MD/Forest-Hill/2317-Issacs-Way-21050/home/148462119,,,N,Y,39.58351,-76.385159
PAST SALE,October-16-2020,Single Family Residential,102 Theodora Ct,Forest Hill,MD,21050,550000,5,4.5,VALLEYS AT HOWARD'S CHAN,3228,53579,2000,415,170,24,Sold,,,https://www.redfin.com/MD/Forest-Hill/102-Theodora-Ct-21050/home/14559342,BRIGHT MLS,MDHR250486,N,Y,39.5860685,-76.3788089
PAST SALE,April-30-2020,Condo/Co-op,1701 Rich Way Unit L,Forest Hill,MD,21050,189900,2,2.0,SPENCEOLA FARMS,1340,,2000,584,142,283,Sold,,,https://www.redfin.com/MD/Forest-Hill/1701-Rich-Way-21050/unit-L/home/14510685,BRIGHT MLS,MDHR243632,N,Y,39.5644772,-76.372736
PAST SALE,,Single Family Residential,810 Yvette Dr,Forest Hill,MD,21050,410000,,2.5,,2014,16724,1974,,204,,,,,https://www.redfin.com/MD/Forest-Hill/810-Yvette-Dr-21050/home/14551848,,,N,Y,39.5575581,-76.3873996
PAST SALE,,Other,2436 Bailey Rd,Forest Hill,MD,21050,180000,,3.5,,3238,87991,2020,,56,,,,,https://www.redfin.com/MD/Forest-Hill/2436-Bailey-Rd-21050/home/171159190,,,N,Y,39.58464,-76.402331
PAST SALE,April-29-2020,Single Family Residential,800 Diane Ct,Forest Hill,MD,21050,368771,3,2.5,FOREST LAKES,2457,10323,1992,585,150,7,Sold,,,https://www.redfin.com/MD/Forest-Hill/800-Diane-Ct-21050/home/14520015,BRIGHT MLS,MDHR243948,N,Y,39.5636243,-76.3873996
PAST SALE,April-13-2021,Townhouse,1971 Esther Ct,Forest Hill,MD,21050,291000,3,2.5,SPENCEOLA FARMS,1866,2400,2001,236,156,49,Sold,,,https://www.redfin.com/MD/Forest-Hill/1971-Esther-Ct-21050/home/14515757,BRIGHT MLS,MDHR257174,N,Y,39.5729657,-76.3702062
PAST SALE,October-9-2020,Single Family Residential,105 Wagner Way,Forest Hill,MD,21050,515000,4,3.0,FOREST GLEN,3418,9876,2001,422,151,23,Sold,,,https://www.redfin.com/MD/Forest-Hill/105-Wagner-Way-21050/home/14511239,BRIGHT MLS,MDHR249522,N,Y,39.5693186,-76.3736666
PAST SALE,June-30-2020,Condo/Co-op,1715 Landmark Dr Unit 2H,Forest Hill,MD,21050,164000,2,2.0,POND CONDOS,1070,,1990,523,153,245,Sold,,,https://www.redfin.com/MD/Forest-Hill/1715-Landmark-Dr-21050/unit-2H/home/14553186,BRIGHT MLS,MDHR246344,N,Y,39.563208,-76.374651
PAST SALE,March-23-2020,Townhouse,2143 Mardic Dr,Forest Hill,MD,21050,264900,3,2.5,SPENCEOLA FARMS,1634,2400,2002,622,162,49,Sold,,,https://www.redfin.com/MD/Forest-Hill/2143-Mardic-Dr-21050/home/14518702,BRIGHT MLS,MDHR243502,N,Y,39.574202,-76.374392
PAST SALE,July-31-2020,Single Family Residential,312 Cannery Ct,Forest Hill,MD,21050,450000,4,3.5,SPENCEOLA FARMS,2962,10410,1999,492,152,38,Sold,,,https://www.redfin.com/MD/Forest-Hill/312-Cannery-Ct-21050/home/14554790,BRIGHT MLS,MDHR248216,N,Y,39.5640124,-76.367007
PAST SALE,May-4-2021,Single Family Residential,4059 Grier Nursery Rd,Forest Hill,MD,21050,665900,4,3.5,TWIN STREAM ESTATES,3000,87556,2021,215,222,,Sold,,,https://www.redfin.com/MD/Forest-Hill/4059-Grier-Nursery-21050/home/175427449,BRIGHT MLS,MDHR260634,N,Y,39.61246,-76.37962
PAST SALE,July-16-2020,Single Family Residential,335 E Ponfield Rd,Forest Hill,MD,21050,445000,4,3.0,TUCHAHOE FARMS,3538,7405,1999,507,126,40,Sold,,,https://www.redfin.com/MD/Forest-Hill/335-Ponfield-Rd-E-21050/home/14550664,BRIGHT MLS,MDHR247280,N,Y,39.5759556,-76.3651077
PAST SALE,,Vacant Land,2227 Ady Rd Unit A,Forest Hill,MD,21050,175000,,,,,117176,,,,,,,,https://www.redfin.com/MD/Forest-Hill/2227-Ady-Rd-21050/unit-A/home/14529917,,,N,Y,39.5821346,-76.3439654
PAST SALE,June-1-2020,Condo/Co-op,1721 Chrisemmett Ct Unit 1M,Forest Hill,MD,21050,157000,2,2.0,POND CONDOS,1065,,1991,552,147,240,Sold,,,https://www.redfin.com/MD/Forest-Hill/1721-Chrisemmett-Ct-21050/unit-1M/home/171411067,BRIGHT MLS,MDHR245930,N,Y,39.5640052,-76.3751787
PAST SALE,,Single Family Residential,2263 Phillips Mill Rd,Forest Hill,MD,21050,85000,,1.0,,936,43560,1952,,91,,,,,https://www.redfin.com/MD/Forest-Hill/2263-Phillips-Mill-Rd-21050/home/14489960,,,N,Y,39.5829018,-76.4322432
PAST SALE,November-14-2019,Townhouse,2226 Cantley Dr,Forest Hill,MD,21050,235000,3,2.5,BELLE MANOR,1872,2000,1994,752,126,55,Sold,,,https://www.redfin.com/MD/Forest-Hill/2226-Cantley-Dr-21050/home/14505921,BRIGHT MLS,MDHR237066,N,Y,39.575143,-76.360328
PAST SALE,May-24-2019,Single Family Residential,2202 Issacs Way,Forest Hill,MD,21050,460000,4,3.5,NORTH FOREST,3693,13547,1998,926,125,27,Sold,,,https://www.redfin.com/MD/Forest-Hill/2202-Issacs-Way-21050/home/14537085,BRIGHT MLS,MDHR223398,N,Y,39.5795337,-76.3858339
PAST SALE,August-21-2020,Single Family Residential,1861 Trudeau Dr,Forest Hill,MD,21050,405000,4,3.0,FOREST LAKES,2420,12251,2001,471,167,19,Sold,,,https://www.redfin.com/MD/Forest-Hill/1861-Trudeau-Dr-21050/home/14513153,BRIGHT MLS,MDHR247934,N,Y,39.5666669,-76.3769559
PAST SALE,November-23-2020,Single Family Residential,2603 Putnam Rd,Forest Hill,MD,21050,465000,5,3.0,FALLSTON AREA,3712,404237,1960,377,125,,Sold,,,https://www.redfin.com/MD/Forest-Hill/2603-Putnam-Rd-21050/home/14516542,BRIGHT MLS,MDHR251946,N,Y,39.5653501,-76.4516557
PAST SALE,March-12-2021,Single Family Residential,1818 Cosner Rd,Forest Hill,MD,21050,602000,5,3.5,BRIAR RIDGE,4744,93218,1978,268,127,,Sold,,,https://www.redfin.com/MD/Forest-Hill/1818-Cosner-Rd-21050/home/14490261,BRIGHT MLS,MDHR256298,N,Y,39.5637025,-76.4339052
PAST SALE,December-17-2020,Single Family Residential,431 Dellcrest Dr,Forest Hill,MD,21050,484000,5,3.5,DURHAM MANOR,2694,13460,1989,353,180,19,Sold,,,https://www.redfin.com/MD/Forest-Hill/431-Dellcrest-Dr-21050/home/14551159,BRIGHT MLS,MDHR253852,N,Y,39.5575769,-76.3835564
PAST SALE,December-14-2020,Single Family Residential,1726 Grafton Ridge Ct,Forest Hill,MD,21050,662500,5,3.5,GRAFTON RIDGE,3198,55321,2007,356,207,45,Sold,,,https://www.redfin.com/MD/Forest-Hill/1726-Grafton-Ridge-Ct-21050/home/14500242,BRIGHT MLS,MDHR252916,N,Y,39.5528346,-76.4030424
PAST SALE,October-18-2021,Single Family Residential,2910 Ady Rd,Forest Hill,MD,21050,415000,5,2.0,FOREST HILL,2408,101495,1954,48,172,,Sold,,,https://www.redfin.com/MD/Forest-Hill/2910-Ady-Rd-21050/home/14507075,BRIGHT MLS,MDHR2002518,N,Y,39.6116188,-76.3329067
PAST SALE,November-22-2021,Single Family Residential,207 Marshall Dr,Forest Hill,MD,21050,410000,3,3.0,BYNUM RIDGE,2225,15075,1966,13,184,,Sold,,,https://www.redfin.com/MD/Forest-Hill/207-Marshall-Dr-21050/home/14556911,BRIGHT MLS,MDHR2004450,N,Y,39.5604775,-76.3652886
PAST SALE,December-3-2020,Single Family Residential,1900-1904 Pleasantville Rd,Forest Hill,MD,21050,640000,3,1.0,Forest Hill,1552,771012,1966,367,412,,Sold,,,https://www.redfin.com/MD/Forest-Hill/1900-Pleasantville-Rd-21050/home/16854899,BRIGHT MLS,MDHR248660,N,Y,39.567046,-76.43974
PAST SALE,July-20-2021,Townhouse,2165 Historic Dr,Forest Hill,MD,21050,255000,2,2.0,BELLE MANOR,1740,2000,1994,138,147,55,Sold,,,https://www.redfin.com/MD/Forest-Hill/2165-Historic-Dr-21050/home/14483605,BRIGHT MLS,MDHR260128,N,Y,39.573936,-76.3615465
PAST SALE,May-5-2020,Condo/Co-op,303 Willrich Cir Unit J,Forest Hill,MD,21050,237000,2,2.0,SPENCEOLA FARMS,1340,,2000,579,177,300,Sold,,,https://www.redfin.com/MD/Forest-Hill/303-Willrich-Cir-21050/unit-J/home/14490207,BRIGHT MLS,MDHR245036,N,Y,39.572169,-76.369736
PAST SALE,June-4-2021,Single Family Residential,1355 W Jarrettsville Rd,Forest Hill,MD,21050,315000,4,1.5,FOREST HILL,2128,55321,1950,184,148,,Sold,,,https://www.redfin.com/MD/Forest-Hill/1355-Jarrettsville-Rd-21050/home/14530013,BRIGHT MLS,MDHR255262,N,Y,39.5912072,-76.4340963
PAST SALE,,Single Family Residential,1210 Bonaire Rd,Forest Hill,MD,21050,573397,,4.0,,3240,43560,1990,,177,,,,,https://www.redfin.com/MD/Forest-Hill/1210-Bonaire-Rd-21050/home/14499551,,,N,Y,39.5800036,-76.4245142
PAST SALE,November-20-2020,Townhouse,253 Trudy Ct,Forest Hill,MD,21050,310000,3,2.5,SPENCEOLA FARMS,1992,2952,2002,380,156,49,Sold,,,https://www.redfin.com/MD/Forest-Hill/253-Trudy-Ct-21050/home/14557074,BRIGHT MLS,MDHR252802,N,Y,39.5714401,-76.3737898
PAST SALE,,Single Family Residential,1908 Crouse Rd,Forest Hill,MD,21050,444000,,2.5,,1984,22627,2019,,224,,,,,https://www.redfin.com/MD/Forest-Hill/1908-Crouse-Rd-21050/home/28503854,,,N,Y,39.566601,-76.4582076
PAST SALE,December-4-2020,Condo/Co-op,1713 Landmark Dr Unit 1J,Forest Hill,MD,21050,140000,2,1.0,POND CONDOS,1065,,1990,366,131,245,Sold,,,https://www.redfin.com/MD/Forest-Hill/1713-Landmark-Dr-21050/unit-1J/home/14525679,BRIGHT MLS,MDHR253546,N,Y,39.56356,-76.374404
PAST SALE,October-17-2019,Single Family Residential,1516 Morse Rd,Forest Hill,MD,21050,480000,4,3.0,THREE SISTERS,3872,99752,1998,780,124,,Sold,,,https://www.redfin.com/MD/Forest-Hill/1516-Morse-Rd-21050/home/14501616,BRIGHT MLS,MDHR238292,N,Y,39.5940923,-76.4401003
PAST SALE,July-19-2021,Single Family Residential,1687 Campbell Rd,Forest Hill,MD,21050,625000,4,2.5,PLEASANT VIEW FARMS,2982,42863,1988,139,210,,Sold,,,https://www.redfin.com/MD/Forest-Hill/1687-Campbell-Rd-21050/home/14546394,BRIGHT MLS,MDHR259606,N,Y,39.5502616,-76.4243495
PAST SALE,November-15-2019,Single Family Residential,2531 Flora Meadows Dr,Forest Hill,MD,21050,680000,5,4.5,FLORA MEADOWS,5393,63598,2004,751,126,33,Sold,,,https://www.redfin.com/MD/Forest-Hill/2531-Flora-Meadows-Dr-21050/home/14500243,BRIGHT MLS,MDHR236578,N,Y,39.5926898,-76.3850717
PAST SALE,September-4-2020,Single Family Residential,101 W Jarrettsville Rd,Forest Hill,MD,21050,335000,4,2.0,Forest Hill,1400,20037,1925,457,239,,Sold,,,https://www.redfin.com/MD/Forest-Hill/101-Jarrettsville-Rd-21050/home/14500544,BRIGHT MLS,MDHR249142,N,Y,39.5845097,-76.3909609
PAST SALE,February-28-2019,Single Family Residential,103 W Jarrettsville Rd,Forest Hill,MD,21050,245000,3,1.5,FOREST  HILL,2422,20037,1920,1011,101,,Sold,,,https://www.redfin.com/MD/Forest-Hill/103-Jarrettsville-Rd-21050/home/14511292,BRIGHT MLS,MDHR109222,N,Y,39.5841616,-76.3921299
PAST SALE,December-2-2019,Single Family Residential,1907 High Point Rd,Forest Hill,MD,21050,446000,4,2.5,FOREST  HILL,3672,87120,1985,734,121,,Sold,,,https://www.redfin.com/MD/Forest-Hill/1907-High-Point-Rd-21050/home/14557691,BRIGHT MLS,MDHR237700,N,Y,39.5635273,-76.4229774
PAST SALE,March-12-2021,Single Family Residential,2318 Rock Spring Rd,Forest Hill,MD,21050,405000,3,2.0,Forest Hill,2398,14374,1920,268,169,,Sold,,,https://www.redfin.com/MD/Forest-Hill/2318-Rock-Spring-Rd-21050/home/14561524,BRIGHT MLS,MDHR253872,N,Y,39.5838655,-76.3879422
PAST SALE,July-30-2020,Single Family Residential,2620 Rocks Rd,Forest Hill,MD,21050,355000,4,3.0,FOREST  HILL,3194,14984,2005,493,111,,Sold,,,https://www.redfin.com/MD/Forest-Hill/2620-Rocks-Rd-21050/home/14516328,BRIGHT MLS,MDHR247540,N,Y,39.5964551,-76.3908357
PAST SALE,January-8-2021,Single Family Residential,2303 Alex Ct,Forest Hill,MD,21050,390000,3,2.0,TUCHAHOE FARMS,1641,8407,2001,331,238,13,Sold,,,https://www.redfin.com/MD/Forest-Hill/2303-Alex-Ct-21050/home/14551963,BRIGHT MLS,MDHR253854,N,Y,39.5785192,-76.3653338
PAST SALE,October-31-2019,Single Family Residential,1801 Rock Spring Rd,Forest Hill,MD,21050,269500,4,1.0,ROCK SPRING,1404,29609,1950,766,192,,Sold,,,https://www.redfin.com/MD/Forest-Hill/1801-Rock-Spring-Rd-21050/home/14534413,BRIGHT MLS,MDHR235490,N,Y,39.5663347,-76.3751915
PAST SALE,August-1-2019,Single Family Residential,2414 Rocks Rd,Forest Hill,MD,21050,245000,2,2.0,FOREST HILL,1264,14679,1885,857,194,,Sold,,,https://www.redfin.com/MD/Forest-Hill/2414-Rocks-Rd-21050/home/14509721,BRIGHT MLS,MDHR231884,N,Y,39.586585,-76.388175
PAST SALE,,Single Family Residential,2820 Grier Nursery Rd,Forest Hill,MD,21050,359333,,2.0,,1834,44431,1981,,196,,,,,https://www.redfin.com/MD/Forest-Hill/2820-Grier-Nursery-Rd-21050/home/14489179,,,N,Y,39.6033107,-76.38801
PAST SALE,June-18-2021,Single Family Residential,2926 Grier Nursery Rd,Forest Hill,MD,21050,275000,3,1.0,FOREST HILL,780,194713,1954,170,353,,Sold,,,https://www.redfin.com/MD/Forest-Hill/2926-Grier-Nursery-Rd-21050/home/14538040,BRIGHT MLS,MDHR259756,N,Y,39.6106838,-76.3818835
PAST SALE,May-14-2020,Single Family Residential,532 Walters Mill Rd,Forest Hill,MD,21050,410000,4,3.0,FOREST HILL,2046,62726,1967,570,200,,Sold,,,https://www.redfin.com/MD/Forest-Hill/532-Walters-Mill-Rd-21050/home/14494427,BRIGHT MLS,MDHR244208,N,Y,39.6188295,-76.3712802
PAST SALE,April-30-2020,Single Family Residential,1120 Walters Mill Rd,Forest Hill,MD,21050,600000,3,2.5,FOREST HILL,2274,4019281,1930,584,264,,Sold,,,https://www.redfin.com/MD/Forest-Hill/1120-Walters-Mill-Rd-21050/home/167022940,BRIGHT MLS,MDHR233958,N,Y,39.6311589,-76.352877
PAST SALE,November-12-2020,Single Family Residential,2316 Rockspring Rd,Forest Hill,MD,21050,588000,4,4.0,FOREST HILL,3300,71003,1910,388,178,,Sold,,,https://www.redfin.com/MD/Forest-Hill/2316-Rock-Spring-Rd-21050/home/14489590,BRIGHT MLS,MDHR251266,N,Y,39.583634,-76.3878291
PAST SALE,,Single Family Residential,2707 Ady Rd,Forest Hill,MD,21050,155000,,1.0,,626,21823,1945,,248,,,,,https://www.redfin.com/MD/Forest-Hill/2707-Ady-Rd-21050/home/14527247,,,N,Y,39.6030628,-76.337803
PAST SALE,April-3-2020,Single Family Residential,807 Delray Ct,Forest Hill,MD,21050,455000,4,3.5,FOREST LAKES,4402,9704,1994,611,103,7,Sold,,,https://www.redfin.com/MD/Forest-Hill/807-Delray-Ct-21050/home/14539862,BRIGHT MLS,MDHR243934,N,Y,39.5624315,-76.3897054
PAST SALE,June-11-2021,Single Family Residential,2703 Rocks Rd,Forest Hill,MD,21050,465000,4,3.0,FOREST HILL,1847,65340,1964,177,252,,Sold,,,https://www.redfin.com/MD/Forest-Hill/2703-Rocks-Rd-21050/home/14500677,BRIGHT MLS,MDHR258180,N,Y,39.5989528,-76.3915139
PAST SALE,June-2-2021,Single Family Residential,821 W Jarrettsville Rd,Forest Hill,MD,21050,399000,3,3.0,FOREST HILL,2252,30492,1974,186,177,,Sold,,,https://www.redfin.com/MD/Forest-Hill/821-Jarrettsville-Rd-21050/home/14487766,BRIGHT MLS,MDHR258924,N,Y,39.5797824,-76.412626
PAST SALE,August-21-2020,Single Family Residential,2910 Grier Nursery Rd,Forest Hill,MD,21050,369999,3,2.0,FOREST  HILL,1871,104544,1962,471,198,,Sold,,,https://www.redfin.com/MD/Forest-Hill/2910-Grier-Nursery-Rd-21050/home/14489921,BRIGHT MLS,MDHR248510,N,Y,39.6101106,-76.3842229
PAST SALE,December-17-2018,Single Family Residential,706 Walters Mill Rd,Forest Hill,MD,21050,168000,2,1.0,Forest Hill,702,33105,1940,1084,239,,Sold,,,https://www.redfin.com/MD/Forest-Hill/706-Walters-Mill-Rd-21050/home/14517350,BRIGHT MLS,MDHR100292,N,Y,39.625372,-76.3710089
PAST SALE,April-29-2021,Single Family Residential,2211 Ady Rd,Forest Hill,MD,21050,220000,2,1.0,Forest Hill,884,17859,1954,220,249,,Sold,,,https://www.redfin.com/MD/Forest-Hill/2211-Ady-Rd-21050/home/14495347,BRIGHT MLS,MDHR257304,N,Y,39.5800781,-76.3451639
PAST SALE,September-7-2021,Single Family Residential,2323 Grafton Shop Rd,Forest Hill,MD,21050,272000,3,2.0,Forest Hill,1508,15158,1900,89,180,,Sold,,,https://www.redfin.com/MD/Forest-Hill/2323-Grafton-Shop-Rd-21050/home/14487107,BRIGHT MLS,MDHR260012,N,Y,39.5794809,-76.4037561
PAST SALE,May-28-2021,Single Family Residential,112 W Jarrettsville Rd,Forest Hill,MD,21050,364900,4,1.5,NEIKIRKS ADDITION,1581,38115,1954,191,231,,Sold,,,https://www.redfin.com/MD/Forest-Hill/112-Jarrettsville-Rd-21050/unit-M/home/14532321,BRIGHT MLS,MDHR257782,N,Y,39.5846711,-76.3930511
PAST SALE,April-1-2021,Condo/Co-op,1700 Landmark Dr Unit 1M,Forest Hill,MD,21050,180000,2,2.0,POND CONDOS,1180,,1992,248,153,245,Sold,,,https://www.redfin.com/MD/Forest-Hill/1700-Landmark-Dr-21050/unit-1M/home/14508188,BRIGHT MLS,MDHR256552,N,Y,39.562037,-76.3735311
PAST SALE,September-10-2021,Single Family Residential,1221 Deer Creek Church Rd,Forest Hill,MD,21050,260000,2,1.0,DEER CREEK,1320,40075,1950,86,197,,Sold,,,https://www.redfin.com/MD/Forest-Hill/1221-Deer-Creek-Church-Rd-21050/home/14486733,BRIGHT MLS,MDHR2002104,N,Y,39.6166058,-76.3405054
PAST SALE,December-8-2020,Single Family Residential,2221 Ady Rd,Forest Hill,MD,21050,240000,4,3.0,FOREST HILL,1731,87120,1956,362,139,,Sold,,,https://www.redfin.com/MD/Forest-Hill/2221-Ady-Rd-21050/home/14544586,BRIGHT MLS,MDHR251134,N,Y,39.581508,-76.3452195
PAST SALE,September-9-2020,Single Family Residential,34 E Jarrettsville Rd,Forest Hill,MD,21050,110000,5,1.5,FOREST HILL,1704,27573,1920,452,65,,Sold,,,https://www.redfin.com/MD/Forest-Hill/34-E-Jarrettsville-Rd-21050/home/14529047,BRIGHT MLS,MDHR243258,N,Y,39.5845944,-76.3835111
PAST SALE,February-12-2020,Single Family Residential,806 Renard Ct,Forest Hill,MD,21050,975000,9,5.5,FOX TRAIL,6881,717433,2015,662,142,31,Sold,,,https://www.redfin.com/MD/Forest-Hill/806-Renard-Ct-21050/home/14540377,BRIGHT MLS,MDHR238500,N,Y,39.6139068,-76.3880956
PAST SALE,May-19-2021,Mobile/Manufactured Home,2639 Chestnut Hill Rd,Forest Hill,MD,21050,125000,2,1.0,Forest Hill,500,43560,1961,200,250,,Sold,,,https://www.redfin.com/MD/Forest-Hill/2639-Chestnut-Hill-Rd-21050/home/14521281,BRIGHT MLS,MDHR258648,N,Y,39.6085836,-76.3509529
PAST SALE,July-9-2021,Single Family Residential,2231 Gibson Rd,Forest Hill,MD,21050,584000,4,3.0,Forest Hill,2612,99316,1995,149,224,,Sold,,,https://www.redfin.com/MD/Forest-Hill/2231-Gibson-Rd-21050/home/14509682,BRIGHT MLS,MDHR259042,N,Y,39.59644,-76.3270491
PAST SALE,November-15-2019,Single Family Residential,2628 Rocks Rd,Forest Hill,MD,21050,742000,6,5.5,FOREST HILL,6904,175111,2000,751,107,,Sold,,,https://www.redfin.com/MD/Forest-Hill/2628-Rocks-Rd-21050/home/19000777,BRIGHT MLS,MDHR238526,N,Y,39.5963833,-76.3932319
PAST SALE,April-17-2020,Vacant Land,1420 Deer Creek Church Rd,Forest Hill,MD,21050,65500,,,Forest Hill,,153767,,597,,,Sold,,,https://www.redfin.com/MD/Forest-Hill/1420-Deer-Creek-Church-Rd-21050/home/14554909,BRIGHT MLS,MDHR243094,N,Y,39.6201019,-76.3326353
PAST SALE,July-31-2019,Single Family Residential,2708 Grier Nursery Rd,Forest Hill,MD,21050,355000,3,2.5,Forest Hill,2144,40946,1967,858,166,,Sold,,,https://www.redfin.com/MD/Forest-Hill/2708-Grier-Nursery-Rd-21050/home/14511370,BRIGHT MLS,MDHR222248,N,Y,39.5985478,-76.391107
PAST SALE,June-28-2019,Single Family Residential,2211 Issacs Way,Forest Hill,MD,21050,420000,4,2.5,NORTH FOREST,2445,10672,1998,891,172,27,Sold,,,https://www.redfin.com/MD/Forest-Hill/2211-Issacs-Way-21050/home/14552337,BRIGHT MLS,MDHR231428,N,Y,39.5805272,-76.3848676
PAST SALE,March-8-2019,Townhouse,2023 Maria Ct,Forest Hill,MD,21050,260000,3,2.5,SPENCEOLA FARMS,1800,2100,2001,1003,144,46,Sold,,,https://www.redfin.com/MD/Forest-Hill/2023-Maria-Ct-21050/home/14543448,BRIGHT MLS,MDHR154932,N,Y,39.573782,-76.3726049
