SALE TYPE,SOLD DATE,PROPERTY TYPE,ADDRESS,CITY,STATE OR PROVINCE,ZIP OR POSTAL CODE,PRICE,BEDS,BATHS,LOCATION,SQUARE FEET,LOT SIZE,YEAR BUILT,DAYS ON MARKET,$/SQUARE FEET,HOA/MONTH,STATUS,NEXT OPEN HOUSE START TIME,NEXT OPEN HOUSE END TIME,URL (SEE https://www.redfin.com/buy-a-home/comparative-market-analysis FOR INFO ON PRICING),SOURCE,MLS#,FAVORITE,INTERESTED,LATITUDE,LONGITUDE
PAST SALE,November-18-2021,Townhouse,202 Mountain Ter,Myersville,MD,21773,305000,3,3.5,Myersville,1284,1740,1997,17,238,54,Sold,,,https://www.redfin.com/MD/Myersville/202-Mountain-Ter-21773/home/15239450,BRIGHT MLS,MDFR2006712,N,Y,39.505978,-77.569256
PAST SALE,August-15-2021,Single Family Residential,427 Main,Myersville,MD,21773,340000,3,2.5,Myersville,1728,11325,2002,112,197,,Sold,,,https://www.redfin.com/MD/Myersville/427-Main-St-21773/home/15240548,BRIGHT MLS,MDFR280904,N,Y,39.5094696,-77.5670354
PAST SALE,May-28-2021,Single Family Residential,413 Main St,Myersville,MD,21773,200000,3,1.0,Myersville,1362,9583,1890,191,147,,Sold,,,https://www.redfin.com/MD/Myersville/413-Main-St-21773/home/15240410,BRIGHT MLS,MDFR271616,N,Y,39.5083348,-77.5667556
PAST SALE,June-2-2020,Single Family Residential,10721 Easterday Rd,Myersville,MD,21773,550000,4,3.5,SHELBERNE,3932,58806,2003,551,140,,Sold,,,https://www.redfin.com/MD/Myersville/10721-Easterday-Rd-21773/home/143423378,BRIGHT MLS,MDFR257962,N,Y,39.5276976,-77.5798298
PAST SALE,June-4-2021,Single Family Residential,41 Fox Rock Dr,Myersville,MD,21773,505000,5,3.5,Myersville,3244,15600,1990,184,156,25,Sold,,,https://www.redfin.com/MD/Myersville/41-Fox-Rock-Dr-21773/home/15240471,BRIGHT MLS,MDFR281930,N,Y,39.5032793,-77.563442
PAST SALE,February-26-2021,Single Family Residential,13500 Loy Wolfe Rd,Smithsburg,MD,21783,489900,3,2.0,WOLFSVILLE,1632,902128,1890,282,300,,Sold,,,https://www.redfin.com/MD/Smithsburg/13500-Loy-Wolfe-Rd-21783/home/163334849,BRIGHT MLS,MDFR276538,N,Y,39.603537,-77.570129
PAST SALE,September-10-2021,Single Family Residential,2 Rocky Fountain Ct,Myersville,MD,21773,515500,4,3.5,Myersville,3328,16687,2000,86,155,,Sold,,,https://www.redfin.com/MD/Myersville/2-Rocky-Fountain-Ct-21773/home/15239412,BRIGHT MLS,MDFR2001336,N,Y,39.5142089,-77.571569
PAST SALE,December-11-2020,Single Family Residential,515 Main St,Myersville,MD,21773,514900,4,2.5,Myersville,4212,22651,2005,359,122,,Sold,,,https://www.redfin.com/MD/Myersville/515-Main-St-21773/home/15240446,BRIGHT MLS,MDFR270256,N,Y,39.5113265,-77.5668282
PAST SALE,August-12-2019,Single Family Residential,1007 Hunters Knl,Myersville,MD,21773,610000,4,3.5,SABER RIDGE,4201,19261,2016,846,145,56,Sold,,,https://www.redfin.com/MD/Myersville/1007-Hunters-Knl-21773/home/109903193,BRIGHT MLS,MDFR246046,N,Y,39.5180534,-77.5768865
PAST SALE,March-22-2019,Townhouse,222 Mountain Ter,Myersville,MD,21773,242000,3,2.5,TERRACES/SOUTH MT,1767,1740,1996,989,137,45,Sold,,,https://www.redfin.com/MD/Myersville/222-Mountain-Ter-21773/home/15239455,BRIGHT MLS,MDFR193766,N,Y,39.5053334,-77.5696568
PAST SALE,February-10-2021,Single Family Residential,3919 Wistman Ln,Myersville,MD,21773,870000,4,4.0,Myersville,2978,1194851,1993,298,292,,Sold,,,https://www.redfin.com/MD/Myersville/3919-Wistman-Ln-21773/home/173933747,BRIGHT MLS,MDFR275258,N,Y,39.5112949,-77.530349
PAST SALE,March-16-2020,Single Family Residential,10111 Saddleridge Dr,Myersville,MD,21773,425000,4,3.5,CANADA HILL,2964,17356,1999,629,143,,Sold,,,https://www.redfin.com/MD/Myersville/10111-Saddleridge-Dr-21773/home/15239415,BRIGHT MLS,MDFR259726,N,Y,39.5159512,-77.5720392
PAST SALE,August-16-2021,Single Family Residential,10087 Vista Ct,Myersville,MD,21773,725000,4,3.5,Myersville,3050,112820,1988,111,238,,Sold,,,https://www.redfin.com/MD/Myersville/10087-Vista-Ct-21773/home/15240329,BRIGHT MLS,MDFR283972,N,Y,39.5084502,-77.5354967
MLS Listing,,Single Family Residential,10831 Easterday Rd,Myersville,MD,21773,675000,3,3.0,TIP AND TY,4720,528383,1997,4,143,,Active,,,https://www.redfin.com/MD/Myersville/10831-Easterday-Rd-21773/home/15239485,BRIGHT MLS,MDFR2008004,N,Y,39.5302596,-77.5762927
MLS Listing,,Single Family Residential,2009 Monument Rd,Myersville,MD,21773,429000,4,2.0,Myersville,2000,144619,1979,5,215,,Active,,,https://www.redfin.com/MD/Myersville/2009-Monument-Rd-21773/home/15239900,BRIGHT MLS,MDFR2009254,N,Y,39.5127356,-77.6015869
MLS Listing,,Single Family Residential,5 Main St,Myersville,MD,21773,224900,3,1.0,MYERSVILLE,1184,30927,1880,16,190,,Active,,,https://www.redfin.com/MD/Myersville/5-Main-St-21773/home/15240739,BRIGHT MLS,MDFR2008944,N,Y,39.5008722,-77.5673647
MLS Listing,,Single Family Residential,4396 Coxey Brown Rd,Myersville,MD,21773,749900,3,3.5,Myersville,2880,278348,,19,260,,Active,,,https://www.redfin.com/MD/Myersville/4396-Coxey-Brown-Rd-21773/home/177209981,BRIGHT MLS,MDFR2007906,N,Y,39.498862,-77.5164096
MLS Listing,,Single Family Residential,13 Meadowridge Dr,Myersville,MD,21773,654990,4,2.5,MEADOWRIDGE,2728,15210,,30,240,,Active,,,https://www.redfin.com/MD/Myersville/13-Meadowridge-Dr-21773/home/177087679,BRIGHT MLS,MDFR2008284,N,Y,39.50943024,-77.57125023
MLS Listing,,Single Family Residential,12 Meadowridge Dr,Myersville,MD,21773,659990,4,3.5,MEADOWRIDGE,2982,15008,,30,221,,Active,,,https://www.redfin.com/MD/MYERSVILLE/MEADOWRIDGE-DR-21773/home/18535330,BRIGHT MLS,MDFR2008282,N,Y,39.5096335,-77.5713307
MLS Listing,,Single Family Residential,11 Meadowridge Dr,Myersville,MD,21773,639990,4,3.0,MEADOWRIDGE,2671,15038,,30,240,,Active,,,https://www.redfin.com/MD/Myersville/11-Meadowridge-Dr-21773/home/177087132,BRIGHT MLS,MDFR2008280,N,Y,39.50913103,-77.5707567
MLS Listing,,Single Family Residential,2605-B Scravel Rd,Myersville,MD,21773,89900,2,1.0,Myersville,1082,28351,1950,38,83,,Active,,,https://www.redfin.com/MD/Myersville/2605B-Scravel-Rd-21773/home/172686462,BRIGHT MLS,MDFR2007754,N,Y,39.5348587,-77.5796942
MLS Listing,,Vacant Land,13034 Tower Rd,Thurmont,MD,21788,134000,,,ARROWOOD,,156380,,41,,,Active,,,https://www.redfin.com/MD/Thurmont/13034-Tower-Rd-21788/home/17480013,BRIGHT MLS,MDFR2007626,N,Y,39.592245,-77.501127
MLS Listing,,Vacant Land,10823-B Highland School Rd,Myersville,MD,21773,199900,,,WOLFE,,223898,,93,,,Active,,,https://www.redfin.com/MD/Myersville/10823-Highland-School-Rd-21773/home/146040984,BRIGHT MLS,MDFR2005338,N,Y,39.532757,-77.5253211
MLS Listing,,Vacant Land,Fishers Hollow Rd,Myersville,MD,21773,299000,,,Myersville,,718740,,104,,,Active,,,https://www.redfin.com/MD/MYERSVILLE/FISHERS-HOLLOW-RD-21773/home/17483451,BRIGHT MLS,MDFR2003954,N,Y,39.512727,-77.515902
MLS Listing,,Single Family Residential,10710 Grindstone Run Rd,Myersville,MD,21773,463300,3,1.0,Myersville,1232,1132560,1900,220,376,,Active,,,https://www.redfin.com/MD/Myersville/10710-Grindstone-Run-Rd-21773/home/175033007,BRIGHT MLS,MDFR281714,N,Y,39.5259557,-77.5943686
MLS Listing,,Vacant Land,9941 Mount Tabor Rd Lot 4,Myersville,MD,21773,88000,,,Myersville,,87991,,797,,,Active,,,https://www.redfin.com/MD/Myersville/9941-Mount-Tabor-Rd-21773/unit-4/home/169239507,BRIGHT MLS,MDFR254258,N,Y,39.505068,-77.583044
MLS Listing,,Vacant Land,9945 Mount Tabor Rd Lot 1,Myersville,MD,21773,88000,,,Myersville,,111949,,797,,,Active,,,https://www.redfin.com/MD/Myersville/9945-Mount-Tabor-Rd-21773/unit-1/home/169239501,BRIGHT MLS,MDFR254252,N,Y,39.505571,-77.584283
MLS Listing,,Vacant Land,Mount Tabor Rd Unit PARCEL D,Myersville,MD,21773,88000,,,Myersville,,125017,,797,,,Active,,,https://www.redfin.com/MD/Myersville/Mount-Tabor-Rd-Unknown/unit-PARCEL-D/home/169237589,BRIGHT MLS,MDFR254248,N,Y,39.50696984,-77.58413749
MLS Listing,,Vacant Land,"2338 Michael Rd Unit ""FARM""",Myersville,MD,21773,307000,,,Myersville,,1444449,,797,,,Active,,,https://www.redfin.com/MD/Myersville/2338-Michael-Rd-21773/unit-FARM/home/169239402,BRIGHT MLS,MDFR254242,N,Y,39.505732,-77.5897672
MLS Listing,,Vacant Land,Main St,Myersville,MD,21773,890000,,,MYERSVILLE,,1356023,,1293,,,Active,,,https://www.redfin.com/MD/MYERSVILLE/MAIN-ST-21773/home/15240590,BRIGHT MLS,1001543264,N,Y,39.504689,-77.56765
PAST SALE,February-24-2020,Single Family Residential,807 Rocky Fountain Dr,Myersville,MD,21773,385000,3,2.5,CANADA HILL,2414,20244,2000,650,159,,Sold,,,https://www.redfin.com/MD/Myersville/807-Rocky-Fountain-Dr-21773/home/15239847,BRIGHT MLS,MDFR247906,N,Y,39.5153157,-77.5707631
PAST SALE,,Single Family Residential,509 Main St,Myersville,MD,21773,338000,,2.0,,2774,33105,1915,,122,,,,,https://www.redfin.com/MD/Myersville/509-Main-St-21773/home/15240845,,,N,Y,39.5104966,-77.5676063
PAST SALE,September-4-2020,Single Family Residential,9069 Dawn Ct,Myersville,MD,21773,435000,3,3.0,MYERSVILLE,1680,40510,1985,457,259,,Sold,,,https://www.redfin.com/MD/Myersville/9069-Dawn-Ct-21773/home/15201606,BRIGHT MLS,MDFR267806,N,Y,39.4773825,-77.5540829
PAST SALE,September-22-2021,Single Family Residential,9072 Dawn Ct,Myersville,MD,21773,501000,3,3.0,Myersville,4318,102366,1999,74,116,,Sold,,,https://www.redfin.com/MD/Myersville/9072-Dawn-Ct-21773/home/15201765,BRIGHT MLS,MDFR2003222,N,Y,39.4775834,-77.5552024
PAST SALE,February-8-2019,Vacant Land,13087 Murdock Mountain Ln,Myersville,MD,21773,120000,,,Myersville,,565409,,1031,,,Sold,,,https://www.redfin.com/MD/Myersville/13087-Murdock-Mountain-Ln-21773/home/17480753,BRIGHT MLS,1002089814,N,Y,39.586077,-77.513639
PAST SALE,July-18-2019,Single Family Residential,600 Main St,Myersville,MD,21773,289900,2,2.5,MYERSVILLE,1152,18730,1980,871,252,,Sold,,,https://www.redfin.com/MD/Myersville/600-Main-St-21773/home/15240629,BRIGHT MLS,MDFR247458,N,Y,39.5113536,-77.5689049
PAST SALE,June-15-2021,Single Family Residential,9218 Myersville Rd,Myersville,MD,21773,520000,4,2.5,Myersville,2500,50094,2003,173,208,,Sold,,,https://www.redfin.com/MD/Myersville/9218-Myersville-Rd-21773/home/15182288,BRIGHT MLS,MDFR280554,N,Y,39.4818014,-77.5553592
PAST SALE,May-31-2019,Single Family Residential,512 Main St,Myersville,MD,21773,250000,3,2.0,Myersville,916,8712,1952,919,273,,Sold,,,https://www.redfin.com/MD/Myersville/512-Main-St-21773/home/15239980,BRIGHT MLS,MDFR193134,N,Y,39.5109964,-77.5685467
PAST SALE,January-11-2019,Single Family Residential,Rum Spring Rd,Myersville,MD,21773,50000,2,1.0,MYERSVILLE,693,263102,1962,1059,72,,Sold,,,https://www.redfin.com/MD/MYERSVILLE/RUM-SPRING-Rd-21773/home/148028165,BRIGHT MLS,MDFR100204,N,Y,39.54476936,-77.5085421
PAST SALE,December-28-2020,Single Family Residential,2711 Canada Hill Rd,Myersville,MD,21773,410000,3,2.0,MEADOWRIDGE,1766,21205,1996,342,232,,Sold,,,https://www.redfin.com/MD/Myersville/2711-Canada-Hill-Rd-21773/home/15240138,BRIGHT MLS,MDFR273988,N,Y,39.5164333,-77.577233
PAST SALE,May-29-2020,Single Family Residential,12171 Wolfsville Rd,Myersville,MD,21773,261500,2,1.0,FREDERICK COUNTY,1155,71874,1924,555,226,,Sold,,,https://www.redfin.com/MD/Myersville/12171-Wolfsville-Rd-21773/home/15198416,BRIGHT MLS,MDFR261918,N,Y,39.569981,-77.532542
PAST SALE,May-28-2021,Single Family Residential,12811 Brandenburg Hollow Rd,Myersville,MD,21773,749900,4,3.0,WOLFSVILLE,1820,141570,2000,191,412,,Sold,,,https://www.redfin.com/MD/Myersville/12811-Brandenburg-Hollow-Rd-21773/home/15198277,BRIGHT MLS,MDFR280050,N,Y,39.5846839,-77.545977
PAST SALE,June-15-2020,Single Family Residential,11220 Highland School Rd,Myersville,MD,21773,460000,4,3.5,MYERSVILLE,2550,217800,2004,538,180,,Sold,,,https://www.redfin.com/MD/Myersville/11220-Highland-School-Rd-21773/home/15198502,BRIGHT MLS,MDFR263250,N,Y,39.541905,-77.527721
PAST SALE,,Single Family Residential,11428 Wolfsville Rd,Myersville,MD,21773,392000,,1.0,,960,221720,1992,,408,,,,,https://www.redfin.com/MD/Myersville/11428-Wolfsville-Rd-21773/home/55737491,,,N,Y,39.5503841,-77.5255978
PAST SALE,January-25-2019,Single Family Residential,12016 Pleasant Walk Rd,Myersville,MD,21773,180000,3,3.0,Myersville,3100,558439,1969,1045,58,,Sold,,,https://www.redfin.com/MD/Myersville/12016-Pleasant-Walk-Rd-21773/home/15198495,BRIGHT MLS,1006202702,N,Y,39.562576,-77.576589
PAST SALE,,Other,HARP HILL RD,MYERSVILLE,MD,21773,155000,,,,,77101,,,,,,,,https://www.redfin.com/MD/MYERSVILLE/HARP-HILL-RD-21773/home/17480475,,,N,Y,39.570234,-77.550609
PAST SALE,,Single Family Residential,11310 RUM SPRING RD,FREDERICK,MD,21702,50000,,,,693,263102,1963,,72,,,,,https://www.redfin.com/MD/FREDERICK/11310-RUM-SPRING-RD-21702/home/15198668,,,N,Y,39.544872,-77.508165
PAST SALE,November-20-2020,Single Family Residential,10732 Wolfsville Rd,Myersville,MD,21773,245000,3,1.0,Myersville,1572,22433,1890,380,156,,Sold,,,https://www.redfin.com/MD/Myersville/10732-Wolfsville-Rd-21773/home/15198232,BRIGHT MLS,MDFR271256,N,Y,39.5267465,-77.5409161
PAST SALE,January-18-2019,Vacant Land,Spruce Run Rd,Myersville,MD,21773,8000,,,MYERSVILLE,,402930,,1052,,,Sold,,,https://www.redfin.com/MD/MYERSVILLE/SPRUCE-RUN-RD-21773/home/17480592,BRIGHT MLS,1002133618,N,Y,39.581357,-77.525986
PAST SALE,March-26-2021,Single Family Residential,12408 Stottlemyer Rd,Myersville,MD,21773,300000,5,2.5,Myersville,1708,7840,1900,254,176,,Sold,,,https://www.redfin.com/MD/Myersville/12408-Stottlemyer-Rd-21773/home/15198632,BRIGHT MLS,MDFR276970,N,Y,39.5751949,-77.5508585
PAST SALE,January-15-2021,Single Family Residential,11130 Wolfsville Rd,Myersville,MD,21773,399900,3,1.5,Myersville,1690,304484,1976,324,237,,Sold,,,https://www.redfin.com/MD/Myersville/11130-Wolfsville-Rd-21773/home/15198156,BRIGHT MLS,MDFR271252,N,Y,39.5401119,-77.5308161
PAST SALE,April-28-2021,Single Family Residential,12103 Loy Wolfe Rd,Myersville,MD,21773,440000,4,2.5,MYERSVILLE,3000,65340,1900,221,147,,Sold,,,https://www.redfin.com/MD/Myersville/12103-Loy-Wolfe-Rd-21773/home/14741053,BRIGHT MLS,MDFR279402,N,Y,39.5645961,-77.5789343
PAST SALE,June-30-2021,Single Family Residential,10716 Wolfsville Rd,Myersville,MD,21773,246000,4,1.0,ELLERTON,1776,88427,1900,158,139,,Sold,,,https://www.redfin.com/MD/Myersville/10716-Wolfsville-Rd-21773/home/15198637,BRIGHT MLS,MDFR278810,N,Y,39.5272998,-77.5423493
PAST SALE,July-20-2021,Single Family Residential,12804 Spruce Run Rd,Myersville,MD,21773,540000,3,2.0,Myersville,1680,304920,2006,138,321,,Sold,,,https://www.redfin.com/MD/Myersville/12804-Spruce-Run-Rd-21773/home/15198199,BRIGHT MLS,MDFR284136,N,Y,39.5872352,-77.5262697
PAST SALE,May-5-2021,Single Family Residential,12227 Harp Hill Rd,Myersville,MD,21773,415000,3,2.5,MYERSVILLE,3283,88862,1974,214,126,,Sold,,,https://www.redfin.com/MD/Myersville/12227-Harp-Hill-Rd-21773/home/15198406,BRIGHT MLS,MDFR279564,N,Y,39.5698612,-77.551172
PAST SALE,August-31-2020,Single Family Residential,12733 Loy Wolfe Rd,Myersville,MD,21773,340000,4,2.0,WOLFSVILLE,2352,37924,1962,461,145,,Sold,,,https://www.redfin.com/MD/Myersville/12733-Loy-Wolfe-Rd-21773/home/15198150,BRIGHT MLS,MDFR263400,N,Y,39.5832888,-77.5719944
PAST SALE,June-10-2019,Single Family Residential,11228 Pleasant Walk Rd,Myersville,MD,21773,315000,3,3.5,MYERSVILLE,2348,43560,2007,909,134,,Sold,,,https://www.redfin.com/MD/Myersville/11228-Pleasant-Walk-Rd-21773/home/15198155,BRIGHT MLS,MDFR242530,N,Y,39.542027,-77.5861425
PAST SALE,January-17-2020,Single Family Residential,10856 Wolfsville Rd,Myersville,MD,21773,240000,3,2.0,MYERSVILLE,2180,152460,1950,688,110,,Sold,,,https://www.redfin.com/MD/Myersville/10856-Wolfsville-Rd-21773/home/15198111,BRIGHT MLS,MDFR255530,N,Y,39.5320797,-77.5343322
PAST SALE,,Single Family Residential,13550 Loy Wolfe Rd,Smithsburg,MD,21783,225000,,2.0,,1250,257875,1992,,180,,,,,https://www.redfin.com/MD/Smithsburg/13550-Loy-Wolfe-Rd-21783/home/166004848,,,N,Y,39.6064385,-77.5677407
PAST SALE,July-22-2019,Single Family Residential,4607 Delauter Rd,Frederick,MD,21702,955000,9,6.0,GAMBRILL PARK,5740,1792930,1998,867,166,,Sold,,,https://www.redfin.com/MD/Frederick/4607-Delauter-Rd-21702/home/15198132,BRIGHT MLS,MDFR246604,N,Y,39.5506229,-77.5091902
PAST SALE,May-15-2019,Single Family Residential,12511 Brandenburg Hollow Rd,Myersville,MD,21773,297000,4,3.0,Myersville,2316,47045,1900,935,128,,Sold,,,https://www.redfin.com/MD/Myersville/12511-Brandenburg-Hollow-Rd-21773/home/15198090,BRIGHT MLS,MDFR232408,N,Y,39.5768596,-77.5489776
PAST SALE,September-4-2020,Single Family Residential,12000 Loy Wolfe Rd,Myersville,MD,21773,398000,2,2.5,Myersville,2088,389862,2006,457,191,,Sold,,,https://www.redfin.com/MD/Myersville/12000-Loy-Wolfe-Rd-21773/home/15198371,BRIGHT MLS,MDFR267096,N,Y,39.5626719,-77.5824713
PAST SALE,,Single Family Residential,11227 Highland School Rd,Myersville,MD,21773,380000,,3.0,,1648,282704,1994,,231,,,,,https://www.redfin.com/MD/Myersville/11227-Highland-School-Rd-21773/home/15198342,,,N,Y,39.540392,-77.525476
PAST SALE,September-15-2020,Single Family Residential,12430 Wolfsville Rd,Myersville,MD,21773,110850,3,1.0,Myersville,1792,60548,1950,446,62,,Sold,,,https://www.redfin.com/MD/Myersville/12430-Wolfsville-Rd-21773/home/15198011,BRIGHT MLS,MDFR271208,N,Y,39.5727034,-77.5469061
PAST SALE,June-30-2020,Single Family Residential,12906 Tower Rd,Thurmont,MD,21788,600000,5,3.5,FOXVILLE,4822,997960,2003,523,124,,Sold,,,https://www.redfin.com/MD/Thurmont/12906-Tower-Rd-21788/home/15198062,BRIGHT MLS,MDFR253642,N,Y,39.586673,-77.504189
PAST SALE,,Other,WILDCAT RD,CHEVY CHASE,MD,20815,15000,,,,,167270,,,,,,,,https://www.redfin.com/MD/CHEVY-CHASE/WILDCAT-RD-20815/home/17480056,,,N,Y,39.570387,-77.539873
PAST SALE,September-8-2020,Single Family Residential,12745 Stottlemyer Rd,Myersville,MD,21773,245000,2,1.0,Myersville,880,33976,1950,453,278,,Sold,,,https://www.redfin.com/MD/Myersville/12745-Stottlemyer-Rd-21773/home/15198376,BRIGHT MLS,MDFR267108,N,Y,39.5836591,-77.5322144
PAST SALE,May-10-2021,Vacant Land,11632 Meeting House Rd,Myersville,MD,21773,145000,,,Myersville,,58370,,209,,,Sold,,,https://www.redfin.com/MD/Myersville/11632-Meeting-House-Rd-21773/home/17480053,BRIGHT MLS,MDFR276656,N,Y,39.5537459,-77.5412939
PAST SALE,April-23-2020,Single Family Residential,11618 Meeting House Rd,Myersville,MD,21773,489900,5,2.5,FOX RUN WOODS,3982,70567,2004,591,123,,Sold,,,https://www.redfin.com/MD/Myersville/11618-Meeting-House-Rd-21773/home/15198308,BRIGHT MLS,MDFR261286,N,Y,39.5531916,-77.5413864
PAST SALE,December-10-2018,Single Family Residential,13089 Murdock Mountain Ln,Myersville,MD,21773,425000,3,3.0,Myersville,2646,585446,1991,1091,161,,Sold,,,https://www.redfin.com/MD/Myersville/13089-Murdock-Mountain-Ln-21773/home/15198286,BRIGHT MLS,1002770116,N,Y,39.5869797,-77.5128958
PAST SALE,August-10-2020,Vacant Land,Meeting House Rd,Myersville,MD,21773,158900,,,Myersville,,293159,,482,,,Sold,,,https://www.redfin.com/MD/Myersville/11762-Meeting-House-Rd-21773/home/17480364,BRIGHT MLS,MDFR245822,N,Y,39.556262,-77.542285
PAST SALE,September-25-2020,Single Family Residential,11606 Easterday Rd,Myersville,MD,21773,785000,5,4.5,MYERSVILLE,5418,226512,2009,436,145,,Sold,,,https://www.redfin.com/MD/Myersville/11606-Easterday-Rd-21773/home/17480048,BRIGHT MLS,MDFR265512,N,Y,39.5518299,-77.5752629
PAST SALE,April-13-2021,Vacant Land,Brandenburg Hollow Rd,Myersville,MD,21773,22000,,,Myersville,,198634,,236,,,Sold,,,https://www.redfin.com/MD/MYERSVILLE/BRANDENBURG-HOLLOW-RD-21773/home/17479488,BRIGHT MLS,MDFR2000094,N,Y,39.576154,-77.549826
PAST SALE,March-22-2019,Single Family Residential,11327 Pleasant Walk Rd,Myersville,MD,21773,599500,4,3.5,PLEASANT MEADOWS,4100,233917,2006,989,146,,Sold,,,https://www.redfin.com/MD/Myersville/11327-Pleasant-Walk-Rd-21773/home/15180725,BRIGHT MLS,1005965543,N,Y,39.5432662,-77.5825161
PAST SALE,December-29-2020,Single Family Residential,11323 Pleasant Walk Rd,Myersville,MD,21773,800000,4,4.0,PLEASANT MEADOWS,3925,219542,2005,341,204,,Sold,,,https://www.redfin.com/MD/Myersville/11323-Pleasant-Walk-Rd-21773/home/15181316,BRIGHT MLS,MDFR272726,N,Y,39.5433415,-77.5839487
PAST SALE,May-21-2021,Single Family Residential,12125 Pleasant Walk Rd,Myersville,MD,21773,613041,4,2.5,Myersville,1940,336283,,198,316,,Sold,,,https://www.redfin.com/MD/Myersville/12125-Pleasant-Walk-Rd-21773/home/52919140,BRIGHT MLS,MDFR268574,N,Y,39.5646595,-77.5654921
PAST SALE,July-16-2021,Vacant Land,12113 Pleasant Walk Rd,Myersville,MD,21773,250000,,,Myersville,,630313,,142,,,Sold,,,https://www.redfin.com/MD/Myersville/12113-Pleasant-Walk-Rd-21773/home/52919147,BRIGHT MLS,MDFR278382,N,Y,39.5620989,-77.5670295
PAST SALE,June-18-2020,Single Family Residential,12741 Loy Wolfe,Myersville,MD,21773,449900,3,2.0,WOLFSVILLE,2002,81457,2020,535,225,,Sold,,,https://www.redfin.com/MD/Myersville/12741-Loy-Wolfe-Rd-21773/home/109650742,BRIGHT MLS,MDFR257132,N,Y,39.5838634,-77.5715051
PAST SALE,,Other,11639 Woodland Way Rd,Myersville,MD,21773,165000,,,,,116305,,,,,,,,https://www.redfin.com/MD/Myersville/11639-Woodland-Way-Rd-21773/home/113653419,,,N,Y,39.5533074,-77.5560667
PAST SALE,July-23-2021,Vacant Land,11635 Woodland Way Rd,Myersville,MD,21773,190000,,,WOODLAND WAY,,167706,,135,,,Sold,,,https://www.redfin.com/MD/Myersville/11635-Woodland-Way-Rd-21773/home/144921661,BRIGHT MLS,MDFR274624,N,Y,39.5530936,-77.5561267
PAST SALE,,Single Family Residential,4239 Delauter Rd,Myersville,MD,21773,160000,,1.0,,1376,429066,1890,,116,,,,,https://www.redfin.com/MD/Myersville/4239-Delauter-Rd-21773/home/15198663,,,N,Y,39.5579834,-77.5200234
PAST SALE,May-27-2021,Single Family Residential,701 Rocky Fountain Dr,Myersville,MD,21773,441500,4,3.5,CANADA HILL,2317,16780,2001,192,191,,Sold,,,https://www.redfin.com/MD/Myersville/701-Rocky-Fountain-Dr-21773/home/15239842,BRIGHT MLS,MDFR280976,N,Y,39.5132815,-77.5688825
PAST SALE,,Other,FISHERS HOLLOW RD,MYERSVILLE,MD,21773,85000,,,,,141570,,,,,,,,https://www.redfin.com/MD/MYERSVILLE/FISHERS-HOLLOW-RD-21773/home/17483704,,,N,Y,39.512078,-77.507076
PAST SALE,July-19-2019,Single Family Residential,11200 Wolfsville Rd,Smithsburg,MD,21783,500000,4,2.5,Smithsburg,2632,537530,1922,870,190,,Sold,,,https://www.redfin.com/MD/Smithsburg/11200-Wolfsville-Rd-21783/home/15385986,BRIGHT MLS,1001881834,N,Y,39.622656,-77.559924
PAST SALE,October-16-2020,Single Family Residential,110 Main St,Myersville,MD,21773,445000,4,3.0,MYERSVILLE,1970,17859,1910,415,226,,Sold,,,https://www.redfin.com/MD/Myersville/110-Main-St-21773/home/15240541,BRIGHT MLS,MDFR266406,N,Y,39.5042776,-77.5675168
PAST SALE,May-28-2019,Single Family Residential,15 Harp Pl,Myersville,MD,21773,274900,3,2.0,MYERSVILLE,1791,21344,1950,922,153,,Sold,,,https://www.redfin.com/MD/Myersville/15-Harp-Pl-21773/home/15239896,BRIGHT MLS,MDFR234858,N,Y,39.5123063,-77.5663078
PAST SALE,,Other,MICHAEL RD,MYERSVILLE,MD,21773,135000,,,,,390733,,,,,,,,https://www.redfin.com/MD/MYERSVILLE/MICHAEL-RD-21773/home/22634032,,,N,Y,39.504547,-77.585806
PAST SALE,August-21-2019,Single Family Residential,2710-A Monument Rd,Myersville,MD,21773,460000,4,4.5,MYERSVILLE,2316,217800,1972,837,199,,Sold,,,https://www.redfin.com/MD/Myersville/2710A-Monument-Rd-21773/home/160602773,BRIGHT MLS,MDFR249134,N,Y,39.5093356,-77.577603
PAST SALE,June-30-2020,Single Family Residential,57 Saddleridge Ct,Myersville,MD,21773,440000,4,2.5,CANADA HILL,2513,18003,1999,523,175,,Sold,,,https://www.redfin.com/MD/Myersville/57-Saddleridge-Ct-21773/home/15239875,BRIGHT MLS,MDFR264020,N,Y,39.5170624,-77.5731138
PAST SALE,,Single Family Residential,9082 Dawn Ct,Myersville,MD,21773,200000,,2.0,,1788,165964,1980,,112,,,,,https://www.redfin.com/MD/Myersville/9082-Dawn-Ct-21773/home/15201766,,,N,Y,39.478893,-77.556068
PAST SALE,November-4-2021,Single Family Residential,10865 Pleasant Walk Rd,Myersville,MD,21773,427000,3,1.0,Myersville,1450,1286327,1880,31,294,,Sold,,,https://www.redfin.com/MD/Myersville/10865-Pleasant-Walk-Rd-21773/home/175033006,BRIGHT MLS,MDFR281666,N,Y,39.5307882,-77.5975197
PAST SALE,,Single Family Residential,12543 Brandenburg Hollow Rd Unit C,Myersville,MD,21773,420000,,2.0,,1680,78408,2019,,250,,,,,https://www.redfin.com/MD/Myersville/12543-Brandenburg-Hollow-Rd-21773/unit-C/home/17480468,,,N,Y,39.5779436,-77.5487089
PAST SALE,,Mobile/Manufactured Home,11304 Pleasant Walk Rd,Myersville,MD,21773,144057,,2.0,,1496,83635,1987,,96,,,,,https://www.redfin.com/MD/Myersville/11304-Pleasant-Walk-Rd-21773/home/15197988,,,N,Y,39.5433167,-77.5888734
PAST SALE,,Other,LOY WOLFE RD,MYERSVILLE,MD,21773,60000,,,,,361112,,,,,,,,https://www.redfin.com/MD/MYERSVILLE/LOY-WOLFE-RD-21773/home/17480582,,,N,Y,39.585707,-77.573219
PAST SALE,,Single Family Residential,11920 Loy Wolfe Rd,Myersville,MD,21773,385000,,2.0,,1668,294030,1987,,231,,,,,https://www.redfin.com/MD/Myersville/11920-Loy-Wolfe-Rd-21773/home/15198355,,,N,Y,39.5610919,-77.5822027
PAST SALE,January-29-2019,Single Family Residential,10248 Rollingridge Ct,Myersville,MD,21773,340000,3,3.0,MEADOWRIDGE,1800,15004,1989,1041,189,,Sold,,,https://www.redfin.com/MD/Myersville/10248-Rollingridge-Ct-21773/home/15240225,BRIGHT MLS,1005998600,N,Y,39.511754,-77.5712935
PAST SALE,July-22-2020,Single Family Residential,2812-B Monument Rd,Myersville,MD,21773,438000,3,2.0,MYERSVILLE,2640,124146,1979,501,166,,Sold,,,https://www.redfin.com/MD/Myersville/2812B-Monument-Rd-21773/home/166903940,BRIGHT MLS,MDFR263690,N,Y,39.5074039,-77.5712108
PAST SALE,October-10-2019,Single Family Residential,714 Rocky Fountain Dr,Myersville,MD,21773,380000,4,3.5,CANADA HILL,3729,15647,2000,787,102,,Sold,,,https://www.redfin.com/MD/Myersville/714-Rocky-Fountain-Dr-21773/home/15239863,BRIGHT MLS,MDFR250724,N,Y,39.5145113,-77.5693974
PAST SALE,August-23-2019,Single Family Residential,10463-A Church Hill Rd,Myersville,MD,21773,259900,3,1.0,Myersville,1920,54450,1959,835,135,,Sold,,,https://www.redfin.com/MD/Myersville/10463A-Church-Hill-Rd-21773/home/167157365,BRIGHT MLS,MDFR249376,N,Y,39.5179834,-77.5542217
PAST SALE,,Single Family Residential,11234 Easterday Rd,Myersville,MD,21773,535000,5,3.5,,4630,1385208,1982,,116,,,,,https://www.redfin.com/MD/Myersville/11234-Easterday-Rd-21773/home/15198515,,,N,Y,39.5428963,-77.5755067
PAST SALE,February-3-2020,Vacant Land,Lot #3 Pleasant Walk Rd,Myersville,MD,21773,130000,,,Myersville,,65166,,671,,,Sold,,,https://www.redfin.com/MD/Unknown/Lot-3-Pleasant-Walk-Rd-21773/home/167121191,BRIGHT MLS,MDFR248910,N,Y,39.57011389,-77.56320607
PAST SALE,September-23-2020,Vacant Land,Lot #1 Pleasant Walk Rd,Myersville,MD,21773,126000,,,Myersville,,60984,,438,,,Sold,,,https://www.redfin.com/MD/Unknown/Lot-1-Pleasant-Walk-Rd-21773/home/167121252,BRIGHT MLS,MDFR248930,N,Y,39.56972721,-77.56381699
PAST SALE,February-3-2020,Vacant Land,Lot #4 Pleasant Walk Rd,Myersville,MD,21773,130000,,,Myersville,,64033,,671,,,Sold,,,https://www.redfin.com/MD/Unknown/Lot-4-Pleasant-Walk-Rd-21773/home/167134948,BRIGHT MLS,MDFR249168,N,Y,39.5669708,-77.56810266
PAST SALE,July-30-2021,Single Family Residential,3917 Crow Rock Rd,Myersville,MD,21773,1053316,4,2.5,Myersville,4378,3988353,1890,128,241,,Sold,,,https://www.redfin.com/MD/Myersville/3917-Crow-Rock-Rd-21773/home/173766422,BRIGHT MLS,MDFR274476,N,Y,39.523062,-77.534014
PAST SALE,January-10-2020,Townhouse,209 Mountain Ter,Myersville,MD,21773,193243,3,2.5,TERRACES AT SOUTH MOUNTAIN,1692,1740,1998,695,114,49,Sold,,,https://www.redfin.com/MD/Myersville/209-Mountain-Ter-21773/home/15239448,BRIGHT MLS,MDFR252464,N,Y,39.5057115,-77.5689413
PAST SALE,December-7-2020,Single Family Residential,3524 Brethren Church Rd,Myersville,MD,21773,350000,3,2.0,HARSHMAN ESTATES,1176,44431,1977,363,298,,Sold,,,https://www.redfin.com/MD/Myersville/3524-Brethren-Church-Rd-21773/home/15240544,BRIGHT MLS,MDFR272690,N,Y,39.4968204,-77.5475445
PAST SALE,July-23-2021,Single Family Residential,9811 Baltimore National Pike,Myersville,MD,21773,1130000,5,4.5,MYERSVILLE,6004,552341,2011,135,188,,Sold,,,https://www.redfin.com/MD/Myersville/9811-Baltimore-National-Pike-21773/home/44636281,BRIGHT MLS,MDFR282724,N,Y,39.5076964,-77.5493417
PAST SALE,January-29-2021,Single Family Residential,4534 Coxey Brown Rd,Myersville,MD,21773,755000,3,2.5,Myersville,2822,1522858,1975,310,268,,Sold,,,https://www.redfin.com/MD/Myersville/4534-Coxey-Brown-Rd-21773/home/173275889,BRIGHT MLS,MDFR270944,N,Y,39.500774,-77.508678
PAST SALE,June-30-2020,Single Family Residential,11196 Baltimore National Pike,Myersville,MD,21773,334000,4,2.0,Myersville,1224,219542,1992,523,273,,Sold,,,https://www.redfin.com/MD/Myersville/11196-Baltimore-National-Pike-21773/home/15240271,BRIGHT MLS,MDFR264156,N,Y,39.5350849,-77.6051232
PAST SALE,August-23-2021,Single Family Residential,11635 Easterday Rd,Myersville,MD,21773,865000,5,4.5,Myersville,3736,517493,2007,104,232,,Sold,,,https://www.redfin.com/MD/Myersville/11635-Easterday-Rd-21773/home/44636616,BRIGHT MLS,MDFR284228,N,Y,39.5513134,-77.5715914
PAST SALE,October-8-2021,Single Family Residential,2223 Michael Rd,Myersville,MD,21773,750000,3,2.5,Myersville,2280,3828053,1990,58,329,,Sold,,,https://www.redfin.com/MD/Myersville/2223-Michael-Rd-21773/home/166015453,BRIGHT MLS,MDFR2003276,N,Y,39.5029336,-77.593203
PAST SALE,,Single Family Residential,414 Main St,Myersville,MD,21773,200000,,1.5,,1344,1306,1900,,149,,,,,https://www.redfin.com/MD/Myersville/414-Main-St-21773/home/15240902,,,N,Y,39.5086668,-77.5672481
PAST SALE,August-16-2019,Single Family Residential,30 Fox Rock Dr,Myersville,MD,21773,249000,3,1.5,Myersville,1064,15681,1966,842,234,,Sold,,,https://www.redfin.com/MD/Myersville/30-Fox-Rock-Dr-21773/home/15240772,BRIGHT MLS,MDFR249774,N,Y,39.5038062,-77.5653675
PAST SALE,,Single Family Residential,3960 Wistman Ln,Myersville,MD,21773,150000,,1.0,,1044,27878,1971,,144,,,,,https://www.redfin.com/MD/Myersville/3960-Wistman-Ln-21773/home/15240601,,,N,Y,39.5138506,-77.532451
PAST SALE,September-29-2020,Single Family Residential,421 Main St,Myersville,MD,21773,397000,4,3.0,MYERSVILLE,2208,12632,1910,432,180,,Sold,,,https://www.redfin.com/MD/Myersville/421-Main-St-21773/home/15240561,BRIGHT MLS,MDFR268638,N,Y,39.5089513,-77.5669347
PAST SALE,December-3-2021,Single Family Residential,12109 Loy Wolfe Rd,Myersville,MD,21773,306000,3,1.5,Myersville,1926,29947,1952,2,159,,Sold,,,https://www.redfin.com/MD/Myersville/12109-Loy-Wolfe-Rd-21773/home/15198707,BRIGHT MLS,MDFR2007824,N,Y,39.5649346,-77.5787552
PAST SALE,,Single Family Residential,7 Walnut St,Myersville,MD,21773,197600,,2.0,,1680,10890,1961,,118,,,,,https://www.redfin.com/MD/Myersville/7-Walnut-St-21773/home/15240683,,,N,Y,39.5099702,-77.5689944
PAST SALE,November-30-2020,Vacant Land,Grindstone Rd,Myersville,MD,21773,70000,,,Myersville,,446490,,370,,,Sold,,,https://www.redfin.com/MD/MYERSVILLE/GRINDSTONE-RUN-RD-21773/home/15240665,BRIGHT MLS,MDFR268126,N,Y,39.517254,-77.589867
PAST SALE,,Single Family Residential,6 WALNUT ST,MYERSVILLE,MD,21773,269000,,2.0,,1388,10890,1956,,194,,,,,https://www.redfin.com/MD/MYERSVILLE/6-WALNUT-ST-21773/home/15240662,,,N,Y,39.509533,-77.568601
PAST SALE,,Single Family Residential,9369 Myersville Rd,Myersville,MD,21773,100000,,1.0,,2238,85378,1900,,45,,,,,https://www.redfin.com/MD/Myersville/9369-Myersville-Rd-21773/home/15239951,,,N,Y,39.4866285,-77.5627702
PAST SALE,May-31-2019,Single Family Residential,3512 Bittle Rd,Myersville,MD,21773,359000,4,3.0,Myersville,2700,67082,1990,919,133,,Sold,,,https://www.redfin.com/MD/Myersville/3512-Bittle-Rd-21773/home/15240230,BRIGHT MLS,MDFR244068,N,Y,39.5191672,-77.5462457
PAST SALE,December-21-2018,Single Family Residential,6 Walnut St,Myersville,MD,21773,269000,3,2.0,Myersville,1788,10890,1956,1080,150,,Sold,,,https://www.redfin.com/MD/Myersville/6-Walnut-St-21773/home/143301693,BRIGHT MLS,1009933178,N,Y,39.5098429,-77.5679666
PAST SALE,January-22-2021,Single Family Residential,10701 Easterday Rd,Myersville,MD,21773,765500,3,2.5,Myersville,2164,1803820,1984,317,354,,Sold,,,https://www.redfin.com/MD/Myersville/10701-Easterday-Rd-21773/home/172405459,BRIGHT MLS,MDFR266562,N,Y,39.52529,-77.56919
PAST SALE,April-24-2020,Single Family Residential,12145 Pleasant Walk Rd,Myersville,MD,21773,320000,4,2.5,Myersville,1536,92347,1988,590,208,,Sold,,,https://www.redfin.com/MD/Myersville/12145-Pleasant-Walk-Rd-21773/home/15198282,BRIGHT MLS,MDFR259968,N,Y,39.565774,-77.5657481
PAST SALE,June-7-2021,Single Family Residential,13 Poplar St,Myersville,MD,21773,320000,3,2.0,Myersville,1254,25264,1952,181,255,,Sold,,,https://www.redfin.com/MD/Myersville/13-Poplar-St-21773/home/15240562,BRIGHT MLS,MDFR282640,N,Y,39.5044558,-77.5643824
PAST SALE,,Other,9937 Mt Tabor Rd,Myersville,MD,21773,86000,,,,,59242,,,,,,,,https://www.redfin.com/MD/Myersville/9937-Mt-Tabor-Rd-21773/home/28508447,,,N,Y,39.504734,-77.583472
PAST SALE,June-14-2021,Vacant Land,9937 Mount Tabor Rd Lot 3,Myersville,MD,21773,86000,,,Myersville,,59241,,174,,,Sold,,,https://www.redfin.com/MD/Myersville/9937-Mount-Tabor-Rd-21773/unit-3/home/169239505,BRIGHT MLS,MDFR254256,N,Y,39.504734,-77.583472
PAST SALE,November-23-2021,Single Family Residential,2517 Scravel Rd,Myersville,MD,21773,850000,4,3.5,Myersville,4475,613760,2012,12,190,,Sold,,,https://www.redfin.com/MD/Myersville/2517-Scravel-Rd-21773/home/17483730,BRIGHT MLS,MDFR2005738,N,Y,39.535052,-77.582513
PAST SALE,June-14-2021,Vacant Land,9933 Mount Tabor Rd Lot 2,Myersville,MD,21773,86000,,,Myersville,,54885,,174,,,Sold,,,https://www.redfin.com/MD/Myersville/9933-Mount-Tabor-Rd-21773/unit-2/home/169239503,BRIGHT MLS,MDFR254254,N,Y,39.504561,-77.583949
PAST SALE,,Other,WOLFSVILLE RD,MYERSVILLE,MD,21773,68500,,,,,174240,,,,,,,,https://www.redfin.com/MD/MYERSVILLE/WOLFSVILLE-RD-21773/home/17483583,,,N,Y,39.525815,-77.544001
PAST SALE,November-10-2020,Single Family Residential,4128 Coxey Brown Rd,Myersville,MD,21773,390000,2,2.0,Myersville,1262,153331,1984,390,309,,Sold,,,https://www.redfin.com/MD/Myersville/4128-Coxey-Brown-Rd-21773/home/15240905,BRIGHT MLS,MDFR271694,N,Y,39.4983601,-77.525777
PAST SALE,November-20-2019,Single Family Residential,2914 Ward Kline Rd,Myersville,MD,21773,565000,4,4.5,MYERSVILLE,4540,195149,2004,746,124,,Sold,,,https://www.redfin.com/MD/Myersville/2914-Ward-Kline-Rd-21773/home/15240901,BRIGHT MLS,MDFR252730,N,Y,39.533451,-77.568278
PAST SALE,February-14-2020,Single Family Residential,2943 Ward Kline Rd,Myersville,MD,21773,399990,3,2.5,ALPINE VIEW,2394,131551,1990,660,167,,Sold,,,https://www.redfin.com/MD/Myersville/2943-Ward-Kline-Rd-21773/home/15240920,BRIGHT MLS,MDFR255230,N,Y,39.5307369,-77.5669123
PAST SALE,May-31-2019,Single Family Residential,507 Main St,Myersville,MD,21773,312500,4,2.0,Myersville,2176,26571,1910,919,144,,Sold,,,https://www.redfin.com/MD/Myersville/507-Main-St-21773/home/15240836,BRIGHT MLS,MDFR243764,N,Y,39.5101142,-77.5673825
PAST SALE,October-12-2021,Single Family Residential,2149 Canada Hill Rd,Myersville,MD,21773,500000,4,2.5,Myersville,2144,68389,1989,54,233,,Sold,,,https://www.redfin.com/MD/Myersville/2149-Canada-Hill-Rd-21773/home/15240876,BRIGHT MLS,MDFR2004804,N,Y,39.5299138,-77.5951856
PAST SALE,September-13-2021,Single Family Residential,2812 Ward Kline Rd,Myersville,MD,21773,475000,3,3.5,ALPINE VIEW,2552,282704,1979,83,186,,Sold,,,https://www.redfin.com/MD/Myersville/2812-Ward-Kline-Rd-21773/home/15241129,BRIGHT MLS,MDFR2003496,N,Y,39.5347495,-77.5732929
PAST SALE,April-17-2020,Single Family Residential,109 Main St,Myersville,MD,21773,339000,4,3.0,MYERSVILLE,2914,12196,1896,597,116,,Sold,,,https://www.redfin.com/MD/Myersville/109-Main-St-21773/home/15240764,BRIGHT MLS,MDFR256614,N,Y,39.5043254,-77.5664869
PAST SALE,July-30-2021,Single Family Residential,4758 Fishers Hollow Rd,Myersville,MD,21773,875000,4,3.5,MYERSVILLE,3224,232610,2008,128,271,,Sold,,,https://www.redfin.com/MD/Myersville/4758-Fishers-Hollow-Rd-21773/home/17483699,BRIGHT MLS,MDFR282708,N,Y,39.5127415,-77.5213199
PAST SALE,May-21-2021,Single Family Residential,2744 Canada Hill Rd,Myersville,MD,21773,330000,2,2.0,MYERSVILLE,1299,39334,1970,198,254,,Sold,,,https://www.redfin.com/MD/Myersville/2744-Canada-Hill-Rd-21773/home/15240622,BRIGHT MLS,MDFR280994,N,Y,39.5148537,-77.5747704
PAST SALE,June-4-2021,Single Family Residential,25 Fox Rock Dr,Myersville,MD,21773,440000,3,3.0,ASHLEY ACRES,2412,15246,1962,184,182,,Sold,,,https://www.redfin.com/MD/Myersville/25-Fox-Rock-Dr-21773/home/15240729,BRIGHT MLS,MDFR281464,N,Y,39.5032693,-77.5651884
PAST SALE,April-24-2020,Single Family Residential,3519 Brethren Church Rd,Myersville,MD,21773,250000,3,2.0,HARSHMAN ESTATES,2000,30056,1977,590,125,,Sold,,,https://www.redfin.com/MD/Myersville/3519-Brethren-Church-Rd-21773/home/15241134,BRIGHT MLS,MDFR261444,N,Y,39.496465,-77.5483058
PAST SALE,,Single Family Residential,10463 Church Hill Rd Unit A,Myersville,MD,21773,259900,,1.0,,1920,54450,1959,,135,,,,,https://www.redfin.com/MD/Myersville/10463-Church-Hill-Rd-21773/unit-A/home/15240633,,,N,Y,39.5179919,-77.5541277
PAST SALE,October-6-2020,Vacant Land,10518 Baltimore National Pike,Myersville,MD,21773,310000,,,CATOCTIN MEADOWS,,1769407,,425,,,Sold,,,https://www.redfin.com/MD/Myersville/10518-Baltimore-National-Pike-21773/home/22178129,BRIGHT MLS,MDFR265358,N,Y,39.5197565,-77.5728475
PAST SALE,June-30-2020,Single Family Residential,2804 Monument Rd,Myersville,MD,21773,349900,3,2.0,MYERSVILLE,1512,62291,1966,523,231,,Sold,,,https://www.redfin.com/MD/Myersville/2804-Monument-Rd-21773/home/15240896,BRIGHT MLS,MDFR258090,N,Y,39.5087576,-77.5736063
PAST SALE,August-14-2020,Single Family Residential,3632 Brethren Church Rd,Myersville,MD,21773,360000,4,2.0,LEATHERMAN HOME PLACE,2202,40946,1972,478,163,,Sold,,,https://www.redfin.com/MD/Myersville/3632-Brethren-Church-Rd-21773/home/15240608,BRIGHT MLS,MDFR266102,N,Y,39.49603,-77.5417223
PAST SALE,December-11-2020,Single Family Residential,3801 Brethren Church Rd,Myersville,MD,21773,321000,2,3.0,MYERSVILLE,1698,39745,1969,359,189,,Sold,,,https://www.redfin.com/MD/Myersville/3801-Brethren-Church-Rd-21773/home/15240570,BRIGHT MLS,MDFR273258,N,Y,39.4946957,-77.5382289
PAST SALE,September-21-2020,Single Family Residential,3644 Bittle Rd,Myersville,MD,21773,415000,2,2.0,Myersville,3279,64033,1978,440,127,,Sold,,,https://www.redfin.com/MD/Myersville/3644-Bittle-Rd-21773/home/15240551,BRIGHT MLS,MDFR268052,N,Y,39.51173,-77.5435362
PAST SALE,,Mobile/Manufactured Home,10862 Pleasant Walk Rd,Myersville,MD,21773,190000,,1.0,,1044,412513,,,182,,,,,https://www.redfin.com/MD/Myersville/10862-Pleasant-Walk-Rd-21773/home/166015215,,,N,Y,39.5312927,-77.5980058
PAST SALE,July-21-2021,Single Family Residential,2114 Michael Rd,Myersville,MD,21773,575000,3,3.0,MYERSVILLE,2286,217800,1963,137,252,,Sold,,,https://www.redfin.com/MD/Myersville/2114-Michael-Rd-21773/home/15240505,BRIGHT MLS,MDFR282666,N,Y,39.5058409,-77.5972672
PAST SALE,May-21-2021,Single Family Residential,10630 Highland School Rd,Myersville,MD,21773,389900,3,2.5,Myersville,2442,43560,1966,198,160,,Sold,,,https://www.redfin.com/MD/Myersville/10630-Highland-School-Rd-21773/home/15240537,BRIGHT MLS,MDFR279512,N,Y,39.5252171,-77.5198641
PAST SALE,July-29-2020,Single Family Residential,10507 Grindstone Run Rd,Myersville,MD,21773,435000,3,3.0,MYERSVILLE,3400,117612,2002,494,128,,Sold,,,https://www.redfin.com/MD/Myersville/10507-Grindstone-Run-Rd-21773/home/15240507,BRIGHT MLS,MDFR265326,N,Y,39.5217605,-77.591358
PAST SALE,July-15-2021,Single Family Residential,3906 Highland Ct,Myersville,MD,21773,465000,4,3.0,TURKEY HILL ESTATES,2003,50530,1974,143,232,,Sold,,,https://www.redfin.com/MD/Myersville/3906-Highland-Ct-21773/home/15240435,BRIGHT MLS,MDFR282356,N,Y,39.5126813,-77.5345114
PAST SALE,May-6-2021,Single Family Residential,10423 Church Hill Rd,Myersville,MD,21773,460000,3,2.5,MYERSVILLE,3048,135472,1964,213,151,,Sold,,,https://www.redfin.com/MD/Myersville/10423-Church-Hill-Rd-21773/home/15240511,BRIGHT MLS,MDFR279878,N,Y,39.5192051,-77.5561429
PAST SALE,March-13-2020,Single Family Residential,10278 Highland School Rd,Myersville,MD,21773,225000,3,2.0,Myersville,1440,95396,1978,632,156,,Sold,,,https://www.redfin.com/MD/Myersville/10278-Highland-School-Rd-21773/home/15240686,BRIGHT MLS,MDFR258618,N,Y,39.5139255,-77.5053045
PAST SALE,August-31-2020,Single Family Residential,3465 Brethren Church Rd,Myersville,MD,21773,350000,4,3.5,MYERSVILLE,3368,20037,1974,461,104,,Sold,,,https://www.redfin.com/MD/Myersville/3465-Brethren-Church-Rd-21773/home/15240723,BRIGHT MLS,MDFR258124,N,Y,39.4979893,-77.549515
PAST SALE,March-15-2021,Single Family Residential,10355 Grindstone Run Rd,Myersville,MD,21773,469888,3,2.5,Myersville,1960,73181,2001,265,240,,Sold,,,https://www.redfin.com/MD/Myersville/10355-Grindstone-Run-Rd-21773/home/15240698,BRIGHT MLS,MDFR276822,N,Y,39.5173971,-77.5938873
PAST SALE,,Single Family Residential,10469 Church Hill Rd,Myersville,MD,21773,355000,3,1.5,,1574,16177,1961,,226,,,,,https://www.redfin.com/MD/Myersville/10469-Church-Hill-Rd-21773/home/15240513,,,N,Y,39.5205766,-77.5530081
PAST SALE,August-6-2021,Single Family Residential,18 Poplar St,Myersville,MD,21773,385000,4,2.0,MYERSVILLE,1224,23206,1982,121,315,,Sold,,,https://www.redfin.com/MD/Myersville/18-Poplar-St-21773/home/15240425,BRIGHT MLS,MDFR283884,N,Y,39.5053094,-77.563442
PAST SALE,November-3-2020,Single Family Residential,3901 Crow Rock Rd,Myersville,MD,21773,250000,2,1.0,MYERSVILLE,672,23958,1961,397,372,,Sold,,,https://www.redfin.com/MD/Myersville/3901-Crow-Rock-Rd-21773/home/15240412,BRIGHT MLS,MDFR270556,N,Y,39.5243058,-77.5345561
PAST SALE,August-21-2019,Single Family Residential,10962 Pleasant Walk Rd,Myersville,MD,21773,346900,3,2.5,MYERSVILLE,2057,74052,1964,837,169,,Sold,,,https://www.redfin.com/MD/Myersville/10962-Pleasant-Walk-Rd-21773/home/15240668,BRIGHT MLS,MDFR244456,N,Y,39.5340107,-77.5940664
PAST SALE,August-31-2021,Single Family Residential,2740 Canada Hill Rd,Myersville,MD,21773,400000,4,2.0,MYERSVILLE,1976,20037,1967,96,202,,Sold,,,https://www.redfin.com/MD/Myersville/2740-Canada-Hill-Rd-21773/home/15240669,BRIGHT MLS,MDFR2001088,N,Y,39.5152651,-77.5752629
PAST SALE,August-24-2021,Single Family Residential,10640 Easterday Rd,Myersville,MD,21773,355000,3,1.5,Myersville,1539,34848,1966,103,231,,Sold,,,https://www.redfin.com/MD/Myersville/10640-Easterday-Rd-21773/home/15240672,BRIGHT MLS,MDFR2000212,N,Y,39.525848,-77.580826
PAST SALE,January-31-2020,Single Family Residential,2507 Monument Rd,Myersville,MD,21773,205000,4,2.0,MYERSVILLE,1904,586318,1979,674,108,,Sold,,,https://www.redfin.com/MD/Myersville/2507-Monument-Rd-21773/home/15239999,BRIGHT MLS,MDFR247210,N,Y,39.5078946,-77.5829845
PAST SALE,January-4-2021,Single Family Residential,4239 Fishers Hollow Rd,Myersville,MD,21773,240000,3,2.0,Myersville,1440,134600,1991,335,167,,Sold,,,https://www.redfin.com/MD/Myersville/4239-Fishers-Hollow-Rd-21773/home/15240653,BRIGHT MLS,MDFR274352,N,Y,39.502982,-77.520805
PAST SALE,,Single Family Residential,2605 Scravel Rd Unit B,Myersville,MD,21773,55000,,1.0,,1082,28351,1950,,51,,,,,https://www.redfin.com/MD/Myersville/2605-Scravel-Rd-21773/unit-B/home/15240493,,,N,Y,39.5351566,-77.5799761
PAST SALE,October-9-2020,Single Family Residential,34 Fox Rock Dr,Myersville,MD,21773,255000,3,1.5,ASHLEY,1280,14810,1962,422,199,,Sold,,,https://www.redfin.com/MD/Myersville/34-Fox-Rock-Dr-21773/home/15240485,BRIGHT MLS,MDFR269176,N,Y,39.5036937,-77.5646958
PAST SALE,November-20-2020,Single Family Residential,4117 Crow Rock Rd,Myersville,MD,21773,170000,2,1.5,Myersville,1740,42993,1970,380,98,,Sold,,,https://www.redfin.com/MD/Myersville/4117-Crow-Rock-Rd-21773/home/15240355,BRIGHT MLS,MDFR270860,N,Y,39.521518,-77.526258
PAST SALE,February-28-2020,Single Family Residential,513 Main St,Myersville,MD,21773,228000,4,1.0,MYERSVILLE,1890,15681,1857,646,121,,Sold,,,https://www.redfin.com/MD/Myersville/513-Main-St-21773/home/15240354,BRIGHT MLS,MDFR247428,N,Y,39.5109005,-77.5672929
PAST SALE,,Single Family Residential,10043 Vista Ct,Myersville,MD,21773,225000,,3.0,,3716,340639,1979,,61,,,,,https://www.redfin.com/MD/Myersville/10043-Vista-Ct-21773/home/15239910,,,N,Y,39.5033577,-77.5358226
PAST SALE,December-31-2018,Single Family Residential,3910 Highland Ave,Myersville,MD,21773,320000,4,3.0,TURKEY HILL ESTATES,1980,73616,1979,1070,162,,Sold,,,https://www.redfin.com/MD/Myersville/3910-Highland-Ave-21773/home/15240364,BRIGHT MLS,1009964604,N,Y,39.5141382,-77.5349306
PAST SALE,,Other,4307 Fishers Hollow Rd,Myersville,MD,21773,249900,,,,,1132560,,,,,,,,https://www.redfin.com/MD/Myersville/4307-Fishers-Hollow-Rd-21773/home/17483466,,,N,Y,39.506146,-77.518158
PAST SALE,March-12-2021,Single Family Residential,9532 Harmony Rd,Myersville,MD,21773,275000,3,1.5,MYERSVILLE,1400,16004,1915,268,196,,Sold,,,https://www.redfin.com/MD/Myersville/9532-Harmony-Rd-21773/home/15240018,BRIGHT MLS,MDFR276796,N,Y,39.4949277,-77.5293604
PAST SALE,November-30-2020,Single Family Residential,8 Walnut St,Myersville,MD,21773,329000,2,1.0,MYERSVILLE,1468,19427,1956,370,224,,Sold,,,https://www.redfin.com/MD/Myersville/8-Walnut-St-21773/home/15240017,BRIGHT MLS,MDFR269280,N,Y,39.5096023,-77.5689049
PAST SALE,August-28-2020,Single Family Residential,404 Main St,Myersville,MD,21773,304900,3,2.0,MYERSVILLE,1456,8415,1900,464,209,,Sold,,,https://www.redfin.com/MD/Myersville/404-Main-St-21773/home/15240311,BRIGHT MLS,MDFR260130,N,Y,39.50764,-77.566997
PAST SALE,September-3-2021,Single Family Residential,13 Main St,Myersville,MD,21773,91000,2,1.0,MYERSVILLE,960,10890,1965,93,95,,Sold,,,https://www.redfin.com/MD/Myersville/13-Main-St-21773/home/15239903,BRIGHT MLS,MDFR2002416,N,Y,39.5016314,-77.5655018
PAST SALE,June-30-2021,Single Family Residential,10416 Easterday Rd,Myersville,MD,21773,255000,3,1.0,Myersville,890,103237,1940,158,287,,Sold,,,https://www.redfin.com/MD/Myersville/10416-Easterday-Rd-21773/home/15240323,BRIGHT MLS,MDFR282264,N,Y,39.5205804,-77.5795164
PAST SALE,July-10-2020,Single Family Residential,9541 Harmony Rd,Myersville,MD,21773,205000,3,1.0,MYERSVILLE,1100,11761,1935,513,186,,Sold,,,https://www.redfin.com/MD/Myersville/9541-Harmony-Rd-21773/home/15239895,BRIGHT MLS,MDFR258176,N,Y,39.4942315,-77.5294608
PAST SALE,November-24-2020,Vacant Land,Grindstone Run Rd,Myersville,MD,21773,60000,,,Myersville,,338025,,376,,,Sold,,,https://www.redfin.com/MD/MYERSVILLE/GRINDSTONE-RUN-RD-21773/home/17483477,BRIGHT MLS,MDFR268178,N,Y,39.52341,-77.59231
PAST SALE,April-17-2019,Single Family Residential,2702 Canada Hill Rd,Myersville,MD,21773,415000,3,2.0,MYERSVILLE,2465,43560,1950,963,168,,Sold,,,https://www.redfin.com/MD/Myersville/2702-Canada-Hill-Rd-21773/home/15239976,BRIGHT MLS,MDFR233520,N,Y,39.5176128,-77.5770987
PAST SALE,August-26-2020,Single Family Residential,17 Harp Pl,Myersville,MD,21773,307500,3,2.0,Myersville,1248,16988,1955,466,246,,Sold,,,https://www.redfin.com/MD/Myersville/17-Harp-Pl-21773/home/15240026,BRIGHT MLS,MDFR267000,N,Y,39.5124365,-77.5660391
PAST SALE,September-1-2021,Single Family Residential,206 Main St,Myersville,MD,21773,311500,5,2.5,Myersville,2248,10890,1910,95,139,,Sold,,,https://www.redfin.com/MD/Myersville/206-Main-St-21773/home/15239978,BRIGHT MLS,MDFR2000996,N,Y,39.5051238,-77.5668225
PAST SALE,February-14-2019,Single Family Residential,3968 Wistman Ln,Myersville,MD,21773,245000,3,2.0,WISTMANS DELIGHT,1976,20037,1973,1025,124,,Sold,,,https://www.redfin.com/MD/Myersville/3968-Wistman-Ln-21773/home/15239938,BRIGHT MLS,1002294092,N,Y,39.5144281,-77.5322718
PAST SALE,,Single Family Residential,2906 Ward Kline Rd,Myersville,MD,21773,410000,,2.0,,1456,270508,1900,,282,,,,,https://www.redfin.com/MD/Myersville/2906-Ward-Kline-Rd-21773/home/15239929,,,N,Y,39.5338933,-77.5707334
PAST SALE,March-2-2021,Single Family Residential,9518 Harmony Rd,Myersville,MD,21773,195000,2,1.0,Myersville,1194,14810,1900,278,163,,Sold,,,https://www.redfin.com/MD/Myersville/9518-Harmony-Rd-21773/home/15239724,BRIGHT MLS,MDFR275816,N,Y,39.4939763,-77.5297635
PAST SALE,,Single Family Residential,10231 Harmony Rd,Myersville,MD,21773,400000,,1.0,,2227,159430,1984,,180,,,,,https://www.redfin.com/MD/Myersville/10231-Harmony-Rd-21773/home/15239710,,,N,Y,39.5157252,-77.5368288
PAST SALE,October-25-2019,Single Family Residential,10944 Pleasant Walk Rd,Myersville,MD,21773,403000,3,2.0,Myersville,1728,218236,1986,772,233,,Sold,,,https://www.redfin.com/MD/Myersville/10944-Pleasant-Walk-Rd-21773/home/15240270,BRIGHT MLS,MDFR252182,N,Y,39.5339773,-77.5952303
PAST SALE,March-12-2021,Single Family Residential,11031 Pleasant Walk Rd,Myersville,MD,21773,462000,5,3.0,Myersville,2740,218671,1993,268,169,,Sold,,,https://www.redfin.com/MD/Myersville/11031-Pleasant-Walk-Rd-21773/home/15239717,BRIGHT MLS,MDFR276964,N,Y,39.5347182,-77.5888286
PAST SALE,March-20-2020,Single Family Residential,10538 Church Hill Rd,Myersville,MD,21773,549900,5,3.5,MYERSVILLE,4630,175111,1989,625,119,,Sold,,,https://www.redfin.com/MD/Myersville/10538-Church-Hill-Rd-21773/home/15239715,BRIGHT MLS,MDFR254136,N,Y,39.5225789,-77.553859
PAST SALE,April-26-2019,Single Family Residential,2707 Meadowridge Ct,Myersville,MD,21773,375000,4,2.5,MEADOWRIDGE,2128,16064,1988,954,176,,Sold,,,https://www.redfin.com/MD/Myersville/2707-Meadow-Ridge-Ct-21773/home/15240215,BRIGHT MLS,MDFR233972,N,Y,39.5122362,-77.5724645
PAST SALE,July-12-2019,Single Family Residential,10252 Rollingridge Ct,Myersville,MD,21773,330000,3,2.5,MEADOWRIDGE,1708,15373,1990,877,193,,Sold,,,https://www.redfin.com/MD/Myersville/10252-Rollingridge-Ct-21773/home/15240190,BRIGHT MLS,MDFR246662,N,Y,39.512018,-77.5711623
PAST SALE,July-31-2020,Single Family Residential,10239 Wolfsville,Myersville,MD,21773,867750,6,6.0,WOLFSVILLE,6086,306226,1989,492,143,,Sold,,,https://www.redfin.com/MD/Myersville/10239-Wolfsville-Rd-21773/home/15240272,BRIGHT MLS,MDFR266790,N,Y,39.5147558,-77.5477684
PAST SALE,November-24-2020,Single Family Residential,33 Ashley Way,Myersville,MD,21773,460000,4,2.5,ASHLEY,2540,18515,1990,376,181,23,Sold,,,https://www.redfin.com/MD/Myersville/33-Ashley-Way-21773/home/15240198,BRIGHT MLS,MDFR271956,N,Y,39.502081,-77.5648749
PAST SALE,March-15-2021,Single Family Residential,35 Fox Rock Dr,Myersville,MD,21773,525000,4,2.5,ASHLEY,2728,18730,1991,265,192,25,Sold,,,https://www.redfin.com/MD/Myersville/35-Fox-Rock-Dr-21773/home/15240474,BRIGHT MLS,MDFR277700,N,Y,39.5032568,-77.5643376
PAST SALE,June-21-2019,Single Family Residential,2734 Flintridge Dr,Myersville,MD,21773,394000,4,3.0,MEADOWRIDGE,2040,15094,1994,898,193,,Sold,,,https://www.redfin.com/MD/Myersville/2734-Flintridge-Dr-21773/home/15240170,BRIGHT MLS,MDFR243404,N,Y,39.5126636,-77.5740646
PAST SALE,September-3-2020,Single Family Residential,9807 Pond Run Ct,Myersville,MD,21773,495000,4,2.5,HIGHFIELDS,3113,61855,1993,458,159,,Sold,,,https://www.redfin.com/MD/Myersville/9807-Pond-Run-Ct-21773/home/15240161,BRIGHT MLS,MDFR267540,N,Y,39.5011224,-77.5483058
PAST SALE,November-23-2020,Single Family Residential,4037 Crow Rock Rd,Myersville,MD,21773,280000,3,1.5,MYERSVILLE,1200,58806,1974,377,233,,Sold,,,https://www.redfin.com/MD/Myersville/4037-Crow-Rock-Rd-21773/home/15240081,BRIGHT MLS,MDFR271606,N,Y,39.524284,-77.530685
PAST SALE,,Single Family Residential,9810 Pond Run Ct,Myersville,MD,21773,465000,,2.5,,2203,67082,1995,,211,,,,,https://www.redfin.com/MD/Myersville/9810-Pond-Run-Ct-21773/home/14741220,,,N,Y,39.5016729,-77.5498957
PAST SALE,September-30-2020,Single Family Residential,10011 Baltimore National Pike,Myersville,MD,21773,575000,6,4.0,Myersville,5082,259182,1992,431,113,,Sold,,,https://www.redfin.com/MD/Myersville/10011-Baltimore-National-Pike-21773/home/15240140,BRIGHT MLS,MDFR268964,N,Y,39.5101557,-77.5481043
PAST SALE,September-9-2020,Single Family Residential,10440 Church Hill Rd,Myersville,MD,21773,805000,7,6.5,THE VINEYARD,6816,334976,1996,452,118,,Sold,,,https://www.redfin.com/MD/Myersville/10440-Church-Hill-Rd-21773/home/15240098,BRIGHT MLS,MDFR261284,N,Y,39.5217217,-77.5580684
PAST SALE,,Single Family Residential,10020 Baltimore National Pike,Myersville,MD,21773,325000,,3.5,,2700,150282,1994,,120,,,,,https://www.redfin.com/MD/Myersville/10020-Baltimore-National-Pike-21773/home/15239653,,,N,Y,39.5071479,-77.5572624
PAST SALE,July-12-2021,Single Family Residential,51 Ashley Way,Myersville,MD,21773,515000,5,3.5,ASHLEY,3094,19695,1997,146,166,24,Sold,,,https://www.redfin.com/MD/Myersville/51-Ashley-Way-21773/home/15240066,BRIGHT MLS,MDFR282970,N,Y,39.5014989,-77.5622554
PAST SALE,August-12-2020,Single Family Residential,75 Ashley Way,Myersville,MD,21773,417000,4,3.5,ASHLEY,2788,16143,1994,480,150,25,Sold,,,https://www.redfin.com/MD/Myersville/75-Ashley-Way-21773/home/15239620,BRIGHT MLS,MDFR266046,N,Y,39.5018576,-77.5595014
PAST SALE,December-12-2019,Single Family Residential,88 Ashley Ct,Myersville,MD,21773,385000,4,3.0,ASHLEY,2754,19989,1995,724,140,19,Sold,,,https://www.redfin.com/MD/Myersville/88-Ashley-Ct-21773/home/15239632,BRIGHT MLS,MDFR255108,N,Y,39.5022811,-77.5575311
PAST SALE,October-14-2020,Single Family Residential,3819 Crow Rock Rd,Myersville,MD,21773,450000,4,3.5,Myersville,2256,115870,2000,417,199,,Sold,,,https://www.redfin.com/MD/Myersville/3819-Crow-Rock-Rd-21773/home/15239645,BRIGHT MLS,MDFR269644,N,Y,39.5246004,-77.5380049
PAST SALE,August-31-2021,Single Family Residential,2119 Monument Rd,Myersville,MD,21773,450000,3,2.0,Myersville,1636,248292,1997,96,275,,Sold,,,https://www.redfin.com/MD/Myersville/2119-Monument-Rd-21773/home/15239643,BRIGHT MLS,MDFR2000522,N,Y,39.5127748,-77.5971553
PAST SALE,May-14-2019,Single Family Residential,3631 Brethren Church Rd,Myersville,MD,21773,547000,4,3.5,LEATHERMAN HOME PLACE,3636,76666,2006,936,150,,Sold,,,https://www.redfin.com/MD/Myersville/3631-Brethren-Church-Rd-21773/home/15239630,BRIGHT MLS,1001925692,N,Y,39.4944998,-77.5417447
PAST SALE,July-30-2020,Townhouse,238 Mountain Ter,Myersville,MD,21773,279900,3,2.5,TERRACES AT SOUTH MOUNTAIN,1818,1740,1996,493,154,49,Sold,,,https://www.redfin.com/MD/Myersville/238-Mountain-Ter-21773/home/15239616,BRIGHT MLS,MDFR265904,N,Y,39.5047503,-77.5696766
PAST SALE,May-31-2019,Townhouse,235 Mountain Ter,Myersville,MD,21773,253000,3,3.0,TERRACES AT SOUTH MOUNTAIN,1676,1710,1995,919,151,49,Sold,,,https://www.redfin.com/MD/Myersville/235-Mountain-Ter-21773/home/15239603,BRIGHT MLS,MDFR244262,N,Y,39.5048105,-77.5687926
PAST SALE,July-27-2020,Single Family Residential,9728 Mount Tabor Rd,Middletown,MD,21769,610000,5,3.5,SQUIRREL WOOD,3341,268330,2003,496,183,,Sold,,,https://www.redfin.com/MD/Middletown/9728-Mt-Tabor-Rd-21769/home/15239611,BRIGHT MLS,MDFR265722,N,Y,39.5010904,-77.5857172
PAST SALE,September-29-2021,Townhouse,211 Mountain Ter,Myersville,MD,21773,289900,3,3.0,TERRACES AT SOUTH MOUNTAIN,1704,1740,1998,67,170,54,Sold,,,https://www.redfin.com/MD/Myersville/211-Mountain-Ter-21773/home/15239467,BRIGHT MLS,MDFR2003610,N,Y,39.5056698,-77.5689873
PAST SALE,August-16-2021,Townhouse,206 Mountain Ter,Myersville,MD,21773,305000,3,3.0,TERRACES AT SOUTH MOUNTAIN,1840,1740,1997,111,166,54,Sold,,,https://www.redfin.com/MD/Myersville/206-Mountain-Ter-21773/home/15240043,BRIGHT MLS,MDFR2001092,N,Y,39.505893,-77.569344
PAST SALE,April-30-2020,Single Family Residential,101 Deerwoods Pl,Myersville,MD,21773,389900,4,3.5,DEERWOODS,2660,16734,1998,584,147,22,Sold,,,https://www.redfin.com/MD/Myersville/101-Deerwoods-Pl-21773/home/15239428,BRIGHT MLS,MDFR261454,N,Y,39.5112554,-77.5641361
PAST SALE,June-16-2021,Vacant Land,9115 Myersville,Myersville,MD,21773,260000,,,MYERSVILLE,,218236,,172,,,Sold,,,https://www.redfin.com/MD/Myersville/9115-Myersville-Rd-21773/home/15239882,BRIGHT MLS,MDFR273678,N,Y,39.483057,-77.5441632
PAST SALE,May-28-2021,Single Family Residential,2748 Canada Hill Rd,Myersville,MD,21773,417000,4,3.5,CANADA HILL,2781,15078,2001,191,150,,Sold,,,https://www.redfin.com/MD/Myersville/2748-Canada-Hill-Rd-21773/home/15239856,BRIGHT MLS,MDFR279980,N,Y,39.5144277,-77.5741436
PAST SALE,July-20-2020,Single Family Residential,54 Saddleridge Ct,Myersville,MD,21773,424000,4,3.5,CANADA HILL,3188,15049,1999,503,133,,Sold,,,https://www.redfin.com/MD/Myersville/54-Saddleridge-Ct-21773/home/15239420,BRIGHT MLS,MDFR264950,N,Y,39.5162761,-77.5732033
PAST SALE,July-21-2021,Single Family Residential,10117 Saddleridge Dr,Myersville,MD,21773,445000,4,2.5,CANADA HILL,2101,18357,1999,137,212,,Sold,,,https://www.redfin.com/MD/Myersville/10117-Saddleridge-Dr-21773/home/15239873,BRIGHT MLS,MDFR284226,N,Y,39.5166783,-77.5717705
PAST SALE,March-15-2021,Single Family Residential,703 Rocky Fountain Dr,Myersville,MD,21773,435000,5,3.5,CANADA HILL,2989,18261,2001,265,146,,Sold,,,https://www.redfin.com/MD/Myersville/703-Rocky-Fountain-Dr-21773/home/15239861,BRIGHT MLS,MDFR277756,N,Y,39.5135668,-77.5691287
PAST SALE,April-3-2019,Single Family Residential,105 Deerwoods Pl,Myersville,MD,21773,373000,4,3.5,DEERWOODS,2244,18168,1999,977,166,21,Sold,,,https://www.redfin.com/MD/Myersville/105-Deerwoods-Pl-21773/home/15239833,BRIGHT MLS,1002629922,N,Y,39.5107457,-77.5640241
PAST SALE,October-22-2019,Single Family Residential,702 Rocky Fountain Dr,Myersville,MD,21773,455000,5,4.5,CANADA HILL,4666,15909,2001,775,98,,Sold,,,https://www.redfin.com/MD/Myersville/702-Rocky-Fountain-Dr-21773/home/15239835,BRIGHT MLS,MDFR251966,N,Y,39.5131629,-77.5694422
PAST SALE,,Single Family Residential,4207 Coxey Brown Rd Unit C,Myersville,MD,21773,475000,,3.0,,1560,248728,1989,,304,,,,,https://www.redfin.com/MD/Myersville/4207-Coxey-Brown-Rd-21773/unit-C/home/15239400,,,N,Y,39.49646,-77.5225789
PAST SALE,,Other,COXEY BROWN RD,MYERSVILLE,MD,21773,80000,,,,,278348,,,,,,,,https://www.redfin.com/MD/MYERSVILLE/COXEY-BROWN-RD-21773/home/17479788,,,N,Y,39.499245,-77.518006
PAST SALE,July-12-2019,Single Family Residential,10345 Church Hill Rd,Myersville,MD,21773,435000,4,3.5,FAIR ARIANA,6556,99752,2005,877,66,,Sold,,,https://www.redfin.com/MD/Myersville/10345-Church-Hill-Rd-21773/home/15182422,BRIGHT MLS,1009954700,N,Y,39.5175987,-77.5550905
PAST SALE,October-30-2019,Vacant Land,10631 Easterday Rd,Myersville,MD,21773,169900,,,TOPSY TURVY,,259182,,767,,,Sold,,,https://www.redfin.com/MD/Myersville/10631-Easterday-Rd-21773/home/22634249,BRIGHT MLS,1000101399,N,Y,39.526066,-77.576185
PAST SALE,January-20-2021,Vacant Land,10538 Baltimore National Pike,Myersville,MD,21773,225000,,,Myersville,,226076,,319,,,Sold,,,https://www.redfin.com/MD/Myersville/10538-Baltimore-National-Pike-21773/home/22645624,BRIGHT MLS,MDFR271882,N,Y,39.5211478,-77.5767215
PAST SALE,November-12-2020,Single Family Residential,1008 Hunters Knl,Myersville,MD,21773,620000,5,3.5,SABER RIDGE,5250,,2009,388,118,57,Sold,,,https://www.redfin.com/MD/Myersville/1008-Hunters-Knl-21773/home/22646517,BRIGHT MLS,MDFR271620,N,Y,39.5185504,-77.577121
PAST SALE,April-24-2020,Single Family Residential,1001 Briarfield Ct,Myersville,MD,21773,499000,4,3.5,SABER RIDGE,3758,15026,2016,590,133,57,Sold,,,https://www.redfin.com/MD/Myersville/1001-Briarfield-Ct-21773/home/108435290,BRIGHT MLS,MDFR261026,N,Y,39.5182333,-77.5750426
PAST SALE,October-8-2020,Single Family Residential,1004 Briarfield Ct,Myersville,MD,21773,561000,4,3.5,SABER RIDGE,4210,12005,2016,423,133,57,Sold,,,https://www.redfin.com/MD/Myersville/1004-Briarfield-Ct-21773/home/109903362,BRIGHT MLS,MDFR270242,N,Y,39.5176336,-77.5756697
PAST SALE,July-2-2019,Single Family Residential,1006 Hunters Knl,Myersville,MD,21773,540000,4,4.5,SABER RIDGE,4734,28961,2015,887,114,57,Sold,,,https://www.redfin.com/MD/Myersville/1006-Hunters-Knl-21773/home/61119596,BRIGHT MLS,MDFR234350,N,Y,39.5188579,-77.5776859
PAST SALE,May-31-2019,Single Family Residential,10239 Meadowridge Dr,Myersville,MD,21773,387000,4,2.5,MEADOWRIDGE,2322,15312,1990,919,167,,Sold,,,https://www.redfin.com/MD/Myersville/10239-Meadowridge-Dr-21773/home/15240242,BRIGHT MLS,MDFR246114,N,Y,39.5111451,-77.5721287
PAST SALE,September-12-2019,Single Family Residential,9154 Myersville Rd,Myersville,MD,21773,475000,5,4.0,BIDLE HILL ACRES,5838,52272,2005,815,81,,Sold,,,https://www.redfin.com/MD/Myersville/9154-Myersville-Rd-21773/home/15181658,BRIGHT MLS,MDFR248984,N,Y,39.4810368,-77.549461
PAST SALE,,Single Family Residential,9156 Myersville Rd,Myersville,MD,21773,490000,,3.0,,2904,172062,1977,,169,,,,,https://www.redfin.com/MD/Myersville/9156-Myersville-Rd-21773/home/15181597,,,N,Y,39.4804171,-77.5493807
PAST SALE,July-30-2021,Vacant Land,Delauter,Myersville,MD,21773,215000,,,Myersville,,364597,,128,,,Sold,,,https://www.redfin.com/MD/MYERSVILLE/DELAUTER-RD-21773/home/17480055,BRIGHT MLS,MDFR265510,N,Y,39.551133,-77.512724
PAST SALE,August-23-2019,Single Family Residential,12543-C Brandenburg Holw,Myersville,MD,21773,420000,3,2.0,WOLFSVILLE,1700,78408,2019,835,247,,Sold,,,https://www.redfin.com/MD/Myersville/12543C-Brandenburg-Hollow-Rd-21773/home/177213076,BRIGHT MLS,MDFR246982,N,Y,39.5782231,-77.5482734
PAST SALE,October-2-2019,Vacant Land,11626 Meeting House Rd,Myersville,MD,21773,135000,,,FOX RUN WOODS,,223898,,795,,,Sold,,,https://www.redfin.com/MD/Myersville/11626-Meeting-House-Rd-21773/home/17480659,BRIGHT MLS,1001183612,N,Y,39.554304,-77.542292
PAST SALE,April-10-2019,Single Family Residential,3202-C Ward Kline Rd,Myersville,MD,21773,465000,2,1.0,MYERSVILLE,1477,1457082,1960,970,315,,Sold,,,https://www.redfin.com/MD/Myersville/3202C-Ward-Kline-Rd-21773/home/160603893,BRIGHT MLS,1000102035,N,Y,39.5327248,-77.5612712
PAST SALE,September-18-2020,Single Family Residential,9545 Harmony Rd,Myersville,MD,21773,330000,3,2.5,Myersville,2144,459558,1890,443,154,,Sold,,,https://www.redfin.com/MD/Myersville/9545-Harmony-Rd-21773/home/172547246,BRIGHT MLS,MDFR267060,N,Y,39.4945995,-77.5292708
PAST SALE,July-18-2020,Single Family Residential,4207-C Coxey Brown Rd,Myersville,MD,21773,475000,3,3.0,MYERSVILLE,1560,248728,1989,505,304,,Sold,,,https://www.redfin.com/MD/Myersville/4207C-Coxey-Brown-Rd-21773/home/160602782,BRIGHT MLS,MDFR260350,N,Y,39.4973787,-77.5204611
PAST SALE,March-17-2020,Single Family Residential,2756 Flintridge Dr,Myersville,MD,21773,407000,4,3.5,MEADOWRIDGE,2746,23931,1990,628,148,,Sold,,,https://www.redfin.com/MD/Myersville/2756-Flintridge-Dr-21773/home/15240479,BRIGHT MLS,MDFR258458,N,Y,39.5105508,-77.5728899
PAST SALE,April-30-2020,Single Family Residential,13097 Murdock Mountain Ln,Myersville,MD,21773,497000,3,2.5,Myersville,3076,561488,1987,584,162,,Sold,,,https://www.redfin.com/MD/Myersville/13097-Murdock-Mountain-Ln-21773/home/15197992,BRIGHT MLS,MDFR261876,N,Y,39.5892837,-77.5137988
PAST SALE,October-25-2019,Single Family Residential,2219 Blacks Glen Ct,Myersville,MD,21773,325000,4,2.0,Myersville,2804,542758,1970,772,116,,Sold,,,https://www.redfin.com/MD/16-Jackson/2219-Blacks-Glen-Ct-21773/home/168641109,BRIGHT MLS,MDFR251444,N,Y,39.51508669,-77.59067587
PAST SALE,February-13-2020,Single Family Residential,4742 Coxey Brown Rd,Frederick,MD,21702,335000,4,2.5,Frederick,1152,131987,1989,661,291,,Sold,,,https://www.redfin.com/MD/Frederick/4742-Coxey-Brown-Rd-21702/home/15240282,BRIGHT MLS,MDFR258072,N,Y,39.5046302,-77.5043637
PAST SALE,,Single Family Residential,12242 Pleasant Walk Rd,Myersville,MD,21773,130000,,1.0,,1750,2529965,1900,,74,,,,,https://www.redfin.com/MD/Myersville/12242-Pleasant-Walk-Rd-21773/home/113495683,,,N,Y,39.5698091,-77.5636354
PAST SALE,July-15-2021,Vacant Land,12548 Brandenburg Hollow Rd,Myersville,MD,21773,156900,,,Myersville,,625957,,143,,,Sold,,,https://www.redfin.com/MD/Myersville/12548-Brandenburg-Hollow-Rd-21773/home/15198361,BRIGHT MLS,MDFR259670,N,Y,39.579606,-77.5453586
PAST SALE,,Single Family Residential,11335 Highland School Rd Unit A,Myersville,MD,21773,220000,,1.0,,1248,46174,1977,,176,,,,,https://www.redfin.com/MD/Myersville/11335-Highland-School-Rd-21773/unit-A/home/15198501,,,N,Y,39.54482,-77.523828
PAST SALE,July-10-2020,Single Family Residential,9811 Mount Tabor Rd,Myersville,MD,21773,384000,5,2.0,Myersville,3095,811958,1910,513,124,,Sold,,,https://www.redfin.com/MD/Myersville/9811-Mt-Tabor-Rd-21773/home/15240681,BRIGHT MLS,MDFR263402,N,Y,39.502755,-77.585449
PAST SALE,December-12-2019,Single Family Residential,10711 Easterday Rd,Myersville,MD,21773,1450000,6,6.5,THICK OR THIN FARM,5958,1806433,2004,724,243,,Sold,,,https://www.redfin.com/MD/Myersville/10711-Easterday-Rd-21773/home/21637134,BRIGHT MLS,MDFR244270,N,Y,39.527643,-77.569942
PAST SALE,November-15-2019,Single Family Residential,3410 Brethren Church Rd,Myersville,MD,21773,275000,2,1.0,Myersville,1488,89734,1790,751,185,,Sold,,,https://www.redfin.com/MD/Myersville/3410-Brethren-Church-Rd-21773/home/15240740,BRIGHT MLS,MDFR245434,N,Y,39.5015238,-77.5521013
PAST SALE,January-29-2021,Vacant Land,Lot 4 Harp Hill Rd,Myersville,MD,21773,155000,,,Myersville,,77101,,310,,,Sold,,,https://www.redfin.com/MD/6-Catoctin/Lot-4-Harp-Hill-Rd-21773/home/173842817,BRIGHT MLS,MDFR274826,N,Y,39.57028478,-77.55080552
PAST SALE,September-11-2020,Single Family Residential,62 Ashley Way,Myersville,MD,21773,400000,4,2.5,ASHLEY,1830,15052,1994,450,219,23,Sold,,,https://www.redfin.com/MD/Myersville/62-Ashley-Way-21773/home/15239687,BRIGHT MLS,MDFR266356,N,Y,39.5014661,-77.5606657
PAST SALE,December-28-2020,Single Family Residential,1007 Briarfield Ct,Myersville,MD,21773,469000,4,2.5,SABER RIDGE,2232,16250,2010,342,210,57,Sold,,,https://www.redfin.com/MD/Myersville/1007-Briarfield-Ct-21773/home/22634244,BRIGHT MLS,MDFR274470,N,Y,39.5175842,-77.5749943
PAST SALE,October-23-2020,Single Family Residential,716 Rocky Fountain Dr,Myersville,MD,21773,430000,4,3.5,CANADA HILL,2195,16594,2000,408,196,,Sold,,,https://www.redfin.com/MD/Myersville/716-Rocky-Fountain-Dr-21773/home/15239409,BRIGHT MLS,MDFR271362,N,Y,39.5147694,-77.5695765
PAST SALE,June-30-2020,Single Family Residential,4 Monument Rd,Myersville,MD,21773,315000,4,1.0,MYERSVILLE,1832,21780,1948,523,172,,Sold,,,https://www.redfin.com/MD/Myersville/4-Monument-Rd-21773/home/15241138,BRIGHT MLS,MDFR264302,N,Y,39.5056692,-77.5681807
PAST SALE,March-31-2020,Single Family Residential,45 Fox Rock Dr,Myersville,MD,21773,402500,4,2.5,ASHLEY,2102,17981,1993,614,191,20,Sold,,,https://www.redfin.com/MD/Myersville/45-Fox-Rock-Dr-21773/home/15240070,BRIGHT MLS,MDFR259466,N,Y,39.5032959,-77.5628599
PAST SALE,,Single Family Residential,2812B Monument Rd Unit B,Myersville,MD,21773,435000,,2.0,,2680,124146,1979,,162,,,,,https://www.redfin.com/MD/Myersville/2812B-Monument-Rd-21773/unit-B/home/15239605,,,N,Y,39.5074039,-77.5712108
PAST SALE,November-20-2020,Vacant Land,Hayes Rd,Myersville,MD,21773,185000,,,Myersville,,485694,,380,,,Sold,,,https://www.redfin.com/MD/MYERSVILLE/HAYES-RD-21773/home/17480785,BRIGHT MLS,MDFR272032,N,Y,39.586951,-77.544199
PAST SALE,December-6-2019,Vacant Land,11607 Harp Hill Rd,Myersville,MD,21773,130500,,,Myersville,,96703,,730,,,Sold,,,https://www.redfin.com/MD/Myersville/11607-Harp-Hill-Rd-21773/home/17479228,BRIGHT MLS,MDFR255862,N,Y,39.5506642,-77.5487471
PAST SALE,August-21-2019,Single Family Residential,4724 Fishers Hollow Rd,Myersville,MD,21773,325000,4,2.0,Myersville,2060,138956,1973,837,158,,Sold,,,https://www.redfin.com/MD/Myersville/4724-Fishers-Hollow-Rd-21773/home/14741225,BRIGHT MLS,MDFR249218,N,Y,39.5121338,-77.5122485
PAST SALE,,Single Family Residential,3920 Brethren Church Rd,Myersville,MD,21773,1050000,,2.0,,4036,6524417,1900,,260,,,,,https://www.redfin.com/MD/Myersville/3920-Brethren-Church-Rd-21773/home/44636277,,,N,Y,39.499756,-77.5373819
PAST SALE,March-29-2019,Single Family Residential,4522 Coxey Brown Rd,Myersville,MD,21773,825000,5,4.5,CHARLES BRYD FARM,5198,1154340,2005,982,159,,Sold,,,https://www.redfin.com/MD/Myersville/4522-Coxey-Brown-Rd-21773/home/44636287,BRIGHT MLS,1002193430,N,Y,39.501966,-77.511024
PAST SALE,,Single Family Residential,2736 Flintridge Dr,Myersville,MD,21773,399000,,2.5,,3284,15214,1996,,121,,,,,https://www.redfin.com/MD/Myersville/2736-Flintridge-Dr-21773/home/15240112,,,N,Y,39.5124355,-77.5737959
PAST SALE,May-28-2020,Single Family Residential,9835 Mount Tabor,Myersville,MD,21773,259700,4,2.0,QUAIL RUN FARM,1302,48352,1978,556,199,,Sold,,,https://www.redfin.com/MD/Myersville/9835-Mt-Tabor-Rd-21773/home/15240013,BRIGHT MLS,MDFR262978,N,Y,39.5027865,-77.5835458
PAST SALE,,Other,12509 Stottlemyer Rd,Myersville,MD,21773,150000,,,,,784516,,,,,,,,https://www.redfin.com/MD/Myersville/12509-Stottlemyer-Rd-21773/home/17480477,,,N,Y,39.574357,-77.543302
PAST SALE,January-17-2020,Single Family Residential,3307 Brethren Church Rd,Myersville,MD,21773,349900,4,2.0,MYERSVILLE,2778,52272,1964,688,126,,Sold,,,https://www.redfin.com/MD/Myersville/3307-Brethren-Church-Rd-21773/home/15239476,BRIGHT MLS,MDFR251150,N,Y,39.5022609,-77.5558742
PAST SALE,February-27-2019,Vacant Land,10416 Church Hill Rd,Myersville,MD,21773,208000,,,JOHNSON'S HILLTOP,,250906,,1012,,,Sold,,,https://www.redfin.com/MD/Myersville/10416-Church-Hill-Rd-21773/home/40018694,BRIGHT MLS,1000116192,N,Y,39.5206105,-77.5550217
PAST SALE,April-4-2019,Single Family Residential,23 Fox Rock Dr,Myersville,MD,21773,289890,4,2.0,MYERSVILLE,1820,19602,1964,976,159,,Sold,,,https://www.redfin.com/MD/Myersville/23-Fox-Rock-Dr-21773/home/15239977,BRIGHT MLS,MDFR167010,N,Y,39.5029605,-77.5652779
PAST SALE,August-23-2019,Single Family Residential,37 Ashley Way,Myersville,MD,21773,375000,4,2.5,ASHLEY,2335,15000,1990,835,161,20,Sold,,,https://www.redfin.com/MD/Myersville/37-Ashley-Way-21773/home/15240177,BRIGHT MLS,MDFR249994,N,Y,39.5021035,-77.5639793
PAST SALE,November-12-2021,Single Family Residential,12745 Spruce Run Rd,Myersville,MD,21773,500000,3,1.0,Myersville,1476,955270,1880,23,339,,Sold,,,https://www.redfin.com/MD/Myersville/12745-Spruce-Run-Rd-21773/home/143712413,BRIGHT MLS,MDFR2006048,N,Y,39.582461,-77.5232125
PAST SALE,May-29-2020,Vacant Land,Dog Rd,Myersville,MD,21773,310000,,,Myersville,,2240291,,555,,,Sold,,,https://www.redfin.com/MD/6-Catoctin/Dog-Rd-21773/home/169037854,BRIGHT MLS,1000101949,N,Y,39.56837,-77.57129
PAST SALE,,Single Family Residential,2710 Monument Rd Unit A,Myersville,MD,21773,460000,,2.5,,2316,217800,1972,,199,,,,,https://www.redfin.com/MD/Myersville/2710-Monument-Rd-21773/unit-A/home/15187687,,,N,Y,39.511724,-77.576509
PAST SALE,May-4-2020,Single Family Residential,10703 -7 Easterday Rd,Myersville,MD,21773,1000000,7,5.0,THICK OR THIN FARM,7103,1119928,2009,580,141,,Sold,,,https://www.redfin.com/MD/Myersville/10703-Easterday-Rd-21773/home/143662612,BRIGHT MLS,MDFR261410,N,Y,39.526927,-77.572986
PAST SALE,,Other,10134 Baltimore National Pike,Myersville,MD,21773,81000,,,,,239580,,,,,,,,https://www.redfin.com/MD/Myersville/10134-Baltimore-National-Pike-21773/home/22639572,,,N,Y,39.5134341,-77.5611637
PAST SALE,August-28-2020,Vacant Land,Mount Tabor Rd Unit PARCEL B,Myersville,MD,21773,135000,,,Myersville,,391604,,464,,,Sold,,,https://www.redfin.com/MD/Myersville/Mount-Tabor-Rd-Unknown/unit-PARCEL-B/home/169237268,BRIGHT MLS,MDFR254246,N,Y,39.50536281,-77.58522307
PAST SALE,March-13-2019,Vacant Land,Wildcat Rd,Myersville,MD,21773,15000,,,Myersville,,167270,,998,,,Sold,,,https://www.redfin.com/MD/6-Catoctin/Wildcat-Rd-21773/home/49729361,BRIGHT MLS,MDFR222924,N,Y,39.57064192,-77.54008738
PAST SALE,July-17-2020,Single Family Residential,12721 Loy Wolfe,Myersville,MD,21773,396000,3,2.5,HARSHMAN ESTATES,2220,46609,2020,506,178,,Sold,,,https://www.redfin.com/MD/Myersville/12721-Loy-Wolfe-Rd-21773/home/144250300,BRIGHT MLS,MDFR264492,N,Y,39.582838,-77.5717514
PAST SALE,July-24-2021,Vacant Land,12117 Pleasant Walk Rd,Myersville,MD,21773,300000,,,Myersville,,346302,,134,,,Sold,,,https://www.redfin.com/MD/Myersville/12117-Pleasant-Walk-Rd-21773/home/52919146,BRIGHT MLS,MDFR2002648,N,Y,39.5625557,-77.5652724
PAST SALE,September-28-2020,Single Family Residential,10949 Pleasant Walk Rd,Myersville,MD,21773,515000,4,3.5,Myersville,3603,220849,1994,433,143,,Sold,,,https://www.redfin.com/MD/Myersville/10949-Pleasant-Walk-Rd-21773/home/15240301,BRIGHT MLS,MDFR268454,N,Y,39.5337463,-77.5927234
PAST SALE,October-1-2020,Single Family Residential,10006 Wolfsville,Myersville,MD,21773,1450000,4,3.5,MYERSVILLE,4520,1979366,1997,430,321,,Sold,,,https://www.redfin.com/MD/Myersville/10006-Wolfsville-Rd-21773/home/172392388,BRIGHT MLS,MDFR266946,N,Y,39.513612,-77.55851
PAST SALE,April-30-2019,Single Family Residential,12125 Loy Wolfe Rd,Myersville,MD,21773,165000,3,2.0,Myersville,1248,22651,2003,950,132,,Sold,,,https://www.redfin.com/MD/Myersville/12125-Loy-Wolfe-Rd-21773/home/15198409,BRIGHT MLS,MDFR233762,N,Y,39.5663843,-77.5780949
PAST SALE,September-8-2020,Single Family Residential,11028 Pleasant Walk Rd,Myersville,MD,21773,430360,3,2.0,FAIRMONT,1232,498326,1988,453,349,,Sold,,,https://www.redfin.com/MD/Myersville/11028-Pleasant-Walk-Rd-21773/home/15240298,BRIGHT MLS,MDFR268510,N,Y,39.5364768,-77.5911118
PAST SALE,July-23-2021,Single Family Residential,10211 Baltimore National Pike,Myersville,MD,21773,510000,2,2.0,Myersville,1920,291416,1986,135,266,,Sold,,,https://www.redfin.com/MD/Myersville/10211-Baltimore-National-Pike-21773/home/175090504,BRIGHT MLS,MDFR283100,N,Y,39.5168171,-77.5701388
PAST SALE,,Single Family Residential,11703 Woodland Way Rd,Myersville,MD,21773,147500,,4.5,,3822,112385,2019,,39,,,,,https://www.redfin.com/MD/Myersville/11703-Woodland-Way-Rd-21773/home/144921659,,,N,Y,39.5525469,-77.5568455
PAST SALE,April-12-2019,Single Family Residential,12442 Wolfsville Rd,Myersville,MD,21773,200000,3,2.0,Myersville,1412,671695,1900,968,142,,Sold,,,https://www.redfin.com/MD/Myersville/12442-Wolfsville-Rd-21773/home/146082302,BRIGHT MLS,1001910852,N,Y,39.5717349,-77.546949
PAST SALE,November-24-2021,Vacant Land,12417 Pleasant Walk Rd,Myersville,MD,21773,125000,,,Myersville,,47480,,11,,,Sold,,,https://www.redfin.com/MD/Myersville/12417-Pleasant-Walk-Rd-21773/home/22634121,BRIGHT MLS,MDFR2006986,N,Y,39.572164,-77.5531419
PAST SALE,September-10-2020,Vacant Land,3059-3049-3060 Ventrie Ct,Myersville,MD,21773,600000,,,Myersville,,1236232,,451,,,Sold,,,https://www.redfin.com/MD/Myersville/3059-Ventrie-Ct-21773/home/146496562,BRIGHT MLS,1000446720,N,Y,39.4897418,-77.5635864
PAST SALE,October-29-2021,Townhouse,218 Mountain Ter,Myersville,MD,21773,271500,3,2.5,TERRACES AT SOUTH MOUNTAIN,1550,1740,1996,37,175,54,Sold,,,https://www.redfin.com/MD/Myersville/218-Mountain-Ter-21773/home/15239487,BRIGHT MLS,MDFR2001106,N,Y,39.5054304,-77.5696344
PAST SALE,March-16-2020,Single Family Residential,2492 Scravel Rd,Myersville,MD,21773,440000,3,1.5,GARETH FLOOK,2210,314939,2005,629,199,,Sold,,,https://www.redfin.com/MD/Myersville/2492-Scravel-Rd-21773/home/146680382,BRIGHT MLS,MDFR257200,N,Y,39.5409268,-77.5824041
PAST SALE,April-2-2021,Single Family Residential,2317 Michael Rd,Myersville,MD,21773,691000,4,2.5,SQUIRREL WOOD,2552,232610,1987,247,271,,Sold,,,https://www.redfin.com/MD/Myersville/2317-Michael-Rd-21773/home/15240259,BRIGHT MLS,MDFR277676,N,Y,39.5003913,-77.590485
PAST SALE,May-19-2021,Vacant Land,LOTS 246 & 68 Middle Point Rd,Myersville,MD,21773,142500,,,Myersville,,1568160,,200,,,Sold,,,https://www.redfin.com/MD/Myersville/LOTS-246-68-Middlepoint-Rd-21773/home/174761539,BRIGHT MLS,MDFR279430,N,Y,39.56990586,-77.516125
PAST SALE,October-29-2021,Single Family Residential,12121 Pleasant Walk Rd,Myersville,MD,21773,700086,3,2.0,Myersville,1800,588496,2020,37,389,,Sold,,,https://www.redfin.com/MD/Myersville/12121-Pleasant-Walk-Rd-21773/home/52919141,BRIGHT MLS,MDFR272464,N,Y,39.5637449,-77.5635798
PAST SALE,January-31-2019,Single Family Residential,3900 Highland Ave,Myersville,MD,21773,285000,3,3.5,TURKEY HILL ESTATES,2144,27007,1969,1039,133,,Sold,,,https://www.redfin.com/MD/Myersville/3900-Highland-Ave-21773/home/15240721,BRIGHT MLS,1002248728,N,Y,39.5123623,-77.536706
PAST SALE,March-1-2021,Single Family Residential,900 Rocky Fountain Ter,Myersville,MD,21773,515000,4,3.5,CANADA HILL,3698,18109,1999,279,139,,Sold,,,https://www.redfin.com/MD/Myersville/900-Rocky-Fountain-Ter-21773/home/15239881,BRIGHT MLS,MDFR276320,N,Y,39.5149219,-77.5735615
PAST SALE,May-10-2021,Vacant Land,4350 Coxey Brown Rd,Myersville,MD,21773,80000,,,Myersville,,278348,,209,,,Sold,,,https://www.redfin.com/MD/Myersville/4350-Coxey-Brown-Rd-21773/home/164338547,BRIGHT MLS,MDFR244260,N,Y,39.498726,-77.517658
PAST SALE,March-7-2019,Single Family Residential,11208 Wolfsville Rd,Smithsburg,MD,21783,240000,3,2.0,Smithsburg,2156,162479,2007,1004,111,,Sold,,,https://www.redfin.com/MD/Smithsburg/11208-Wolfsville-Rd-21783/home/17431594,BRIGHT MLS,MDWA136864,N,Y,39.6230075,-77.5591214
PAST SALE,August-16-2021,Single Family Residential,13077 Murdock Mountain Ln,Myersville,MD,21773,465000,1,1.0,Myersville,1080,1336420,1997,111,431,,Sold,,,https://www.redfin.com/MD/Myersville/13077-Murdock-Mountain-Ln-21773/home/175582740,BRIGHT MLS,MDFR282624,N,Y,39.5825418,-77.5209175
PAST SALE,July-8-2019,Townhouse,225 Mountain Ter,Myersville,MD,21773,249900,3,2.5,TERRACES AT SOUTH MOUNTAIN,1672,1740,1998,881,149,49,Sold,,,https://www.redfin.com/MD/Myersville/225-Mountain-Ter-21773/home/15240045,BRIGHT MLS,MDFR245326,N,Y,39.5052137,-77.5687985
PAST SALE,July-11-2019,Townhouse,207 Mountain Ter,Myersville,MD,21773,225000,3,3.0,TERRACES AT SOUTH MOUNTAIN,1740,1740,1998,878,129,33,Sold,,,https://www.redfin.com/MD/Myersville/207-Mountain-Ter-21773/home/15239466,BRIGHT MLS,MDFR244996,N,Y,39.5057702,-77.5689682
PAST SALE,June-27-2019,Vacant Land,LOT 8 Loy Wolfe Rd,Smithsburg,MD,21783,41500,,,Smithsburg,,315810,,892,,,Sold,,,https://www.redfin.com/MD/Smithsburg/LOT-8-Loy-Wolfe-Rd-21783/home/173837638,BRIGHT MLS,1001839906,N,Y,39.59456464,-77.57130133
PAST SALE,July-15-2021,Vacant Land,Meeting House Rd,Myersville,MD,21773,157000,,,FOX RUN WOODS,,313196,,143,,,Sold,,,https://www.redfin.com/MD/MYERSVILLE/MEETING-HOUSE-RD-21773/home/17480895,BRIGHT MLS,1001579614,N,Y,39.543403,-77.529437
PAST SALE,April-19-2019,Single Family Residential,11320 Pleasant Walk Rd,Myersville,MD,21773,469890,5,3.5,Myersville,4401,263538,2001,961,107,,Sold,,,https://www.redfin.com/MD/Myersville/11320-Pleasant-Walk-Rd-21773/home/15198692,BRIGHT MLS,MDFR234108,N,Y,39.5445102,-77.5888734
PAST SALE,,Single Family Residential,4709 COXEY BROWN RD,MYERSVILLE,MD,21773,459000,,4.5,,2740,30576,2020,,168,,,,,https://www.redfin.com/MD/MYERSVILLE/4709-COXEY-BROWN-RD-21773/home/109909941,,,N,Y,39.5251,-77.5588
PAST SALE,October-15-2021,Single Family Residential,11428 Wolfsville Rd,Myersville,MD,21773,392000,3,1.0,MEETING HOUSE OVERLOOK,960,221720,1992,51,408,,Sold,,,https://www.redfin.com/MD/Myersville/11428-Wolfsville-Rd-21773/home/175199487,BRIGHT MLS,MDFR282932,N,Y,39.5503841,-77.5255978
PAST SALE,February-5-2021,Single Family Residential,10450 Church Hill Rd,Myersville,MD,21773,1350000,5,3.5,MYERSVILLE,4841,1108166,1998,303,279,,Sold,,,https://www.redfin.com/MD/Myersville/10450-Church-Hill-Rd-21773/home/45501863,BRIGHT MLS,MDFR276384,N,Y,39.5205072,-77.5548649
PAST SALE,,Single Family Residential,2219 Blacks Glen Ct,Myersville,MD,21773,325000,,2.0,,1824,542758,1970,,178,,,,,https://www.redfin.com/MD/Myersville/2219-Blacks-Glen-Ct-21773/home/15240834,,,N,Y,39.520483,-77.591308
PAST SALE,December-2-2019,Single Family Residential,918 Rocky Fountain Ter,Myersville,MD,21773,415000,4,2.5,CANADA HILL,2478,16834,1999,734,167,,Sold,,,https://www.redfin.com/MD/Myersville/918-Rocky-Fountain-Ter-21773/home/15239879,BRIGHT MLS,MDFR254818,N,Y,39.5167086,-77.5749943
PAST SALE,August-6-2019,Single Family Residential,2315 Michael Rd,Myersville,MD,21773,695000,4,2.0,SQUIRREL WOOD,5156,294901,1988,852,135,,Sold,,,https://www.redfin.com/MD/Myersville/2315-Michael-Rd-21773/home/15240277,BRIGHT MLS,MDFR234658,N,Y,39.5005266,-77.5917385
PAST SALE,June-24-2021,Single Family Residential,10243 Rollingridge Ct,Myersville,MD,21773,501000,4,3.0,MEADOWRIDGE,2952,15654,1989,164,170,,Sold,,,https://www.redfin.com/MD/Myersville/10243-Rollingridge-Ct-21773/home/15240211,BRIGHT MLS,MDFR280596,N,Y,39.5112152,-77.5711213
PAST SALE,October-24-2019,Single Family Residential,10727 Easterday Rd,Myersville,MD,21773,855000,6,5.5,TIP AND TY,8967,348044,1998,773,95,,Sold,,,https://www.redfin.com/MD/Myersville/10727-Easterday-Rd-21773/home/15239622,BRIGHT MLS,MDFR190480,N,Y,39.5271351,-77.5783075
PAST SALE,June-29-2020,Single Family Residential,12711 Loy Wolfe,Myersville,MD,21773,426000,3,2.5,HARSHMAN ESTATES,,48787,2020,524,,,Sold,,,https://www.redfin.com/MD/Myersville/12711-Loy-Wolfe-Rd-21773/home/144250301,BRIGHT MLS,MDFR257822,N,Y,39.5823696,-77.571702
PAST SALE,April-15-2021,Vacant Land,12136 Loy Wolfe Rd,Myersville,MD,21773,175000,,,Myersville,,681714,,234,,,Sold,,,https://www.redfin.com/MD/Myersville/12136-Loy-Wolfe-Rd-21773/home/148422319,BRIGHT MLS,MDFR275790,N,Y,39.5671995,-77.5791504
PAST SALE,,Single Family Residential,2736 Canada Hill Rd,Myersville,MD,21773,300000,,1.0,,1464,20037,1965,,205,,,,,https://www.redfin.com/MD/Myersville/2736-Canada-Hill-Rd-21773/home/15239904,,,N,Y,39.5154883,-77.5754868
PAST SALE,July-6-2020,Vacant Land,Spruce Run Rd,Myersville,MD,21773,68000,,,Myersville,,528818,,517,,,Sold,,,https://www.redfin.com/MD/MYERSVILLE/SPRUCE-RUN-RD-21773/home/17480004,BRIGHT MLS,MDFR146996,N,Y,39.593295,-77.520558
PAST SALE,February-14-2020,Single Family Residential,99 Ashley Ct,Myersville,MD,21773,310000,4,2.5,ASHLEY,1848,23903,1996,660,168,20,Sold,,,https://www.redfin.com/MD/Myersville/99-Ashley-Ct-21773/home/15239650,BRIGHT MLS,MDFR252386,N,Y,39.5011384,-77.5569041
PAST SALE,,Other,MONUMENT RD,MIDDLETOWN,MD,21769,145000,,,,,986198,,,,,,,,https://www.redfin.com/MD/MIDDLETOWN/MONUMENT-RD-21769/home/17483624,,,N,Y,39.516373,-77.61368
PAST SALE,April-16-2021,Vacant Land,Wolfsville Rd,Myersville,MD,21773,68500,,,Myersville,,174240,,233,,,Sold,,,https://www.redfin.com/MD/MYERSVILLE/WOLFSVILLE-RD-21773/home/17480054,BRIGHT MLS,MDFR260288,N,Y,39.538951,-77.531613
PAST SALE,June-2-2021,Vacant Land,9110 Myersville Rd,Myersville,MD,21773,157500,,,Myersville,,351965,,186,,,Sold,,,https://www.redfin.com/MD/Myersville/9110-Myersville-Rd-21773/home/17481060,BRIGHT MLS,MDFR276122,N,Y,39.481892,-77.5462641
PAST SALE,,Single Family Residential,2508 Canada Hill Rd,Myersville,MD,21773,416900,,3.5,,2196,31799,2016,,190,,,,,https://www.redfin.com/MD/Myersville/2508-Canada-Hill-Rd-21773/home/15240006,,,N,Y,39.52091,-77.5840383
PAST SALE,April-10-2020,Single Family Residential,8915 Old Harmony Rd,Myersville,MD,21773,395000,4,2.0,Myersville,1696,44431,1973,604,233,,Sold,,,https://www.redfin.com/MD/Myersville/8915-Old-Harmony-Rd-21773/home/15202843,BRIGHT MLS,MDFR260598,N,Y,39.4800638,-77.5466712
PAST SALE,November-27-2019,Single Family Residential,3967 Wistman Ln,Myersville,MD,21773,345000,3,4.0,Myersville,3356,357192,1900,739,103,,Sold,,,https://www.redfin.com/MD/Myersville/3967-Wistman-Ln-21773/home/15240631,BRIGHT MLS,MDFR252690,N,Y,39.5143029,-77.5311553
