SALE TYPE,SOLD DATE,PROPERTY TYPE,ADDRESS,CITY,STATE OR PROVINCE,ZIP OR POSTAL CODE,PRICE,BEDS,BATHS,LOCATION,SQUARE FEET,LOT SIZE,YEAR BUILT,DAYS ON MARKET,$/SQUARE FEET,HOA/MONTH,STATUS,NEXT OPEN HOUSE START TIME,NEXT OPEN HOUSE END TIME,URL (SEE https://www.redfin.com/buy-a-home/comparative-market-analysis FOR INFO ON PRICING),SOURCE,MLS#,FAVORITE,INTERESTED,LATITUDE,LONGITUDE
PAST SALE,June-30-2021,Single Family Residential,9806 Empire Ct,Dunkirk,MD,20754,495000,4,2.5,APPLE GREENE,2964,21997,1982,158,167,,Sold,,,https://www.redfin.com/MD/Dunkirk/9806-Empire-Ct-20754/home/15096092,BRIGHT MLS,MDCA182442,N,Y,38.7127868,-76.649822
PAST SALE,April-25-2019,Single Family Residential,4105 Patuxent Ct,Dunkirk,MD,20754,724000,3,2.5,PATUXENT PALISADES,2350,108900,1964,955,308,,Sold,,,https://www.redfin.com/MD/Dunkirk/4105-Patuxent-Ct-20754/home/15098742,BRIGHT MLS,MDCA164802,N,Y,38.7496847,-76.6841998
PAST SALE,May-17-2021,Single Family Residential,3440 Lancer Ct,Dunkirk,MD,20754,715000,6,3.0,LYONS CREEK OVERLOOK,3966,45302,2002,202,180,23,Sold,,,https://www.redfin.com/MD/Dunkirk/3440-Lancer-Ct-20754/home/15090764,BRIGHT MLS,MDCA181718,N,Y,38.7485485,-76.6703731
PAST SALE,July-19-2019,Single Family Residential,12014 Palisades Dr,Dunkirk,MD,20754,835000,5,5.5,PATUXENT PALISADES,7475,46609,2001,870,112,42,Sold,,,https://www.redfin.com/MD/Dunkirk/12014-Palisades-Dr-20754/home/15096426,BRIGHT MLS,MDCA168518,N,Y,38.746806,-76.6829367
PAST SALE,November-22-2019,Single Family Residential,1427 Knight Ave,Dunkirk,MD,20754,350000,3,1.5,CAVALIER COUNTRY,1446,18037,1971,744,242,,Sold,,,https://www.redfin.com/MD/Dunkirk/1427-Knight-Ave-20754/home/15097123,BRIGHT MLS,MDCA172304,N,Y,38.7497319,-76.6315014
PAST SALE,December-4-2019,Single Family Residential,10619 Fielder Ct,Dunkirk,MD,20754,489900,4,2.5,SMITH'S PURCHASE,2558,49658,1988,732,192,,Sold,,,https://www.redfin.com/MD/Dunkirk/10619-Fielder-Ct-20754/home/15095952,BRIGHT MLS,MDCA172734,N,Y,38.7226613,-76.670531
PAST SALE,October-11-2020,Single Family Residential,11208 Maplewood Dr,Dunkirk,MD,20754,445000,4,3.0,LAKEWOOD,2178,34717,1969,420,204,,Sold,,,https://www.redfin.com/MD/Dunkirk/11208-Maplewood-Dr-20754/home/15099385,BRIGHT MLS,MDCA177868,N,Y,38.7342789,-76.6521232
PAST SALE,May-19-2021,Single Family Residential,12130 Dunleigh Ct,Dunkirk,MD,20754,750000,4,3.5,DUNLEIGH,3826,112820,2000,200,196,17,Sold,,,https://www.redfin.com/MD/Dunkirk/12130-Dunleigh-Ct-20754/home/15094574,BRIGHT MLS,MDCA181518,N,Y,38.7473125,-76.6610792
PAST SALE,May-15-2020,Single Family Residential,10900 Two Sisters Ln,Dunkirk,MD,20754,465000,3,2.5,HICKORY CREEK,2000,57935,2001,569,233,,Sold,,,https://www.redfin.com/MD/Dunkirk/10900-2-Sisters-Ln-20754/home/15093685,BRIGHT MLS,MDCA175606,N,Y,38.7265203,-76.6496866
PAST SALE,August-22-2019,Single Family Residential,12640 Perrywood Ln,Dunkirk,MD,20754,578225,5,4.5,PERRY'S CHOICE,5002,57064,2006,836,116,25,Sold,,,https://www.redfin.com/MD/Dunkirk/12640-Perrywood-Ln-20754/home/15092616,BRIGHT MLS,MDCA171076,N,Y,38.756329,-76.6527097
PAST SALE,June-15-2020,Single Family Residential,300 Greenridge Dr,Dunkirk,MD,20754,470000,4,2.5,BAY COUNTRY,3608,43996,1990,538,130,3,Sold,,,https://www.redfin.com/MD/Dunkirk/300-Greenridge-Dr-20754/home/10468791,BRIGHT MLS,MDAA429702,N,Y,38.7639792,-76.6137198
PAST SALE,July-30-2019,Single Family Residential,3610 Lantern Ct,Dunkirk,MD,20754,649999,4,3.5,LYONS CREEK OVERLOOK,4990,34848,2006,859,130,23,Sold,,,https://www.redfin.com/MD/Dunkirk/3610-Lantern-Ct-20754/home/15090751,BRIGHT MLS,1001745960,N,Y,38.7511987,-76.667576
PAST SALE,May-29-2020,Single Family Residential,286 Jewell Rd,Dunkirk,MD,20754,479000,4,2.5,BAY COUNTRY,2738,43560,1991,555,175,3,Sold,,,https://www.redfin.com/MD/Dunkirk/286-Jewell-Rd-20754/home/10468852,BRIGHT MLS,MDAA430278,N,Y,38.7575742,-76.6132234
MLS Listing,,Single Family Residential,12450 White Oak Ct,Dunkirk,MD,20754,640000,4,3.5,CALVERT ESTS,3033,130680,1986,2,211,13,Active,,,https://www.redfin.com/MD/Dunkirk/12450-White-Oak-Ct-20754/home/15094747,BRIGHT MLS,MDCA2002802,N,Y,38.7536725,-76.6641246
MLS Listing,,Single Family Residential,2950 Cedarwood Ln,Dunkirk,MD,20754,625000,5,3.5,CEDARWOOD,3174,199940,1980,4,197,,Active,,,https://www.redfin.com/MD/Dunkirk/2950-Cedarwood-Ln-20754/home/15097064,BRIGHT MLS,MDCA2002882,N,Y,38.7441646,-76.6552364
MLS Listing,,Single Family Residential,9911 Empire Ct,Dunkirk,MD,20754,425000,4,3.0,APPLE GREENE,2513,19994,1981,4,169,,Active,,,https://www.redfin.com/MD/Dunkirk/9911-Empire-Ct-20754/home/15095184,BRIGHT MLS,MDCA2002696,N,Y,38.7143852,-76.648175
MLS Listing,,Single Family Residential,9903 Mcintosh Dr,Dunkirk,MD,20754,499000,5,3.0,APPLE GREENE,2208,20037,1979,5,226,,Active,December-11-2021 01:00 PM,December-11-2021 03:00 PM,https://www.redfin.com/MD/Dunkirk/9903-Mc-Intosh-Dr-20754/home/15096530,BRIGHT MLS,MDCA2001440,N,Y,38.716004,-76.6522585
MLS Listing,,Vacant Land,2920 Brickhouse Rd,Dunkirk,MD,20754,199000,,,Dunkirk,,64033,,6,,,Active,,,https://www.redfin.com/MD/Dunkirk/2920-Brickhouse-Rd-20754/home/17375397,BRIGHT MLS,MDCA2002886,N,Y,38.736262,-76.656535
MLS Listing,,Single Family Residential,12144 Palisades Dr,Dunkirk,MD,20754,825000,5,3.5,PATUXENT PALISADES,3682,50530,1986,16,224,42,Active,,,https://www.redfin.com/MD/Dunkirk/12144-Palisades-Dr-20754/home/15098740,BRIGHT MLS,MDCA2002770,N,Y,38.7547596,-76.679779
MLS Listing,,Single Family Residential,3909 Lakeside Ct,Dunkirk,MD,20754,575000,3,3.0,SHORES OF CALVERT,2962,29751,1978,16,194,19,Active,,,https://www.redfin.com/MD/Dunkirk/3909-Lakeside-Ct-20754/home/15097419,BRIGHT MLS,MDCA2002570,N,Y,38.7412839,-76.6779294
MLS Listing,,Single Family Residential,10961 Lakeside Dr,Dunkirk,MD,20754,1300000,4,4.0,HICKORY CREEK,3971,1104246,1984,41,327,,Active,,,https://www.redfin.com/MD/Dunkirk/10961-Lakeside-Dr-20754/home/15093573,BRIGHT MLS,MDCA2001516,N,Y,38.7317891,-76.6458964
MLS Listing,,Single Family Residential,12037 Palisades Dr,Dunkirk,MD,20754,714000,6,3.0,PATUXENT PALISADES,3088,55321,1984,52,231,42,Active,,,https://www.redfin.com/MD/Dunkirk/12037-Palisades-Dr-20754/home/15096379,BRIGHT MLS,MDCA2002048,N,Y,38.7489682,-76.6816511
MLS Listing,,Vacant Land,6340 Mckendree Rd,Dunkirk,MD,20754,350000,,,Dunkirk,,142877,,54,,,Active,,,https://www.redfin.com/MD/Dunkirk/6340-McKendree-Rd-20754/home/176715977,BRIGHT MLS,MDAA2000631,N,Y,38.761227,-76.621844
MLS Listing,,Single Family Residential,12120 Palisades Dr,Dunkirk,MD,20754,1399000,6,6.5,PATUXENT PALISADES,6850,248728,2002,60,204,42,Active,,,https://www.redfin.com/MD/Dunkirk/12120-Palisades-Dr-20754/home/15095088,BRIGHT MLS,MDCA2001862,N,Y,38.7536996,-76.6820783
MLS Listing,,Vacant Land,Trott's Promise Phase 2,Dunkirk,MD,20754,695000,,,Dunkirk,,600256,,156,,,Active,,,https://www.redfin.com/MD/Dunkirk/11250-Southern-Maryland-Blvd-20754/home/175592028,BRIGHT MLS,MDCA2000452,N,Y,38.7348725,-76.659313
PAST SALE,November-25-2019,Single Family Residential,3115 Lacrosse Ct,Dunkirk,MD,20754,675000,5,5.5,LYONS CREEK OVERLOOK,5586,38507,2005,741,121,23,Sold,,,https://www.redfin.com/MD/Dunkirk/3115-Lacrosse-Ct-20754/home/15090780,BRIGHT MLS,MDCA172696,N,Y,38.7467239,-76.6643277
PAST SALE,November-4-2021,Single Family Residential,3525 Yellow Bank Rd,Dunkirk,MD,20754,450000,4,2.5,Dunkirk,4828,87120,1971,31,93,,Sold,,,https://www.redfin.com/MD/Dunkirk/3525-Yellow-Bank-Rd-20754/home/15092360,BRIGHT MLS,MDCA2002574,N,Y,38.7293969,-76.6686362
PAST SALE,May-23-2019,Single Family Residential,12780 Lena Ct,Dunkirk,MD,20754,814020,4,3.5,THE LAKES AT TWIN SHIELDS,4334,50530,2019,927,188,54,Sold,,,https://www.redfin.com/MD/Dunkirk/12780-Lena-Ct-20754/home/144375404,BRIGHT MLS,MDCA169778,N,Y,38.7647154,-76.6470696
PAST SALE,October-1-2019,Single Family Residential,12715 Lena Ct,Dunkirk,MD,20754,901342,4,4.5,LAKES AT TWIN SHIELDS,5873,69696,2019,796,153,54,Sold,,,https://www.redfin.com/MD/Dunkirk/12715-Lena-Ct-20754/home/144375387,BRIGHT MLS,MDCA172624,N,Y,38.7616996,-76.643753
PAST SALE,April-3-2020,Single Family Residential,12692 Legacy Dr,Dunkirk,MD,20754,825000,4,3.5,THE LAKES AT TWIN SHIELDS,4398,61420,2018,611,188,54,Sold,,,https://www.redfin.com/MD/Dunkirk/12692-Legacy-Dr-20754/home/144375417,BRIGHT MLS,MDCA174556,N,Y,38.7617669,-76.6469342
PAST SALE,February-7-2020,Single Family Residential,9801 Stayman Ct,Dunkirk,MD,20754,359950,3,2.0,APPLE GREENE,1572,39988,1980,667,229,,Sold,,,https://www.redfin.com/MD/Dunkirk/9801-Stayman-Ct-20754/home/15097183,BRIGHT MLS,MDCA172830,N,Y,38.7126621,-76.6511756
PAST SALE,July-11-2019,Single Family Residential,3728 Yellow Bank Rd,Dunkirk,MD,20754,635000,4,4.0,C O WHITTINGTON JR PROP,4786,50094,2003,878,133,,Sold,,,https://www.redfin.com/MD/Dunkirk/3728-Yellow-Bank-Rd-20754/home/15092954,BRIGHT MLS,MDCA170304,N,Y,38.7287587,-76.6721551
PAST SALE,April-30-2020,Single Family Residential,12046 Palisades Dr,Dunkirk,MD,20754,665000,5,4.0,PATUXENT PALISADES,5246,138085,1982,584,127,42,Sold,,,https://www.redfin.com/MD/Dunkirk/12046-Palisades-Dr-20754/home/15099144,BRIGHT MLS,MDCA174358,N,Y,38.7502004,-76.6837938
PAST SALE,October-2-2020,Single Family Residential,3220 Lacrosse Ct,Dunkirk,MD,20754,720000,4,4.5,LYONS CREEK OVERLOOK,5531,68389,2004,429,130,23,Sold,,,https://www.redfin.com/MD/Dunkirk/3220-Lacrosse-Ct-20754/home/15090774,BRIGHT MLS,MDCA177596,N,Y,38.7506308,-76.664057
PAST SALE,March-25-2021,Single Family Residential,11806 Rivershore Dr,Dunkirk,MD,20754,950000,5,2.5,SHORES OF CALVERT,3462,54886,1850,255,274,17,Sold,,,https://www.redfin.com/MD/Dunkirk/11806-Rivershore-Dr-20754/home/15098221,BRIGHT MLS,MDCA178092,N,Y,38.7400278,-76.6827111
PAST SALE,,Single Family Residential,10100 Kaylorite St,Dunkirk,MD,20754,600000,,4.5,,3566,130680,1992,,168,,,,,https://www.redfin.com/MD/Dunkirk/10100-Kaylorite-St-20754/home/15095684,,,N,Y,38.7186016,-76.6846283
PAST SALE,November-5-2019,Vacant Land,349 Whitetail Dr,Dunkirk,MD,20754,219000,,,DUNKIRK,,226512,,761,,,Sold,,,https://www.redfin.com/MD/Dunkirk/349-Whitetail-Dr-20754/home/108592768,BRIGHT MLS,1000106643,N,Y,38.7618831,-76.6284853
PAST SALE,July-25-2019,Single Family Residential,9710 Smith Way,Dunkirk,MD,20754,515000,4,4.5,SMITHVILLE,3102,111514,1993,864,166,17,Sold,,,https://www.redfin.com/MD/Dunkirk/9710-Smith-Way-20754/home/15094790,BRIGHT MLS,MDCA169764,N,Y,38.7085761,-76.6686813
PAST SALE,July-27-2021,Single Family Residential,6350 Meadowland Dr,Dunkirk,MD,20754,530000,4,3.5,BAY COUNTRY,3320,43560,1986,131,160,3,Sold,,,https://www.redfin.com/MD/Dunkirk/6350-Meadowland-Dr-20754/home/10468850,BRIGHT MLS,MDAA471128,N,Y,38.7581123,-76.6143968
PAST SALE,April-27-2021,Single Family Residential,12025 Palisades Dr,Dunkirk,MD,20754,795000,5,4.0,PATUXENT PALISADES,4215,73181,1980,222,189,42,Sold,,,https://www.redfin.com/MD/Dunkirk/12025-Palisades-Dr-20754/home/15096998,BRIGHT MLS,MDCA181216,N,Y,38.747773,-76.6817413
PAST SALE,August-14-2020,Single Family Residential,3911 Buck Board Ct,Dunkirk,MD,20754,533000,4,2.0,FERRY LANDING WOODS,2747,133294,1978,478,194,,Sold,,,https://www.redfin.com/MD/Dunkirk/3911-Buck-Board-Ct-20754/home/15097758,BRIGHT MLS,MDCA177282,N,Y,38.723732,-76.677953
PAST SALE,July-16-2020,Single Family Residential,10331 Three Doctors Rd,Dunkirk,MD,20754,510000,3,3.0,FERRY LANDING WOODS,3191,137650,1976,507,160,,Sold,,,https://www.redfin.com/MD/Dunkirk/10331-3-Doctors-Rd-20754/home/15097575,BRIGHT MLS,MDCA176702,N,Y,38.7282686,-76.6786963
PAST SALE,,Single Family Residential,6429 Meadowlark Dr,Dunkirk,MD,20754,634500,,2.5,,5116,115870,1996,,124,,,,,https://www.redfin.com/MD/Dunkirk/6429-Meadowlark-Dr-20754/home/10470192,,,N,Y,38.7482705,-76.600066
PAST SALE,,Single Family Residential,6283 McKendree Rd,Dunkirk,MD,20754,450000,,2.5,,2432,352400,1992,,185,,,,,https://www.redfin.com/MD/Dunkirk/6283-McKendree-Rd-20754/home/10468539,,,N,Y,38.7670559,-76.621219
PAST SALE,May-1-2020,Single Family Residential,12192 Cavalier Dr,Dunkirk,MD,20754,303000,3,1.5,CAVALIER COUNTRY,1600,18085,1971,583,189,,Sold,,,https://www.redfin.com/MD/Dunkirk/12192-Cavalier-Dr-20754/home/15098786,BRIGHT MLS,MDCA174648,N,Y,38.7492446,-76.6304184
PAST SALE,,Single Family Residential,1402 Knight Ave,Dunkirk,MD,20754,380000,,2.0,,1844,17538,1972,,206,,,,,https://www.redfin.com/MD/Dunkirk/1402-Knight-Ave-20754/home/15099644,,,N,Y,38.7476253,-76.6289291
PAST SALE,August-4-2021,Single Family Residential,11924 Lyons Glen Ct,Dunkirk,MD,20754,699000,4,3.5,LYONS GLEN,4112,157687,1992,123,170,,Sold,,,https://www.redfin.com/MD/Dunkirk/11924-Lyons-Glen-Ct-20754/home/15091794,BRIGHT MLS,MDCA2000398,N,Y,38.749123,-76.6772528
PAST SALE,November-12-2020,Single Family Residential,3340 Lancer Ct,Dunkirk,MD,20754,700000,4,3.5,LYONS CREEK OVERLOOK,4578,43560,2003,388,153,23,Sold,,,https://www.redfin.com/MD/Dunkirk/3340-Lancer-Ct-20754/home/15090291,BRIGHT MLS,MDCA178924,N,Y,38.7469267,-76.6676436
PAST SALE,April-19-2019,Single Family Residential,12355 Webb Ln,Dunkirk,MD,20754,587000,4,3.5,FIELDS OF DUNKIRK,3484,57064,2016,961,168,,Sold,,,https://www.redfin.com/MD/Dunkirk/12355-Webb-Ln-20754/home/45424513,BRIGHT MLS,1009227028,N,Y,38.7523962,-76.6460304
PAST SALE,June-12-2020,Single Family Residential,255 Jewell Rd,Dunkirk,MD,20754,455000,5,3.0,Dunkirk,2608,87120,1974,541,174,,Sold,,,https://www.redfin.com/MD/Dunkirk/255-Jewell-Rd-20754/home/10467777,BRIGHT MLS,MDAA436584,N,Y,38.7570113,-76.6090709
PAST SALE,September-17-2021,Single Family Residential,11708 Rivershore Dr,Dunkirk,MD,20754,465000,4,3.0,SHORES OF CALVERT,2523,18861,1973,79,184,17,Sold,,,https://www.redfin.com/MD/Dunkirk/11708-Rivershore-Dr-20754/home/15098701,BRIGHT MLS,MDCA2000912,N,Y,38.7390576,-76.6777941
PAST SALE,,Single Family Residential,9906 Mc Intosh Dr,Dunkirk,MD,20754,415000,,3.0,,2758,22167,1978,,150,,,,,https://www.redfin.com/MD/Dunkirk/9906-Mc-Intosh-Dr-20754/home/15095236,,,N,Y,38.7167903,-76.6528
PAST SALE,January-21-2019,Single Family Residential,6315 Woodcrest Dr,Dunkirk,MD,20754,451000,4,3.5,BAY COUNTRY,3147,44867,1988,1049,143,3,Sold,,,https://www.redfin.com/MD/Dunkirk/6315-Woodcrest-Dr-20754/home/10468773,BRIGHT MLS,1009921228,N,Y,38.7631212,-76.6097931
PAST SALE,June-15-2020,Single Family Residential,272 Jewell Rd,Dunkirk,MD,20754,430000,4,2.5,BAY COUNTRY,3036,43560,1987,538,142,3,Sold,,,https://www.redfin.com/MD/Dunkirk/272-Jewell-Rd-20754/home/10468749,BRIGHT MLS,MDAA430116,N,Y,38.7580245,-76.6098382
PAST SALE,September-15-2020,Single Family Residential,280 Greenridge Dr,Dunkirk,MD,20754,510000,4,2.5,BAY COUNTRY,2434,43560,1989,446,210,3,Sold,,,https://www.redfin.com/MD/Dunkirk/280-Greenridge-Dr-20754/home/10468796,BRIGHT MLS,MDAA441272,N,Y,38.7632839,-76.6117114
PAST SALE,February-10-2021,Single Family Residential,278 Southdale Ct,Dunkirk,MD,20754,500000,3,2.5,BAY COUNTRY,2103,44867,1983,298,238,3,Sold,,,https://www.redfin.com/MD/Dunkirk/278-Southdale-Ct-20754/home/10468845,BRIGHT MLS,MDAA455524,N,Y,38.7586835,-76.6151641
PAST SALE,April-26-2019,Single Family Residential,6353 Audubon Ct,Dunkirk,MD,20754,434900,5,3.5,BAY COUNTRY,3213,50094,1987,954,135,3,Sold,,,https://www.redfin.com/MD/Dunkirk/6353-Audubon-Ct-20754/home/10468868,BRIGHT MLS,1000411484,N,Y,38.7571202,-76.6158863
PAST SALE,August-17-2020,Single Family Residential,283 Mckendree Ct,Dunkirk,MD,20754,518000,4,3.5,BAY COUNTRY,2852,54014,1981,475,182,3,Sold,,,https://www.redfin.com/MD/Dunkirk/283-McKendree-Ct-20754/home/10468879,BRIGHT MLS,MDAA436836,N,Y,38.7586679,-76.6181429
PAST SALE,May-15-2019,Vacant Land,10520 Ward Rd,Dunkirk,MD,20754,195000,,,Dunkirk,,185566,,935,,,Sold,,,https://www.redfin.com/MD/Dunkirk/10520-Ward-Rd-20754/home/15100457,BRIGHT MLS,1004259449,N,Y,38.7234577,-76.6408151
PAST SALE,October-16-2020,Single Family Residential,41 Jewell Rd,Dunkirk,MD,20754,370000,3,1.5,M S PROUT PROPERTY,1814,294466,1991,415,204,,Sold,,,https://www.redfin.com/MD/Dunkirk/41-Jewell-Rd-20754/home/10469880,BRIGHT MLS,MDAA408872,N,Y,38.7504821,-76.5956899
PAST SALE,,Single Family Residential,1434 Knight Ave,Dunkirk,MD,20754,380000,,1.5,,1844,18080,1971,,206,,,,,https://www.redfin.com/MD/Dunkirk/1434-Knight-Ave-20754/home/15098802,,,N,Y,38.7486747,-76.633126
PAST SALE,July-7-2020,Single Family Residential,11025 Judith Ln,Dunkirk,MD,20754,780000,5,4.5,Dunkirk,5663,144184,2001,516,138,,Sold,,,https://www.redfin.com/MD/Dunkirk/11025-Judith-Ln-20754/home/15093825,BRIGHT MLS,MDCA176544,N,Y,38.731547,-76.668749
PAST SALE,October-2-2020,Single Family Residential,6439 Meadowlark Dr,Dunkirk,MD,20754,649950,5,3.5,TALL OAKS,3888,73181,1992,429,167,16,Sold,,,https://www.redfin.com/MD/Dunkirk/6439-Meadowlark-Dr-20754/home/10470177,BRIGHT MLS,MDAA443360,N,Y,38.746323,-76.6018039
PAST SALE,May-21-2021,Single Family Residential,6417 Woodside View Dr,Dunkirk,MD,20754,640000,4,3.5,TALL OAKS,3249,87120,1998,198,197,16,Sold,,,https://www.redfin.com/MD/Dunkirk/6417-Woodside-View-Dr-20754/home/10470214,BRIGHT MLS,MDAA461960,N,Y,38.7465178,-76.6086647
PAST SALE,September-15-2020,Single Family Residential,473 Avon Ct,Friendship,MD,20758,600000,6,3.5,WOODSIDE VIEW,5564,130680,1989,446,108,,Sold,,,https://www.redfin.com/MD/Friendship/473-Avon-Ct-20758/home/10470400,BRIGHT MLS,MDAA441950,N,Y,38.747383,-76.614537
PAST SALE,,Single Family Residential,3145 Pop Trott Rd,Dunkirk,MD,20754,165000,,1.0,,1104,43560,1971,,149,,,,,https://www.redfin.com/MD/Dunkirk/3145-Pop-Trott-Rd-20754/home/15099761,,,N,Y,38.7361047,-76.6624803
PAST SALE,December-5-2019,Single Family Residential,3920 Lyons Creek Rd,Dunkirk,MD,20754,382000,3,3.0,Dunkirk,2732,43560,1972,731,140,,Sold,,,https://www.redfin.com/MD/Dunkirk/3920-Lyons-Creek-Rd-20754/home/15099732,BRIGHT MLS,MDCA171854,N,Y,38.7452039,-76.6770723
PAST SALE,,Single Family Residential,11530 Southern Maryland Blvd,Dunkirk,MD,20754,130000,,3.5,,3096,95832,2020,,42,,,,,https://www.redfin.com/MD/Dunkirk/11530-Southern-Maryland-Blvd-20754/home/15099496,,,N,Y,38.73923,-76.661174
PAST SALE,December-21-2020,Single Family Residential,1950 Haven Ln,Dunkirk,MD,20754,432250,4,3.0,DUNKIRK FIELDS,2240,153331,1975,349,193,,Sold,,,https://www.redfin.com/MD/Dunkirk/1950-Haven-Ln-20754/home/15099430,BRIGHT MLS,MDCA179688,N,Y,38.7204625,-76.6390375
PAST SALE,July-22-2019,Single Family Residential,1243 Prince St,Dunkirk,MD,20754,355000,4,2.0,CAVALIER COUNTRY,1844,17871,1972,867,193,,Sold,,,https://www.redfin.com/MD/Dunkirk/1243-Prince-St-20754/home/15100251,BRIGHT MLS,MDCA169108,N,Y,38.7475658,-76.6301476
PAST SALE,January-4-2019,Single Family Residential,4020 Chaney Cove Ct,Dunkirk,MD,20754,830000,5,4.5,FERRY LANDING WOODS,8236,171191,2006,1066,101,4,Sold,,,https://www.redfin.com/MD/Dunkirk/4020-Chaney-Cove-Ct-20754/home/15100259,BRIGHT MLS,1000434374,N,Y,38.7197885,-76.6823728
PAST SALE,,Single Family Residential,12166 Cavalier Dr,Dunkirk,MD,20754,345000,,2.5,,1844,22752,1971,,187,,,,,https://www.redfin.com/MD/Dunkirk/12166-Cavalier-Dr-20754/home/15099798,,,N,Y,38.7460838,-76.6333065
PAST SALE,April-30-2020,Single Family Residential,12198 Cavalier Dr,Dunkirk,MD,20754,339000,3,2.0,CAVALIER COUNTRY,1734,18016,1971,584,196,,Sold,,,https://www.redfin.com/MD/Dunkirk/12198-Cavalier-Dr-20754/home/15100248,BRIGHT MLS,MDCA174090,N,Y,38.7503191,-76.6303281
PAST SALE,May-31-2019,Single Family Residential,1702 Cavalier Ter,Dunkirk,MD,20754,360000,4,2.0,CAVALIER COUNTRY,1844,88772,1972,919,195,,Sold,,,https://www.redfin.com/MD/Dunkirk/1702-Cavalier-Ter-20754/home/15100246,BRIGHT MLS,MDCA168678,N,Y,38.7464978,-76.6337578
PAST SALE,January-11-2019,Single Family Residential,1310 Squire Ln,Dunkirk,MD,20754,215000,5,2.0,CAVALIER COUNTRY,1028,20010,1972,1059,209,,Sold,,,https://www.redfin.com/MD/Dunkirk/1310-Squire-Ln-20754/home/15098798,BRIGHT MLS,1002499650,N,Y,38.7485426,-76.627485
PAST SALE,September-9-2020,Single Family Residential,11951 Prince Ct,Dunkirk,MD,20754,355000,4,2.0,CAVALIER COUNTRY,1508,17888,1972,452,235,,Sold,,,https://www.redfin.com/MD/Dunkirk/11951-Prince-Ct-20754/home/15099249,BRIGHT MLS,MDCA176120,N,Y,38.7466206,-76.6299671
PAST SALE,April-6-2020,Single Family Residential,11904 Crown Dr,Dunkirk,MD,20754,345000,3,2.5,REGAL ESTS,1742,43560,1978,608,198,,Sold,,,https://www.redfin.com/MD/Dunkirk/11904-Crown-Dr-20754/home/15096851,BRIGHT MLS,MDCA174658,N,Y,38.744136,-76.668185
PAST SALE,July-29-2020,Single Family Residential,12195 Cavalier Dr,Dunkirk,MD,20754,345000,3,2.5,CAVALIER COUNTRY,1781,17521,1972,494,194,,Sold,,,https://www.redfin.com/MD/Dunkirk/12195-Cavalier-Dr-20754/home/15097110,BRIGHT MLS,MDCA174634,N,Y,38.7497234,-76.6296963
PAST SALE,March-22-2021,Single Family Residential,3503 King Dr,Dunkirk,MD,20754,335000,3,2.5,REGAL ESTS,1318,43560,1973,258,254,,Sold,,,https://www.redfin.com/MD/Dunkirk/3503-King-Dr-20754/home/15099785,BRIGHT MLS,MDCA180928,N,Y,38.742582,-76.6724709
PAST SALE,April-17-2020,Single Family Residential,11706 Rivershore Dr,Dunkirk,MD,20754,475000,4,3.0,SHORES OF CALVERT,2356,20995,1973,597,202,17,Sold,,,https://www.redfin.com/MD/Dunkirk/11706-Rivershore-Dr-20754/home/15099478,BRIGHT MLS,MDCA175234,N,Y,38.7387152,-76.6776137
PAST SALE,August-28-2019,Single Family Residential,9865 Howes Rd,Dunkirk,MD,20754,447000,5,3.5,SMITHVILLE,3294,43560,1990,830,136,17,Sold,,,https://www.redfin.com/MD/Dunkirk/9865-Howes-Rd-20754/home/15093009,BRIGHT MLS,MDCA169806,N,Y,38.711476,-76.6722002
PAST SALE,August-16-2019,Single Family Residential,3912 Lakeside Ct,Dunkirk,MD,20754,525500,5,4.0,SHORES OF CALVERT,3730,28401,1974,842,141,18,Sold,,,https://www.redfin.com/MD/Dunkirk/3912-Lakeside-Ct-20754/home/15099442,BRIGHT MLS,MDCA170290,N,Y,38.7400665,-76.6769595
PAST SALE,,Single Family Residential,3960 Lyons Creek Rd,Dunkirk,MD,20754,400000,,2.0,,2312,43560,1980,,173,,,,,https://www.redfin.com/MD/Dunkirk/3960-Lyons-Creek-Rd-20754/home/15095213,,,N,Y,38.7451683,-76.678155
PAST SALE,August-31-2020,Single Family Residential,11500 Cedar Run Ln,Owings,MD,20736,1040000,5,5.0,Owings,11371,317552,1977,461,91,,Sold,,,https://www.redfin.com/MD/Owings/11500-Cedar-Run-Ln-20736/home/15098054,BRIGHT MLS,MDCA176176,N,Y,38.7414573,-76.6327424
PAST SALE,July-16-2021,Single Family Residential,10231 Three Doctors Rd,Dunkirk,MD,20754,610000,3,2.5,FERRY LANDING WOODS,2856,155509,1976,142,214,,Sold,,,https://www.redfin.com/MD/Dunkirk/10231-3-Doctors-Rd-20754/home/15098653,BRIGHT MLS,MDCA183060,N,Y,38.7222771,-76.6807714
PAST SALE,May-24-2019,Single Family Residential,4011 Chaney Cove Ct,Dunkirk,MD,20754,510000,4,3.5,FERRY LANDING WOODS,3009,130680,1977,926,169,,Sold,,,https://www.redfin.com/MD/Dunkirk/4011-Chaney-Cove-Ct-20754/home/15098038,BRIGHT MLS,MDCA165094,N,Y,38.7203871,-76.6812902
PAST SALE,August-16-2019,Single Family Residential,10400 Three Doctors Rd,Dunkirk,MD,20754,539000,5,2.5,FERRY LANDING WOODS,3608,136778,1976,842,149,,Sold,,,https://www.redfin.com/MD/Dunkirk/10400-3-Doctors-Rd-20754/home/15097572,BRIGHT MLS,MDCA168326,N,Y,38.728026,-76.6807714
PAST SALE,,Single Family Residential,10261 3 Doctors Rd,Dunkirk,MD,20754,425000,,3.0,,2762,141134,1978,,154,,,,,https://www.redfin.com/MD/Dunkirk/10261-3-Doctors-Rd-20754/home/15097535,,,N,Y,38.7239902,-76.6806361
PAST SALE,March-21-2019,Single Family Residential,2750 Jones Rd,Dunkirk,MD,20754,420000,3,2.0,HALL'S HILLS,2590,74923,1977,990,162,,Sold,,,https://www.redfin.com/MD/Dunkirk/2750-Jones-Rd-20754/home/15097718,BRIGHT MLS,MDCA164692,N,Y,38.7087637,-76.658485
PAST SALE,December-17-2018,Single Family Residential,11635 Rivershore Dr,Dunkirk,MD,20754,330000,3,2.0,SHORES OF CALVERT,1761,39247,1977,1084,187,18,Sold,,,https://www.redfin.com/MD/Dunkirk/11635-Rivershore-Dr-20754/home/15097723,BRIGHT MLS,1001900298,N,Y,38.7378488,-76.6770723
PAST SALE,January-18-2019,Single Family Residential,10311 Deer Trail Dr,Dunkirk,MD,20754,446000,4,2.5,FERRY LANDING WOODS,2826,130680,1978,1052,158,4,Sold,,,https://www.redfin.com/MD/Dunkirk/10311-Deer-Trail-Dr-20754/home/15097737,BRIGHT MLS,MDCA130370,N,Y,38.7242804,-76.6876731
PAST SALE,,Single Family Residential,3415 Ferry Landing Rd,Dunkirk,MD,20754,535000,,3.0,,2027,152024,1977,,264,,,,,https://www.redfin.com/MD/Dunkirk/3415-Ferry-Landing-Rd-20754/home/15097410,,,N,Y,38.7187466,-76.669358
PAST SALE,June-14-2019,Single Family Residential,2601 Winesap Ct,Dunkirk,MD,20754,405000,4,3.0,APPLE GREENE,2982,33118,1976,905,136,,Sold,,,https://www.redfin.com/MD/Dunkirk/2601-Winesap-Ct-20754/home/15095725,BRIGHT MLS,MDCA169070,N,Y,38.7177648,-76.6549657
PAST SALE,July-30-2021,Single Family Residential,4311 Landing Ln,Dunkirk,MD,20754,600100,5,3.0,FERRY LANDING WOODS,3645,132422,1977,128,165,,Sold,,,https://www.redfin.com/MD/Dunkirk/4311-Landing-Ln-20754/home/15097279,BRIGHT MLS,MDCA183584,N,Y,38.7232997,-76.6899736
PAST SALE,December-14-2020,Single Family Residential,9906 Jonathan Dr,Dunkirk,MD,20754,365000,3,2.0,APPLE GREENE,2107,20473,1977,356,173,,Sold,,,https://www.redfin.com/MD/Dunkirk/9906-Jonathan-Dr-20754/home/15095707,BRIGHT MLS,MDCA179506,N,Y,38.7167138,-76.6559583
PAST SALE,May-31-2019,Single Family Residential,10411 Three Doctors Rd,Dunkirk,MD,20754,599900,4,3.0,FERRY LANDING WOODS,3696,220414,1978,919,162,,Sold,,,https://www.redfin.com/MD/Dunkirk/10411-3-Doctors-Rd-20754/home/15095688,BRIGHT MLS,MDCA140508,N,Y,38.7291021,-76.6815608
PAST SALE,May-31-2021,Single Family Residential,2709 Apple Way,Dunkirk,MD,20754,474000,3,3.0,APPLE GREENE,2300,20277,1977,188,206,,Sold,,,https://www.redfin.com/MD/Dunkirk/2709-Apple-Way-20754/home/15095691,BRIGHT MLS,MDCA182058,N,Y,38.7160044,-76.6552139
PAST SALE,June-22-2020,Single Family Residential,9904 Golden Russet Ct,Dunkirk,MD,20754,390000,4,2.5,APPLE GREENE,2248,20037,1977,531,173,,Sold,,,https://www.redfin.com/MD/Dunkirk/9904-Golden-Russet-Ct-20754/home/15097049,BRIGHT MLS,MDCA175512,N,Y,38.7165957,-76.6542438
PAST SALE,November-4-2020,Single Family Residential,10020 Kaylorite St,Dunkirk,MD,20754,605000,4,3.0,FERRY LANDING WOODS,3415,137650,1979,396,177,,Sold,,,https://www.redfin.com/MD/Dunkirk/10020-Kaylorite-St-20754/home/15097032,BRIGHT MLS,MDCA177760,N,Y,38.7162431,-76.6849215
PAST SALE,May-15-2019,Single Family Residential,12700 Springfield Ct,Dunkirk,MD,20754,539000,5,3.5,SPRINGFIELD SUB,3371,168577,1980,935,160,,Sold,,,https://www.redfin.com/MD/Dunkirk/12700-Springfield-Ct-20754/home/15096969,BRIGHT MLS,MDCA164316,N,Y,38.7592023,-76.6629516
PAST SALE,January-15-2019,Single Family Residential,12026 Palisades Dr,Dunkirk,MD,20754,750000,5,4.0,PATUXENT PALISADES,5100,164657,1981,1055,147,42,Sold,,,https://www.redfin.com/MD/Dunkirk/12026-Palisades-Dr-20754/home/15096945,BRIGHT MLS,1009273902,N,Y,38.7478029,-76.684087
PAST SALE,July-5-2019,Single Family Residential,12030 Century Manor Dr,Dunkirk,MD,20754,329900,3,3.0,CENTURY MANOR,1542,43560,1982,884,214,,Sold,,,https://www.redfin.com/MD/Dunkirk/12030-Century-Manor-Dr-20754/home/15096936,BRIGHT MLS,MDCA168366,N,Y,38.7522323,-76.6281168
PAST SALE,February-15-2019,Single Family Residential,9900 Mcintosh Dr,Dunkirk,MD,20754,392000,3,2.5,APPLE GREENE,3185,20037,1978,1024,123,,Sold,,,https://www.redfin.com/MD/Dunkirk/9900-Mc-Intosh-Dr-20754/home/15096934,BRIGHT MLS,1001970414,N,Y,38.7158061,-76.6529804
PAST SALE,November-14-2019,Single Family Residential,2250 Shields Dr,Dunkirk,MD,20754,530000,4,3.5,LYONS CREEK HUNDRED,4159,151589,1982,752,127,10,Sold,,,https://www.redfin.com/MD/Dunkirk/2250-Shields-Dr-20754/home/15097180,BRIGHT MLS,MDCA171902,N,Y,38.7589961,-76.6407072
PAST SALE,July-19-2021,Single Family Residential,3011 Drury Ln,Dunkirk,MD,20754,590000,4,3.0,SPRINGFIELD SUB,2745,97139,1983,139,215,,Sold,,,https://www.redfin.com/MD/Dunkirk/3011-Drury-Ln-20754/unit-IN/home/15096681,BRIGHT MLS,MDCA183468,N,Y,38.759169,-76.6588459
PAST SALE,November-16-2020,Single Family Residential,12620 Vigilant Ct,Dunkirk,MD,20754,660000,5,5.0,LYONS CREEK HUNDRED,3175,186437,1984,384,208,10,Sold,,,https://www.redfin.com/MD/Dunkirk/12620-Vigilant-Ct-20754/home/15096670,BRIGHT MLS,MDCA178274,N,Y,38.7582121,-76.6394888
PAST SALE,December-28-2020,Single Family Residential,9614 Cortland Ln,Dunkirk,MD,20754,415000,3,3.0,APPLE GREENE,2424,23217,2004,342,171,,Sold,,,https://www.redfin.com/MD/Dunkirk/9614-Cortland-Ln-20754/home/15096019,BRIGHT MLS,MDCA179912,N,Y,38.7124122,-76.6549206
PAST SALE,August-16-2019,Single Family Residential,9628 Cortland Ln,Dunkirk,MD,20754,329900,3,2.0,APPLE GREENE,1638,23827,1994,842,201,,Sold,,,https://www.redfin.com/MD/Dunkirk/9628-Cortland-Ln-20754/home/15096765,BRIGHT MLS,MDCA170926,N,Y,38.7135495,-76.6564095
PAST SALE,January-17-2019,Single Family Residential,12840 Long Gun Dr,Dunkirk,MD,20754,599900,4,3.5,LYONS CREEK HUNDRED,3360,152896,1986,1053,179,10,Sold,,,https://www.redfin.com/MD/Dunkirk/12840-Long-Gun-Dr-20754/home/15096448,BRIGHT MLS,1009936072,N,Y,38.7652361,-76.6375258
PAST SALE,July-27-2020,Single Family Residential,3610 King Dr,Dunkirk,MD,20754,413000,3,3.0,REGAL ESTS,2781,47916,1984,496,149,,Sold,,,https://www.redfin.com/MD/Dunkirk/3610-King-Dr-20754/home/15096665,BRIGHT MLS,MDCA176250,N,Y,38.7381802,-76.6752453
PAST SALE,November-27-2019,Single Family Residential,2800 Chesapeake Beach Rd W,Dunkirk,MD,20754,379900,4,3.0,Dunkirk,1928,109771,1986,739,197,,Sold,,,https://www.redfin.com/MD/Dunkirk/2800-W-Chesapeake-Beach-Rd-20754/home/15096575,BRIGHT MLS,MDCA172582,N,Y,38.7602361,-76.6548755
PAST SALE,April-28-2021,Single Family Residential,3145 Hickory Ridge Rd,Dunkirk,MD,20754,800000,4,4.0,CALVERT ESTS,5509,45738,1987,221,145,13,Sold,,,https://www.redfin.com/MD/Dunkirk/3145-Hickory-Ridge-Rd-20754/home/15094509,BRIGHT MLS,MDCA181948,N,Y,38.7559938,-76.665433
PAST SALE,June-24-2020,Single Family Residential,3085 Hickory Ridge Rd,Dunkirk,MD,20754,465000,4,2.5,CALVERT ESTS,2534,43560,1988,529,184,13,Sold,,,https://www.redfin.com/MD/Dunkirk/3085-Hickory-Ridge-Rd-20754/home/15095572,BRIGHT MLS,MDCA175430,N,Y,38.7560299,-76.6627937
PAST SALE,September-26-2019,Single Family Residential,10607 Fielder Ct,Dunkirk,MD,20754,595000,4,3.5,SMITHS PURCHASE,4000,61855,1986,801,149,,Sold,,,https://www.redfin.com/MD/Dunkirk/10607-Fielder-Ct-20754/home/15093112,BRIGHT MLS,MDCA168402,N,Y,38.721348,-76.670159
PAST SALE,,Single Family Residential,9760 Smith Way,Dunkirk,MD,20754,572500,,3.5,,2983,43560,1991,,192,,,,,https://www.redfin.com/MD/Dunkirk/9760-Smith-Way-20754/home/15092069,,,N,Y,38.7106731,-76.6701249
PAST SALE,August-24-2020,Single Family Residential,3155 Jones Rd,Dunkirk,MD,20754,742000,5,2.5,Dunkirk,4100,233046,1910,468,181,,Sold,,,https://www.redfin.com/MD/Dunkirk/3155-Jones-Rd-20754/home/15092892,BRIGHT MLS,MDCA176794,N,Y,38.7113055,-76.6651623
PAST SALE,,Single Family Residential,1925 Owensville Ct,Dunkirk,MD,20754,675000,,3.0,,4778,397703,1990,,141,,,,,https://www.redfin.com/MD/Dunkirk/1925-Owensville-Ct-20754/home/15094060,,,N,Y,38.736237,-76.641322
PAST SALE,September-25-2019,Single Family Residential,10920 Ward Rd,Dunkirk,MD,20754,780000,5,3.5,WELCHPOOLE ESTS,6362,132858,1994,802,123,,Sold,,,https://www.redfin.com/MD/Dunkirk/10920-Ward-Rd-20754/home/15093161,BRIGHT MLS,1001923794,N,Y,38.7298211,-76.6407072
PAST SALE,July-23-2019,Single Family Residential,3205 Hewitt Ct,Dunkirk,MD,20754,545000,4,3.5,OLD HUNDRED,3712,118919,1999,866,147,13,Sold,,,https://www.redfin.com/MD/Dunkirk/3205-Hewitt-Ct-20754/home/15091701,BRIGHT MLS,MDCA169762,N,Y,38.707868,-76.6629065
PAST SALE,December-7-2018,Single Family Residential,2750 Icehouse Ct,Dunkirk,MD,20754,450000,4,2.5,HICKORY CREEK,2306,39683,1998,1094,195,,Sold,,,https://www.redfin.com/MD/Dunkirk/2750-Icehouse-Ct-20754/home/15092683,BRIGHT MLS,1008176048,N,Y,38.7287516,-76.6509049
PAST SALE,September-13-2019,Single Family Residential,12645 Perrywood Ln,Dunkirk,MD,20754,590000,5,3.5,PERRY'S CHOICE,5299,43560,1999,814,111,25,Sold,,,https://www.redfin.com/MD/Dunkirk/12645-Perrywood-Ln-20754/home/15093544,BRIGHT MLS,MDCA170078,N,Y,38.7553073,-76.6516945
PAST SALE,August-10-2020,Single Family Residential,4065 Loving Dr,Dunkirk,MD,20754,550000,4,3.5,LOVING FARM,3358,43560,1998,482,164,25,Sold,,,https://www.redfin.com/MD/Dunkirk/4065-Loving-Dr-20754/home/15092933,BRIGHT MLS,MDCA177116,N,Y,38.7091094,-76.6790347
PAST SALE,,Single Family Residential,11901 Lyons Glen Ct,Dunkirk,MD,20754,180000,,3.5,,4328,43560,2020,,42,,,,,https://www.redfin.com/MD/Dunkirk/11901-Lyons-Glen-Ct-20754/home/17375049,,,N,Y,38.7459629,-76.6757693
PAST SALE,June-28-2021,Single Family Residential,4150 Ferry Landing Rd,Dunkirk,MD,20754,525000,5,2.0,Dunkirk,2108,54450,2002,160,249,,Sold,,,https://www.redfin.com/MD/Dunkirk/4150-Ferry-Landing-Rd-20754/home/15091616,BRIGHT MLS,MDCA183010,N,Y,38.7119974,-76.6840193
PAST SALE,,Single Family Residential,3125 Lacrosse Ct,Dunkirk,MD,20754,676000,,4.5,,4720,40728,2005,,143,,,,,https://www.redfin.com/MD/Dunkirk/3125-Lacrosse-Ct-20754/home/15090944,,,N,Y,38.7469564,-76.6640795
PAST SALE,June-30-2020,Single Family Residential,3615 Lantern Ct,Dunkirk,MD,20754,670000,4,4.5,LYONS CREEK OVERLOOK,5699,47916,2006,523,118,,Sold,,,https://www.redfin.com/MD/Dunkirk/3615-Lantern-Ct-20754/home/15090282,BRIGHT MLS,MDCA174612,N,Y,38.7508076,-76.6671474
PAST SALE,November-4-2020,Single Family Residential,3790 Larkview Ct,Dunkirk,MD,20754,700000,5,3.5,LYONS CREEK OVERLOOK,4525,37026,2005,396,155,23,Sold,,,https://www.redfin.com/MD/Dunkirk/3790-Larkview-Ct-20754/home/15090286,BRIGHT MLS,MDCA179302,N,Y,38.7531618,-76.6690873
PAST SALE,March-26-2021,Single Family Residential,3480 Old Jones Rd,Dunkirk,MD,20754,700000,5,3.5,FONNER PROP,4134,43560,2013,254,169,,Sold,,,https://www.redfin.com/MD/Dunkirk/3480-Old-Jones-Rd-20754/home/23131471,BRIGHT MLS,MDCA180822,N,Y,38.713235,-76.6703668
PAST SALE,September-20-2021,Parking,324 Greenridge Dr,Dunkirk,MD,20754,460000,5,3.5,BAY COUNTRY,300,46609,1989,76,1533,35,Sold,,,https://www.redfin.com/MD/Dunkirk/324-Greenridge-Dr-20754/home/10468818,BRIGHT MLS,MDAA2003170,N,Y,38.7650867,-76.6163376
PAST SALE,October-31-2019,Single Family Residential,12702 Legacy Dr,Dunkirk,MD,20754,844864,4,5.0,THE LAKES AT TWIN SHIELDS,6355,64904,2019,766,133,54,Sold,,,https://www.redfin.com/MD/Dunkirk/12702-Legacy-Dr-20754/home/144375416,BRIGHT MLS,MDCA173146,N,Y,38.7621611,-76.6474406
PAST SALE,April-21-2020,Single Family Residential,2310 Golf Club Dr,Dunkirk,MD,20754,1025000,4,4.5,THE LAKES AT TWIN SHIELDS,8035,120226,2017,593,128,54,Sold,,,https://www.redfin.com/MD/Dunkirk/2310-Golf-Club-Dr-20754/home/113871332,BRIGHT MLS,MDCA175908,N,Y,38.7603215,-76.6498897
PAST SALE,August-14-2020,Single Family Residential,2850 Dunleigh Dr,Dunkirk,MD,20754,822000,5,3.5,DUNLEIGH,6200,130680,1991,478,133,17,Sold,,,https://www.redfin.com/MD/Dunkirk/2850-Dunleigh-Dr-20754/home/15094559,BRIGHT MLS,1001491408,N,Y,38.7493974,-76.6554846
PAST SALE,January-25-2019,Single Family Residential,11985 Lexington Dr,Dunkirk,MD,20754,315000,4,2.5,CALVERT-CHASE,2586,43560,1987,1045,122,2,Sold,,,https://www.redfin.com/MD/Dunkirk/11985-Lexington-Dr-20754/home/15094426,BRIGHT MLS,1001846404,N,Y,38.7451073,-76.6651172
PAST SALE,July-30-2021,Single Family Residential,12260 Longleaf Ln,Dunkirk,MD,20754,625000,4,3.5,LYONS CREEK OVERLOOK,3771,43560,2004,128,166,23,Sold,,,https://www.redfin.com/MD/Dunkirk/12260-Longleaf-Ln-20754/home/15090640,BRIGHT MLS,MDCA182440,N,Y,38.7500485,-76.668749
PAST SALE,September-10-2020,Single Family Residential,3980 Lyons Creek Rd,Dunkirk,MD,20754,277200,3,2.0,Dunkirk,1488,43560,1922,451,186,,Sold,,,https://www.redfin.com/MD/Dunkirk/3980-Lyons-Creek-Rd-20754/home/15099462,BRIGHT MLS,MDCA177138,N,Y,38.7449299,-76.678672
PAST SALE,July-14-2020,Single Family Residential,12615 Perrywood Ln,Dunkirk,MD,20754,620000,5,3.5,PERRY'S CHOICE,3046,44431,2001,509,204,25,Sold,,,https://www.redfin.com/MD/Dunkirk/12615-Perrywood-Ln-20754/home/15092617,BRIGHT MLS,MDCA176658,N,Y,38.7545769,-76.6523262
PAST SALE,February-26-2021,Single Family Residential,11430 Crestwood Dr,Owings,MD,20736,548000,4,3.0,CRESTWOOD ESTS,3126,130680,1987,282,175,,Sold,,,https://www.redfin.com/MD/Owings/11430-Crestwood-Dr-20736/home/15096948,BRIGHT MLS,MDCA180604,N,Y,38.739273,-76.632751
PAST SALE,April-26-2019,Single Family Residential,3905 Lyons Creek Rd,Dunkirk,MD,20754,575000,5,3.0,LYONS CREEK OVERLOOK,2832,130680,1992,954,203,,Sold,,,https://www.redfin.com/MD/Dunkirk/3905-Lyons-Creek-Rd-20754/home/15092371,BRIGHT MLS,MDCA164444,N,Y,38.746532,-76.676869
PAST SALE,May-28-2021,Single Family Residential,3815 Leafcrest Ct,Dunkirk,MD,20754,811000,6,4.0,LYONS CREEK OVERLOOK,4668,50965,2004,191,174,23,Sold,,,https://www.redfin.com/MD/Dunkirk/3815-Leafcrest-Ct-20754/home/15090745,BRIGHT MLS,MDCA182122,N,Y,38.7506613,-76.6728318
PAST SALE,December-28-2020,Single Family Residential,9910 Jonathan Dr,Dunkirk,MD,20754,465000,4,4.0,APPLE GREENE,3634,20246,1976,342,128,,Sold,,,https://www.redfin.com/MD/Dunkirk/9910-Jonathan-Dr-20754/home/15095726,BRIGHT MLS,MDCA178884,N,Y,38.717179,-76.655462
PAST SALE,June-23-2020,Single Family Residential,1920 Aberdeen Dr,Dunkirk,MD,20754,499900,3,3.0,DUNKIRK WOODS,2100,262231,1978,530,238,,Sold,,,https://www.redfin.com/MD/Dunkirk/1920-Aberdeen-Dr-20754/home/15095706,BRIGHT MLS,MDCA176206,N,Y,38.729249,-76.63597
PAST SALE,June-30-2020,Single Family Residential,9822 Golden Russet Dr,Dunkirk,MD,20754,409000,4,2.5,APPLE GREENE,2386,20812,1977,523,171,,Sold,,,https://www.redfin.com/MD/Dunkirk/9822-Golden-Russet-Dr-20754/home/15097033,BRIGHT MLS,MDCA175990,N,Y,38.7154016,-76.654695
PAST SALE,June-16-2020,Single Family Residential,3416 Smithville Dr,Dunkirk,MD,20754,451000,4,3.0,SMITH'S PURCHASE,3115,47480,1986,537,145,,Sold,,,https://www.redfin.com/MD/Dunkirk/3416-Smithville-Dr-20754/home/15094456,BRIGHT MLS,MDCA176086,N,Y,38.7214273,-76.6734182
PAST SALE,August-12-2021,Single Family Residential,11803 Crown Dr,Dunkirk,MD,20754,645000,5,3.0,REGAL ESTS,4177,108464,1973,115,154,,Sold,,,https://www.redfin.com/MD/Dunkirk/11803-Crown-Dr-20754/home/15098726,BRIGHT MLS,MDCA2000278,N,Y,38.7435901,-76.6662451
PAST SALE,August-19-2020,Single Family Residential,11458 Chews Branch Rd,Owings,MD,20736,568000,4,3.5,EARL HICKS SUB,2613,137650,1974,473,217,,Sold,,,https://www.redfin.com/MD/Owings/11458-Chews-Branch-Rd-20736/home/15100300,BRIGHT MLS,MDCA177556,N,Y,38.736941,-76.632883
PAST SALE,September-27-2019,Single Family Residential,11903 Crown Dr,Dunkirk,MD,20754,464900,3,2.5,REGAL ESTS,3545,101495,1972,800,131,,Sold,,,https://www.redfin.com/MD/Dunkirk/11903-Crown-Dr-20754/home/15096894,BRIGHT MLS,MDCA171374,N,Y,38.7440423,-76.6668541
PAST SALE,June-30-2021,Single Family Residential,3581 Yellow Bank Rd,Dunkirk,MD,20754,670000,3,2.5,Dunkirk,2853,507038,1979,158,235,,Sold,,,https://www.redfin.com/MD/Dunkirk/3581-Yellow-Bank-Rd-20754/home/15100269,BRIGHT MLS,MDCA183170,N,Y,38.733606,-76.675276
PAST SALE,August-12-2019,Single Family Residential,3013 Ashwood Dr,Dunkirk,MD,20754,305000,4,2.0,ASHWOOD MANOR,1542,29403,1972,846,198,,Sold,,,https://www.redfin.com/MD/Dunkirk/3013-Ashwood-Dr-20754/home/15099724,BRIGHT MLS,MDCA140078,N,Y,38.7424726,-76.6645758
PAST SALE,July-29-2021,Single Family Residential,1439 Knight Ave,Dunkirk,MD,20754,385000,4,3.0,CAVALIER COUNTRY,1856,17770,1971,129,207,,Sold,,,https://www.redfin.com/MD/Dunkirk/1439-Knight-Ave-20754/home/15099651,BRIGHT MLS,MDCA2000152,N,Y,38.7485837,-76.6340737
PAST SALE,August-30-2021,Single Family Residential,11449 Chews Branch Rd,Owings,MD,20736,510000,4,2.0,EARL HICKS SUB,2227,133294,1978,97,229,,Sold,,,https://www.redfin.com/MD/Owings/11449-Chews-Branch-Rd-20736/home/15099670,BRIGHT MLS,MDCA2000726,N,Y,38.7359699,-76.6319368
PAST SALE,,Single Family Residential,1451 Knight Ave,Dunkirk,MD,20754,300000,,2.0,,1716,8903,1986,,175,,,,,https://www.redfin.com/MD/Dunkirk/1451-Knight-Ave-20754/home/15099248,,,N,Y,38.7474569,-76.6337127
PAST SALE,October-15-2020,Single Family Residential,1302 Squire Ln,Dunkirk,MD,20754,385000,4,2.0,CAVALIER COUNTRY,1844,17543,1972,416,209,,Sold,,,https://www.redfin.com/MD/Dunkirk/1302-Squire-Ln-20754/home/15099649,BRIGHT MLS,MDCA178304,N,Y,38.748251,-76.6263568
PAST SALE,June-10-2019,Single Family Residential,1459 Knight Ave,Dunkirk,MD,20754,380000,4,3.0,CAVALIER COUNTRY,2768,18837,1971,909,137,,Sold,,,https://www.redfin.com/MD/Dunkirk/1459-Knight-Ave-20754/home/15099648,BRIGHT MLS,MDCA168542,N,Y,38.7477978,-76.6324942
PAST SALE,July-16-2020,Single Family Residential,1412 Knight Ave,Dunkirk,MD,20754,320000,3,2.0,CAVALIER COUNTRY,1446,17890,1972,507,221,,Sold,,,https://www.redfin.com/MD/Dunkirk/1412-Knight-Ave-20754/home/15098789,BRIGHT MLS,MDCA175806,N,Y,38.7490439,-76.6293804
PAST SALE,April-15-2019,Single Family Residential,3408 Lyons Creek Rd,Dunkirk,MD,20754,390000,3,2.0,REGAL ESTS,2352,51836,1972,965,166,,Sold,,,https://www.redfin.com/MD/Dunkirk/3408-Lyons-Creek-Rd-20754/home/15099141,BRIGHT MLS,MDCA164800,N,Y,38.7449105,-76.6707114
PAST SALE,January-7-2021,Single Family Residential,3009 Ashwood Dr,Dunkirk,MD,20754,385000,4,2.5,ASHWOOD MANOR,2235,29403,1966,332,172,,Sold,,,https://www.redfin.com/MD/Dunkirk/3009-Ashwood-Dr-20754/home/15099454,BRIGHT MLS,MDCA180008,N,Y,38.7425534,-76.6635381
PAST SALE,September-3-2020,Single Family Residential,11813 Rivershore Dr,Dunkirk,MD,20754,483800,4,2.5,SHORES OF CALVERT,2408,26092,1974,458,201,17,Sold,,,https://www.redfin.com/MD/Dunkirk/11813-Rivershore-Dr-20754/home/15099235,BRIGHT MLS,MDCA175976,N,Y,38.7409723,-76.6814932
PAST SALE,July-14-2021,Single Family Residential,11707 Rivershore Dr,Dunkirk,MD,20754,480000,3,2.0,SHORES OF CALVERT,2654,18295,1974,144,181,17,Sold,,,https://www.redfin.com/MD/Dunkirk/11707-Rivershore-Dr-20754/home/15096774,BRIGHT MLS,MDCA182990,N,Y,38.7390144,-76.6770723
PAST SALE,July-7-2021,Single Family Residential,4002 Mariner Ct,Dunkirk,MD,20754,525000,4,3.0,SHORES OF CALVERT,2675,17685,1974,151,196,17,Sold,,,https://www.redfin.com/MD/Dunkirk/4002-Mariner-Ct-20754/home/15099270,BRIGHT MLS,MDCA182976,N,Y,38.7388002,-76.6786963
PAST SALE,August-9-2019,Single Family Residential,1443 Knight Ave,Dunkirk,MD,20754,305000,3,2.5,CAVALIER COUNTRY,1520,22153,1971,849,201,,Sold,,,https://www.redfin.com/MD/Dunkirk/1443-Knight-Ave-20754/home/15098804,BRIGHT MLS,MDCA170292,N,Y,38.7481731,-76.6343444
PAST SALE,July-15-2020,Vacant Land,10035 Kirksville Ln,Dunkirk,MD,20754,37500,,,Dunkirk,,43560,,508,,,Sold,,,https://www.redfin.com/MD/Dunkirk/10035-Kirksville-Ln-20754/home/15098152,BRIGHT MLS,MDCA176904,N,Y,38.715942,-76.661118
PAST SALE,July-30-2021,Single Family Residential,12791 Carronade Ct,Dunkirk,MD,20754,785000,5,3.5,LYONS CREEK HUNDRED,3774,53143,1987,128,208,10,Sold,,,https://www.redfin.com/MD/Dunkirk/12791-Carronade-Ct-20754/home/15096097,BRIGHT MLS,MDCA183544,N,Y,38.7610827,-76.6358336
PAST SALE,March-29-2019,Single Family Residential,9917 Jonathan Dr,Dunkirk,MD,20754,370000,3,2.5,APPLE GREENE,2548,22842,1976,982,145,,Sold,,,https://www.redfin.com/MD/Dunkirk/9917-Jonathan-Dr-20754/home/15097349,BRIGHT MLS,MDCA164252,N,Y,38.7168985,-76.6533865
PAST SALE,June-25-2021,Single Family Residential,9907 Jonathan Dr,Dunkirk,MD,20754,500000,5,3.0,APPLE GREENE,2386,20037,1977,163,210,4,Sold,,,https://www.redfin.com/MD/Dunkirk/9907-Jonathan-Dr-20754/home/15097257,BRIGHT MLS,MDCA182756,N,Y,38.7165952,-76.6552815
PAST SALE,September-9-2020,Single Family Residential,2604 Imperial Ct,Dunkirk,MD,20754,409000,4,3.0,APPLE GREENE,2105,20386,1978,452,194,,Sold,,,https://www.redfin.com/MD/Dunkirk/2604-Imperial-Ct-20754/home/15095353,BRIGHT MLS,MDCA177564,N,Y,38.7162384,-76.6518524
PAST SALE,,Single Family Residential,9903 Greening Ct,Dunkirk,MD,20754,564900,,2.5,,2080,49223,1979,,272,,,,,https://www.redfin.com/MD/Dunkirk/9903-Greening-Ct-20754/home/15095212,,,N,Y,38.7152024,-76.6505439
PAST SALE,August-3-2021,Single Family Residential,9550 Owens Ln,Dunkirk,MD,20754,715000,5,3.0,HALL'S HILLS,4209,217800,1984,124,170,,Sold,,,https://www.redfin.com/MD/Dunkirk/9550-Owen-Ln-20754/home/15095197,BRIGHT MLS,MDCA2000226,N,Y,38.7075773,-76.6620814
PAST SALE,March-26-2021,Single Family Residential,3041 Drury Ln,Dunkirk,MD,20754,525000,4,2.5,SPRINGFIELD SUB,2177,75359,1985,254,241,,Sold,,,https://www.redfin.com/MD/Dunkirk/3041-Drury-Ln-20754/home/15096827,BRIGHT MLS,MDCA181324,N,Y,38.7592088,-76.6598836
PAST SALE,September-14-2020,Single Family Residential,9903 Empire Ct,Dunkirk,MD,20754,439900,4,3.5,APPLE GREENE,2714,57935,1981,447,162,,Sold,,,https://www.redfin.com/MD/Dunkirk/9903-Empire-Ct-20754/home/15095284,BRIGHT MLS,MDCA177276,N,Y,38.7131005,-76.6480171
PAST SALE,July-17-2020,Single Family Residential,2605 Apple Way,Dunkirk,MD,20754,370000,4,2.5,APPLE GREENE,2430,20778,1981,506,152,,Sold,,,https://www.redfin.com/MD/Dunkirk/2605-Apple-Way-20754/home/15096730,BRIGHT MLS,MDCA175052,N,Y,38.7139178,-76.6498671
PAST SALE,August-31-2021,Single Family Residential,2501 York Ct,Dunkirk,MD,20754,400000,3,2.5,APPLE GREENE,1508,57064,1986,96,265,,Sold,,,https://www.redfin.com/MD/Dunkirk/2501-York-Ct-20754/home/15095269,BRIGHT MLS,MDCA2000562,N,Y,38.7119991,-76.6523939
PAST SALE,May-5-2021,Single Family Residential,9605 Cortland Ln,Dunkirk,MD,20754,465000,3,2.5,APPLE GREENE,1642,31929,2004,214,283,,Sold,,,https://www.redfin.com/MD/Dunkirk/9605-Cortland-Ln-20754/home/15096023,BRIGHT MLS,MDCA181766,N,Y,38.7120372,-76.6530707
PAST SALE,,Single Family Residential,1980 N Plantation Dr,Dunkirk,MD,20754,595000,4,4.0,,3339,180338,1983,,178,,,,,https://www.redfin.com/MD/Dunkirk/1980-N-Plantation-Dr-20754/home/15096064,,,N,Y,38.7630203,-76.6426701
PAST SALE,August-26-2021,Single Family Residential,12510 Perrywood Ln,Dunkirk,MD,20754,790000,4,5.0,PERRY'S CHOICE,4966,43560,1999,101,159,17,Sold,,,https://www.redfin.com/MD/Dunkirk/12510-Perrywood-Ln-20754/home/15093541,BRIGHT MLS,MDCA2000804,N,Y,38.7544326,-76.6554169
PAST SALE,January-8-2021,Single Family Residential,3775 Larkview Ct,Dunkirk,MD,20754,660000,4,2.5,LYONS CREEK OVERLOOK,3380,28749,2005,331,195,23,Sold,,,https://www.redfin.com/MD/Dunkirk/3775-Larkview-Ct-20754/home/15090766,BRIGHT MLS,MDCA180202,N,Y,38.7518795,-76.6687715
PAST SALE,July-30-2021,Single Family Residential,9622 Cortland Ln,Dunkirk,MD,20754,550000,4,3.5,APPLE GREENE,3326,20691,2003,128,165,,Sold,,,https://www.redfin.com/MD/Dunkirk/9622-Cortland-Ln-20754/home/15096050,BRIGHT MLS,MDCA182760,N,Y,38.7132247,-76.6556876
PAST SALE,May-8-2020,Single Family Residential,11140 Dumbarton Dr,Dunkirk,MD,20754,524900,4,3.5,DUNKIRK WOODS,3250,137214,1969,576,162,,Sold,,,https://www.redfin.com/MD/Dunkirk/11140-Dumbarton-Dr-20754/home/15099677,BRIGHT MLS,MDCA175316,N,Y,38.741654,-76.636691
PAST SALE,November-29-2019,Single Family Residential,2810 Chesapeake Beach Rd W,Dunkirk,MD,20754,477000,4,3.0,Dunkirk,3176,56628,1985,737,150,,Sold,,,https://www.redfin.com/MD/Dunkirk/2810-W-Chesapeake-Beach-Rd-20754/home/15095581,BRIGHT MLS,MDCA165148,N,Y,38.760793,-76.655255
PAST SALE,February-26-2021,Single Family Residential,11971 Lexington Dr,Dunkirk,MD,20754,528000,4,2.5,CALVERT-CHASE,2744,43560,1987,282,192,2,Sold,,,https://www.redfin.com/MD/Dunkirk/11971-Lexington-Dr-20754/home/15092725,BRIGHT MLS,MDCA180652,N,Y,38.7455045,-76.6640344
PAST SALE,January-4-2019,Single Family Residential,10630 Fielder Ct,Dunkirk,MD,20754,415000,4,3.5,SMITHS PURCHASE,2650,81893,1988,1066,157,,Sold,,,https://www.redfin.com/MD/Dunkirk/10630-Fielder-Ct-20754/home/15094486,BRIGHT MLS,MDCA100350,N,Y,38.7239242,-76.6720648
PAST SALE,May-31-2019,Single Family Residential,3545 Loyola Ct,Dunkirk,MD,20754,584000,4,2.5,LYONS CREEK OVERLOOK,3200,31798,2003,919,183,23,Sold,,,https://www.redfin.com/MD/Dunkirk/3545-Loyola-Ct-20754/home/15090294,BRIGHT MLS,MDCA158718,N,Y,38.7498754,-76.6653428
PAST SALE,September-10-2021,Single Family Residential,3650 Yellow Bank Rd,Dunkirk,MD,20754,425000,5,3.0,C O WHITTINGTON JR PROP,2364,58370,1976,86,180,,Sold,,,https://www.redfin.com/MD/Dunkirk/3650-Yellow-Bank-Rd-20754/home/15093133,BRIGHT MLS,MDCA2000882,N,Y,38.7271491,-76.6717942
PAST SALE,July-10-2020,Single Family Residential,2835 Feather Ridge Ct,Dunkirk,MD,20754,404000,3,2.0,HICKORY CREEK,1964,47045,1995,513,206,,Sold,,,https://www.redfin.com/MD/Dunkirk/2835-Feather-Ridge-Ct-20754/home/15092681,BRIGHT MLS,MDCA176598,N,Y,38.7295938,-76.6515817
PAST SALE,August-16-2021,Single Family Residential,10935 Two Sisters Ln,Dunkirk,MD,20754,594000,5,3.5,HICKORY CREEK,3495,32931,2002,111,170,,Sold,,,https://www.redfin.com/MD/Dunkirk/10935-2-Sisters-Ln-20754/home/15092689,BRIGHT MLS,MDCA2000352,N,Y,38.7275204,-76.6486037
PAST SALE,May-27-2020,Single Family Residential,3116 Kenni Ln,Dunkirk,MD,20754,550000,4,3.5,OLD HUNDRED,3190,65340,1999,557,172,13,Sold,,,https://www.redfin.com/MD/Dunkirk/3116-Kenni-Ln-20754/home/15093463,BRIGHT MLS,MDCA175688,N,Y,38.705451,-76.66426
PAST SALE,February-27-2020,Single Family Residential,4060 Loving Dr,Dunkirk,MD,20754,509000,3,2.5,LOVING FARM,2210,43560,1999,647,230,25,Sold,,,https://www.redfin.com/MD/Dunkirk/4060-Loving-Dr-20754/home/15093764,BRIGHT MLS,MDCA173550,N,Y,38.707992,-76.6792828
PAST SALE,August-2-2021,Single Family Residential,12124 Palisades Dr,Dunkirk,MD,20754,1175000,5,3.0,PATUXENT PALISADES,5250,252648,1988,125,224,42,Sold,,,https://www.redfin.com/MD/Dunkirk/12124-Palisades-Dr-20754/home/15094777,BRIGHT MLS,MDCA183034,N,Y,38.754413,-76.683887
PAST SALE,May-21-2021,Single Family Residential,3111 Ashwood Dr,Dunkirk,MD,20754,680000,5,3.5,ASHWOOD MANOR,3500,173804,1980,198,194,,Sold,,,https://www.redfin.com/MD/Dunkirk/3111-Ashwood-Dr-20754/home/15096886,BRIGHT MLS,MDCA182176,N,Y,38.7414871,-76.6678692
PAST SALE,July-25-2019,Single Family Residential,12722 Legacy Dr,Dunkirk,MD,20754,806206,5,3.5,LAKES AT TWIN SHIELDS,5760,59242,2019,864,140,54,Sold,,,https://www.redfin.com/MD/Dunkirk/12722-Legacy-Dr-20754/home/144375410,BRIGHT MLS,MDCA171236,N,Y,38.7631588,-76.6481976
PAST SALE,August-18-2021,Single Family Residential,9908 Empire Ct,Dunkirk,MD,20754,575000,4,3.5,APPLE GREENE,3062,23522,1981,109,188,,Sold,,,https://www.redfin.com/MD/Dunkirk/9908-Empire-Ct-20754/home/15097166,BRIGHT MLS,MDCA183520,N,Y,38.7144216,-76.6490098
PAST SALE,,Other,6299 McKendree Rd,Dunkirk,MD,20754,50000,,,,,96703,,,,,,,,https://www.redfin.com/MD/Dunkirk/6299-McKendree-Rd-20754/home/10473689,,,N,Y,38.763827,-76.620076
PAST SALE,July-26-2021,Single Family Residential,11902 Crown Dr,Dunkirk,MD,20754,485000,3,3.0,REGAL ESTS,1767,43560,1977,132,274,,Sold,,,https://www.redfin.com/MD/Dunkirk/11902-Crown-Dr-20754/home/15097424,BRIGHT MLS,MDCA183202,N,Y,38.7437586,-76.6680497
PAST SALE,March-7-2019,Single Family Residential,6334 Northbrook Dr,Dunkirk,MD,20754,396000,4,2.5,BAY COUNTRY,1815,64033,1987,1004,218,3,Sold,,,https://www.redfin.com/MD/Dunkirk/6334-Northbrook-Dr-20754/home/10468768,BRIGHT MLS,MDAA376596,N,Y,38.7604264,-76.6121853
PAST SALE,December-21-2018,Single Family Residential,1860 S Plantation Dr,Dunkirk,MD,20754,525000,3,2.5,LYONS CREEK HUNDRED,2330,52272,1984,1080,225,10,Sold,,,https://www.redfin.com/MD/Dunkirk/1860-S-Plantation-Dr-20754/home/15096702,BRIGHT MLS,MDCA140064,N,Y,38.7603729,-76.6392406
PAST SALE,April-1-2021,Single Family Residential,3220 Hickory Ridge Rd,Dunkirk,MD,20754,715000,5,3.5,CALVERT ESTS,3788,232175,1987,248,189,13,Sold,,,https://www.redfin.com/MD/Dunkirk/3220-Hickory-Ridge-Rd-20754/home/15095574,BRIGHT MLS,MDCA180962,N,Y,38.7551224,-76.6683204
PAST SALE,March-10-2020,Single Family Residential,454 Jewell Ct,Dunkirk,MD,20754,399000,4,3.0,WOODED VALLEY ESTATES,3136,92783,1987,635,127,4,Sold,,,https://www.redfin.com/MD/Dunkirk/454-Jewell-Ct-20754/home/10470354,BRIGHT MLS,MDAA422236,N,Y,38.7521261,-76.6201061
PAST SALE,October-1-2019,Single Family Residential,11931 Lexington Dr,Dunkirk,MD,20754,423150,3,2.5,CALVERT-CHASE,2220,43560,1988,796,191,,Sold,,,https://www.redfin.com/MD/Dunkirk/11931-Lexington-Dr-20754/home/15094623,BRIGHT MLS,MDCA171814,N,Y,38.7445963,-76.6631321
PAST SALE,February-11-2021,Single Family Residential,2619 Apple Way,Dunkirk,MD,20754,408320,5,2.5,APPLE GREENE,2067,20603,1979,297,198,,Sold,,,https://www.redfin.com/MD/Dunkirk/2619-Apple-Way-20754/home/15096793,BRIGHT MLS,MDCA180466,N,Y,38.7153977,-76.6515366
PAST SALE,August-20-2021,Single Family Residential,4005 Lakeview TURN,Dunkirk,MD,20754,436000,4,3.0,SHORES OF CALVERT,2523,21170,1973,107,173,16,Sold,,,https://www.redfin.com/MD/Dunkirk/4005-Lakeview-Turn-20754/home/15098710,BRIGHT MLS,MDCA2000334,N,Y,38.7436434,-76.6799143
PAST SALE,June-11-2021,Single Family Residential,9807 Empire Ct,Dunkirk,MD,20754,400000,5,3.0,APPLE GREENE,2693,53579,1982,177,149,,Sold,,,https://www.redfin.com/MD/Dunkirk/9807-Empire-Ct-20754/home/15096060,BRIGHT MLS,MDCA182344,N,Y,38.7123325,-76.6493708
PAST SALE,October-18-2019,Single Family Residential,11304 Kinder Ln,Dunkirk,MD,20754,385000,3,3.0,KINDERLAWN,2466,17554,1975,779,156,,Sold,,,https://www.redfin.com/MD/Dunkirk/11304-Kinder-Ln-20754/home/15099114,BRIGHT MLS,MDCA172074,N,Y,38.7365893,-76.6559358
PAST SALE,December-16-2019,Vacant Land,359 Whitetail Dr,Dunkirk,MD,20754,295000,,,Dunkirk,,810216,,720,,,Sold,,,https://www.redfin.com/MD/Dunkirk/359-Whitetail-Dr-20754/home/168476770,BRIGHT MLS,MDCA171470,N,Y,38.7609989,-76.622109
PAST SALE,October-26-2021,Single Family Residential,12441 Uncle Charlies Spur,Dunkirk,MD,20754,730000,6,3.0,CHANEY STATION,3844,43560,1984,40,190,,Sold,,,https://www.redfin.com/MD/Dunkirk/12441-Uncle-Charlies-Spur-20754/home/15096512,BRIGHT MLS,MDCA183244,N,Y,38.7540801,-76.6419706
PAST SALE,August-16-2019,Single Family Residential,12285 Longleaf Ln,Dunkirk,MD,20754,582000,4,3.5,LYONS CREEK OVERLOOK,3242,30492,2005,842,180,21,Sold,,,https://www.redfin.com/MD/Dunkirk/12285-Longleaf-Ln-20754/home/15090645,BRIGHT MLS,MDCA170898,N,Y,38.7513169,-76.6687715
PAST SALE,July-2-2021,Single Family Residential,11801 Rivershore Dr,Dunkirk,MD,20754,560000,4,4.0,SHORES OF CALVERT,3576,42035,1976,156,157,17,Sold,,,https://www.redfin.com/MD/Dunkirk/11801-Rivershore-Dr-20754/home/15098062,BRIGHT MLS,MDCA182948,N,Y,38.7399205,-76.6810872
PAST SALE,May-8-2020,Single Family Residential,11216 Lakeview Dr,Dunkirk,MD,20754,360000,4,2.5,LAKEWOOD,2693,60984,1974,576,134,,Sold,,,https://www.redfin.com/MD/Dunkirk/11216-Lakeview-Dr-20754/home/15099378,BRIGHT MLS,MDCA175412,N,Y,38.7369298,-76.64725
PAST SALE,June-11-2021,Single Family Residential,9913 Mcintosh Dr,Dunkirk,MD,20754,415000,3,2.0,APPLE GREENE,2693,25452,1978,177,154,,Sold,,,https://www.redfin.com/MD/Dunkirk/9913-Mc-Intosh-Dr-20754/home/15097402,BRIGHT MLS,MDCA182592,N,Y,38.717139,-76.65095
PAST SALE,June-25-2021,Single Family Residential,6401 Mckendree Rd,Dunkirk,MD,20754,399900,3,2.5,BAY COUNTRY,1863,88427,1983,163,215,3,Sold,,,https://www.redfin.com/MD/Dunkirk/6401-McKendree-Rd-20754/home/10468877,BRIGHT MLS,MDAA466096,N,Y,38.758081,-76.6193163
PAST SALE,January-14-2021,Single Family Residential,6343 Meadowland Dr,Dunkirk,MD,20754,390000,4,2.5,BAY COUNTRY,2447,43560,1981,325,159,3,Sold,,,https://www.redfin.com/MD/Dunkirk/6343-Meadowland-Dr-20754/home/10468846,BRIGHT MLS,MDAA432986,N,Y,38.7584565,-76.6159765
PAST SALE,August-21-2020,Single Family Residential,4080 Loving Dr,Dunkirk,MD,20754,530000,4,3.0,LOVING FARM,2562,43560,1999,471,207,25,Sold,,,https://www.redfin.com/MD/Dunkirk/4080-Loving-Dr-20754/home/15093762,BRIGHT MLS,MDCA176338,N,Y,38.7081767,-76.680185
PAST SALE,November-24-2020,Single Family Residential,3501 King Dr,Dunkirk,MD,20754,325000,3,2.0,REGAL ESTS,1697,57499,1976,376,192,,Sold,,,https://www.redfin.com/MD/Dunkirk/3501-King-Dr-20754/home/15098737,BRIGHT MLS,MDCA179274,N,Y,38.7427903,-76.6718393
PAST SALE,May-13-2019,Single Family Residential,3424 Smithville Dr,Dunkirk,MD,20754,556000,4,3.5,SMITH'S PURCHASE,2907,115434,1986,937,191,,Sold,,,https://www.redfin.com/MD/Dunkirk/3424-Smithville-Dr-20754/home/15094458,BRIGHT MLS,MDCA168260,N,Y,38.7202189,-76.6740949
PAST SALE,September-30-2021,Vacant Land,381 Jewell Rd,Dunkirk,MD,20754,160300,,,Dunkirk,,43560,,66,,,Sold,,,https://www.redfin.com/MD/Dunkirk/381-Jewell-Rd-20754/home/10468109,BRIGHT MLS,MDAA2008048,N,Y,38.754857,-76.618148
PAST SALE,September-30-2021,Single Family Residential,369 Jewell Rd,Dunkirk,MD,20754,211000,3,2.0,Dunkirk,1840,25265,1920,66,115,,Sold,,,https://www.redfin.com/MD/Dunkirk/369-Jewell-Rd-20754/home/10468108,BRIGHT MLS,MDAA2007974,N,Y,38.7551604,-76.6176916
PAST SALE,September-24-2021,Single Family Residential,9903 Jonathan Dr,Dunkirk,MD,20754,482100,4,3.0,APPLE GREENE,2960,21644,1977,72,163,,Sold,,,https://www.redfin.com/MD/Dunkirk/9903-Jonathan-Dr-20754/home/17375508,BRIGHT MLS,MDCA2000890,N,Y,38.7163085,-76.6552364
PAST SALE,January-12-2021,Single Family Residential,12029 Palisades Dr,Dunkirk,MD,20754,555000,4,2.5,PATUXENT PALISADES,2327,57935,1981,327,239,42,Sold,,,https://www.redfin.com/MD/Dunkirk/12029-Palisades-Dr-20754/home/15096903,BRIGHT MLS,MDCA179906,N,Y,38.7482728,-76.6817187
PAST SALE,September-29-2021,Single Family Residential,3316 Smithville Dr,Dunkirk,MD,20754,479900,4,2.5,SMITH'S PURCHASE,2430,59677,1992,67,197,,Sold,,,https://www.redfin.com/MD/Dunkirk/3316-Smithville-Dr-20754/home/15093224,BRIGHT MLS,MDCA2001100,N,Y,38.7197728,-76.6690196
PAST SALE,June-2-2020,Single Family Residential,12675 Twin Lakes Dr,Dunkirk,MD,20754,823012,5,5.5,THE LAKES AT TWIN SHIELDS,4954,67082,2020,551,166,54,Sold,,,https://www.redfin.com/MD/Dunkirk/12675-Twin-Lakes-Dr-20754/home/144375381,BRIGHT MLS,MDCA176678,N,Y,38.7597202,-76.6428973
PAST SALE,May-7-2021,Vacant Land,9605 Howes Rd,Dunkirk,MD,20754,650000,,,Dunkirk,,5353524,,212,,,Sold,,,https://www.redfin.com/MD/Dunkirk/9605-Howes-Rd-20754/home/166752908,BRIGHT MLS,MDCA169624,N,Y,38.7077872,-76.6767518
PAST SALE,March-27-2020,Single Family Residential,6358 Northbrook Dr,Dunkirk,MD,20754,479000,5,3.5,BAY COUNTRY,3445,46174,1987,618,139,3,Sold,,,https://www.redfin.com/MD/Dunkirk/6358-Northbrook-Dr-20754/home/10468755,BRIGHT MLS,MDAA423566,N,Y,38.7581776,-76.6113021
PAST SALE,August-28-2020,Single Family Residential,10015 Kirksville Ln,Dunkirk,MD,20754,345000,3,2.0,Dunkirk,2052,241322,1966,464,168,,Sold,,,https://www.redfin.com/MD/Dunkirk/10015-Kirksville-Ln-20754/home/15097952,BRIGHT MLS,MDCA177620,N,Y,38.715335,-76.662056
PAST SALE,September-2-2021,Single Family Residential,11809 Rivershore Dr,Dunkirk,MD,20754,621000,4,3.0,SHORES OF CALVERT,3283,20516,1976,94,189,17,Sold,,,https://www.redfin.com/MD/Dunkirk/11809-Rivershore-Dr-20754/home/15100287,BRIGHT MLS,MDCA2001076,N,Y,38.7404319,-76.6820345
PAST SALE,June-7-2021,Single Family Residential,6513 Wilson Rd,Friendship,MD,20758,590000,4,3.0,WOODED VALLEY ESTATES,2508,95396,1985,181,235,3,Sold,,,https://www.redfin.com/MD/Friendship/6513-Wilson-Rd-20758/home/10470367,BRIGHT MLS,MDAA467636,N,Y,38.7479599,-76.6204759
PAST SALE,November-16-2020,Single Family Residential,3114 Kenni Ln,Dunkirk,MD,20754,627000,5,3.5,OLD HUNDRED,4323,108900,1999,384,145,13,Sold,,,https://www.redfin.com/MD/Dunkirk/3114-Kenni-Ln-20754/home/15093464,BRIGHT MLS,MDCA178550,N,Y,38.705684,-76.663493
PAST SALE,March-19-2021,Vacant Land,3380 Ferry Landing Rd,Dunkirk,MD,20754,160000,,,Dunkirk,,61855,,261,,,Sold,,,https://www.redfin.com/MD/Dunkirk/3380-Ferry-Landing-Rd-20754/home/17375529,BRIGHT MLS,1000372554,N,Y,38.717818,-76.66716
PAST SALE,,Single Family Residential,10320 Wild Goose Way,Dunkirk,MD,20754,680000,5,3.5,,4324,157252,1981,,157,,,,,https://www.redfin.com/MD/Dunkirk/10320-Wild-Goose-Way-20754/home/15095722,,,N,Y,38.724451,-76.686365
PAST SALE,August-2-2019,Single Family Residential,9901 Greening Ct,Dunkirk,MD,20754,530000,4,3.5,APPLE GREENE,3120,53143,1979,856,170,,Sold,,,https://www.redfin.com/MD/Dunkirk/9901-Greening-Ct-20754/home/15096905,BRIGHT MLS,MDCA169272,N,Y,38.7148805,-76.6510628
PAST SALE,June-15-2021,Single Family Residential,6393 Mckendree Rd,Dunkirk,MD,20754,610000,5,3.5,BAY COUNTRY,3220,101059,1987,173,189,3,Sold,,,https://www.redfin.com/MD/Dunkirk/6393-McKendree-Rd-20754/home/10468897,BRIGHT MLS,MDAA465550,N,Y,38.7610749,-76.6205349
PAST SALE,May-3-2019,Single Family Residential,12034 Steven Ln,Dunkirk,MD,20754,715000,7,5.0,PATUXENT PALISADES,5700,56628,1996,947,125,42,Sold,,,https://www.redfin.com/MD/Dunkirk/12034-Steven-Ln-20754/home/15096422,BRIGHT MLS,1000343806,N,Y,38.7492211,-76.6796662
PAST SALE,July-2-2020,Single Family Residential,3050 Hickory Ridge Rd,Dunkirk,MD,20754,479990,3,2.5,CALVERT ESTS,2331,43560,1988,521,206,,Sold,,,https://www.redfin.com/MD/Dunkirk/3050-Hickory-Ridge-Rd-20754/home/15095579,BRIGHT MLS,MDCA176216,N,Y,38.7539969,-76.6613725
PAST SALE,May-14-2021,Single Family Residential,3725 Larkview Ct,Dunkirk,MD,20754,800000,4,4.0,LYONS CREEK OVERLOOK,4670,72310,2004,205,171,23,Sold,,,https://www.redfin.com/MD/Dunkirk/3725-Larkview-Ct-20754/home/15090638,BRIGHT MLS,MDCA181150,N,Y,38.7513542,-76.6710047
PAST SALE,November-6-2019,Single Family Residential,11601 Jester Way,Dunkirk,MD,20754,345000,4,3.0,REGAL ESTS,1668,27094,1978,760,207,,Sold,,,https://www.redfin.com/MD/Dunkirk/11601-Jester-Way-20754/home/15095716,BRIGHT MLS,MDCA171718,N,Y,38.7407289,-76.6738242
PAST SALE,June-25-2019,Single Family Residential,236 Jewell Rd,Dunkirk,MD,20754,650000,5,5.5,AA COUNTY,7284,124146,1993,894,89,,Sold,,,https://www.redfin.com/MD/Dunkirk/236-Jewell-Rd-20754/home/10468520,BRIGHT MLS,MDAA395972,N,Y,38.758473,-76.600933
PAST SALE,September-17-2020,Single Family Residential,9730 Tara Dr,Dunkirk,MD,20754,485000,4,3.5,DUNKIRK SOUTH,3360,47916,1990,444,144,,Sold,,,https://www.redfin.com/MD/Dunkirk/9730-Tara-Dr-20754/home/15092995,BRIGHT MLS,MDCA177386,N,Y,38.7111773,-76.6564095
PAST SALE,,Single Family Residential,3159 Jones Rd,Dunkirk,MD,20754,516400,,2.5,,2800,30953,2019,,184,,,,,https://www.redfin.com/MD/Dunkirk/3159-Jones-Rd-20754/home/17374372,,,N,Y,38.711359,-76.6655679
PAST SALE,September-1-2020,Single Family Residential,12380 Webb Ln,Dunkirk,MD,20754,767000,5,3.5,FIELDS OF DUNKIRK,5237,80150,2013,460,146,,Sold,,,https://www.redfin.com/MD/Dunkirk/12380-Webb-Ln-20754/home/52390085,BRIGHT MLS,MDCA175798,N,Y,38.7540314,-76.6479673
PAST SALE,February-5-2020,Single Family Residential,12775 Lena Ct,Dunkirk,MD,20754,835000,5,4.5,THE LAKES AT TWIN SHIELDS,5736,56192,2018,669,146,54,Sold,,,https://www.redfin.com/MD/Dunkirk/12775-Lena-Ct-20754/home/144375396,BRIGHT MLS,MDCA172050,N,Y,38.7644205,-76.6457384
PAST SALE,April-10-2020,Single Family Residential,9607 Cortland Ln,Dunkirk,MD,20754,262000,3,2.5,APPLE GREENE,1870,27617,1985,604,140,,Sold,,,https://www.redfin.com/MD/Dunkirk/9607-Cortland-Ln-20754/home/15095129,BRIGHT MLS,MDCA172878,N,Y,38.712438,-76.6530533
PAST SALE,October-29-2021,Single Family Residential,9914 Mcintosh Dr,Dunkirk,MD,20754,423000,4,3.0,APPLE GREENE,2184,28701,1978,37,194,,Sold,,,https://www.redfin.com/MD/Dunkirk/9914-Mc-Intosh-Dr-20754/home/15096869,BRIGHT MLS,MDCA183356,N,Y,38.717482,-76.651813
PAST SALE,October-22-2021,Single Family Residential,11617 Rivershore Dr,Dunkirk,MD,20754,385000,3,2.0,SHORES OF CALVERT,1671,31537,1976,44,230,17,Sold,,,https://www.redfin.com/MD/Dunkirk/11617-Rivershore-Dr-20754/home/15095399,BRIGHT MLS,MDCA2001018,N,Y,38.7374099,-76.6802301
PAST SALE,March-26-2019,Single Family Residential,9800 Golden Russet Dr,Dunkirk,MD,20754,412500,4,3.5,APPLE GREENE,2724,74052,1983,985,151,,Sold,,,https://www.redfin.com/MD/Dunkirk/9800-Golden-Russet-Dr-20754/home/15096008,BRIGHT MLS,MDCA140512,N,Y,38.7130987,-76.6521683
PAST SALE,November-29-2019,Single Family Residential,3185 Ferry Landing Rd,Dunkirk,MD,20754,410000,3,2.0,Dunkirk,1960,43560,1980,737,209,,Sold,,,https://www.redfin.com/MD/Dunkirk/3185-Ferry-Landing-Rd-20754/home/15096344,BRIGHT MLS,MDCA172248,N,Y,38.720331,-76.664843
PAST SALE,August-16-2021,Single Family Residential,11409 Baumann Ct,Dunkirk,MD,20754,462000,3,2.0,Dunkirk,1952,60984,1972,111,237,,Sold,,,https://www.redfin.com/MD/Dunkirk/11409-Baumann-Ct-20754/home/15097784,BRIGHT MLS,MDCA2000482,N,Y,38.7388005,-76.6543792
PAST SALE,August-31-2021,Single Family Residential,11214 Lakeview Dr,Dunkirk,MD,20754,440000,3,3.0,LAKEWOOD,2184,49223,1974,96,201,,Sold,,,https://www.redfin.com/MD/Dunkirk/11214-Lakeview-Dr-20754/home/15099164,BRIGHT MLS,MDCA2000144,N,Y,38.7363165,-76.6471598
PAST SALE,May-1-2020,Single Family Residential,3535 Loyola Ct,Dunkirk,MD,20754,720000,5,4.5,LYONS CREEK OVERLOOK,3874,36590,2003,583,186,23,Sold,,,https://www.redfin.com/MD/Dunkirk/3535-Loyola-Ct-20754/home/15090656,BRIGHT MLS,MDCA173908,N,Y,38.7496132,-76.6656811
PAST SALE,April-30-2021,Single Family Residential,3370 Lancer Ct,Dunkirk,MD,20754,710000,4,3.5,LYONS CREEK OVERLOOK,3269,34848,2004,219,217,23,Sold,,,https://www.redfin.com/MD/Dunkirk/3370-Lancer-Ct-20754/home/15090781,BRIGHT MLS,MDCA181404,N,Y,38.7471971,-76.6685911
PAST SALE,September-10-2020,Vacant Land,12040 Elsie Ln,Dunkirk,MD,20754,150000,,,Dunkirk,,345431,,451,,,Sold,,,https://www.redfin.com/MD/Dunkirk/12040-Elsie-Ln-20754/home/17375304,BRIGHT MLS,MDCA171886,N,Y,38.748709,-76.674919
PAST SALE,May-15-2019,Single Family Residential,12520 Perrywood Ln,Dunkirk,MD,20754,571500,5,3.5,PERRY'S CHOICE,3421,43560,1998,935,167,,Sold,,,https://www.redfin.com/MD/Dunkirk/12520-Perrywood-Ln-20754/home/15093540,BRIGHT MLS,MDCA164332,N,Y,38.7547315,-76.6548755
PAST SALE,April-15-2020,Single Family Residential,12431 Uncle Charlies Spur,Dunkirk,MD,20754,497700,5,3.0,CHANEY STATION,2756,130680,1980,599,181,,Sold,,,https://www.redfin.com/MD/Dunkirk/12431-Uncle-Charlies-Spur-20754/home/15096394,BRIGHT MLS,MDCA171832,N,Y,38.7541096,-76.6429182
PAST SALE,,Single Family Residential,3641 Lyons Creek Rd,Dunkirk,MD,20754,340000,,1.0,,2664,43560,1983,,128,,,,,https://www.redfin.com/MD/Dunkirk/3641-Lyons-Creek-Rd-20754/home/15096274,,,N,Y,38.7459739,-76.6750423
PAST SALE,August-18-2020,Single Family Residential,12025 Steven Ln,Dunkirk,MD,20754,644000,5,2.5,PATUXENT PALISADES,4367,47480,2000,474,147,42,Sold,,,https://www.redfin.com/MD/Dunkirk/12025-Steven-Ln-20754/home/15096441,BRIGHT MLS,MDCA175776,N,Y,38.7481944,-76.6786061
PAST SALE,,Single Family Residential,2612 Apple Way,Dunkirk,MD,20754,415000,,3.5,,2816,22128,1980,,147,,,,,https://www.redfin.com/MD/Dunkirk/2612-Apple-Way-20754/home/15096313,,,N,Y,38.7138229,-76.6511305
PAST SALE,May-5-2020,Single Family Residential,3411 King Dr,Dunkirk,MD,20754,475000,3,2.5,REGAL ESTS,2376,51401,1940,579,200,,Sold,,,https://www.redfin.com/MD/Dunkirk/3411-King-Dr-20754/home/15099137,BRIGHT MLS,MDCA173254,N,Y,38.7431529,-76.6702828
PAST SALE,November-7-2019,Single Family Residential,11213 Lakeside Dr,Dunkirk,MD,20754,465000,3,3.0,LAKEWOOD,2912,49658,1975,759,160,,Sold,,,https://www.redfin.com/MD/Dunkirk/11213-Lakeside-Dr-20754/home/15098770,BRIGHT MLS,MDCA172650,N,Y,38.7364173,-76.648897
PAST SALE,May-31-2019,Single Family Residential,472 Avon Ct,Friendship,MD,20758,278000,5,4.5,WOODSIDE VIEW,4952,138521,1985,919,56,,Sold,,,https://www.redfin.com/MD/Friendship/472-Avon-Ct-20758/home/10470401,BRIGHT MLS,MDAA394680,N,Y,38.747572,-76.616101
PAST SALE,July-7-2020,Single Family Residential,12530 Plantation Ct,Dunkirk,MD,20754,995000,7,8.0,LYONS CREEK HUNDRED,8562,491357,1987,516,116,10,Sold,,,https://www.redfin.com/MD/Dunkirk/12530-Plantation-Ct-20754/home/15096762,BRIGHT MLS,MDCA171920,N,Y,38.767058,-76.6411849
PAST SALE,July-17-2020,Single Family Residential,9919 Jonathan Dr,Dunkirk,MD,20754,369900,3,2.5,APPLE GREENE,2693,29964,1976,506,137,,Sold,,,https://www.redfin.com/MD/Dunkirk/9919-Jonathan-Dr-20754/home/15097348,BRIGHT MLS,MDCA176542,N,Y,38.7172953,-76.6533414
PAST SALE,May-31-2019,Single Family Residential,2971 Cedarwood Ln,Dunkirk,MD,20754,439900,3,3.0,CEDARWOOD,2586,53143,1981,919,170,,Sold,,,https://www.redfin.com/MD/Dunkirk/2971-Cedarwood-Ln-20754/home/15096967,BRIGHT MLS,MDCA168420,N,Y,38.7435516,-76.6586203
PAST SALE,June-4-2021,Single Family Residential,4060 Buck Board Ln,Dunkirk,MD,20754,680000,3,3.5,FERRY LANDING WOODS,2363,155074,1979,184,288,8,Sold,,,https://www.redfin.com/MD/Dunkirk/4060-Buck-Board-Ln-20754/home/15097741,BRIGHT MLS,MDCA182316,N,Y,38.7271289,-76.6862296
PAST SALE,September-30-2020,Single Family Residential,9755 Tara Dr,Dunkirk,MD,20754,489822,5,3.5,DUNKIRK SOUTH,3196,45302,1988,431,153,,Sold,,,https://www.redfin.com/MD/Dunkirk/9755-Tara-Dr-20754/home/15092998,BRIGHT MLS,MDCA177594,N,Y,38.7119308,-76.6563193
PAST SALE,March-16-2020,Single Family Residential,11851 Lexington Dr,Dunkirk,MD,20754,550000,6,6.5,CALVERT-CHASE,4936,47916,1988,629,111,2,Sold,,,https://www.redfin.com/MD/Dunkirk/11851-Lexington-Dr-20754/home/15092722,BRIGHT MLS,MDCA172854,N,Y,38.7433651,-76.6653428
PAST SALE,April-27-2021,Vacant Land,9960 Alex Ln,Dunkirk,MD,20754,160000,,,Dunkirk,,170320,,222,,,Sold,,,https://www.redfin.com/MD/Dunkirk/9960-Alex-Ln-20754/home/17375434,BRIGHT MLS,MDCA175330,N,Y,38.7104704,-76.6779559
PAST SALE,April-27-2021,Vacant Land,9975 Alex Ln,Dunkirk,MD,20754,155000,,,Dunkirk,,49658,,222,,,Sold,,,https://www.redfin.com/MD/Dunkirk/9975-Alex-Ln-20754/home/17375048,BRIGHT MLS,MDCA179910,N,Y,38.710844,-76.6774741
PAST SALE,April-27-2021,Vacant Land,9985 Alex Ln,Dunkirk,MD,20754,180000,,,Dunkirk,,139828,,222,,,Sold,,,https://www.redfin.com/MD/Dunkirk/9985-Alex-Ln-20754/home/17375512,BRIGHT MLS,MDCA175112,N,Y,38.7122379,-76.6773913
PAST SALE,June-14-2019,Single Family Residential,3195 Hickory Ridge Rd,Dunkirk,MD,20754,605000,5,4.5,CALVERT ESTS,4966,43560,2005,905,122,13,Sold,,,https://www.redfin.com/MD/Dunkirk/3195-Hickory-Ridge-Rd-20754/home/15094953,BRIGHT MLS,MDCA168784,N,Y,38.7562482,-76.6667639
PAST SALE,July-3-2019,Single Family Residential,2920 Dunleigh Dr,Dunkirk,MD,20754,742500,5,3.5,DUNLEIGH,6745,108900,1993,886,110,17,Sold,,,https://www.redfin.com/MD/Dunkirk/2920-Dunleigh-Dr-20754/home/15092552,BRIGHT MLS,MDCA168548,N,Y,38.7496607,-76.6610567
PAST SALE,July-6-2021,Single Family Residential,10311 Three Doctors Rd,Dunkirk,MD,20754,659900,5,3.5,FERRY LANDING WOODS,4500,137649,1976,152,147,,Sold,,,https://www.redfin.com/MD/Dunkirk/10311-3-Doctors-Rd-20754/home/15098335,BRIGHT MLS,MDCA181592,N,Y,38.7262761,-76.6786738
PAST SALE,November-18-2021,Single Family Residential,2609 Apple Way,Dunkirk,MD,20754,605000,4,3.5,APPLE GREENE,3855,76666,1984,17,157,,Sold,,,https://www.redfin.com/MD/Dunkirk/2609-Apple-Way-20754/home/15095136,BRIGHT MLS,MDCA2001534,N,Y,38.7145699,-76.6495964
PAST SALE,July-27-2020,Single Family Residential,97 Hummingbird Ct,Dunkirk,MD,20754,585000,6,4.5,TALL OAKS,4180,52272,1992,496,140,16,Sold,,,https://www.redfin.com/MD/Dunkirk/97-Hummingbird-Ct-20754/home/10470175,BRIGHT MLS,MDAA425488,N,Y,38.7465587,-76.6007206
PAST SALE,February-28-2020,Single Family Residential,450 Jewell Ct,Dunkirk,MD,20754,485000,4,2.5,WOODED VALLEY ESTATES,3182,103237,1988,646,152,3,Sold,,,https://www.redfin.com/MD/Dunkirk/450-Jewell-Ct-20754/home/10470356,BRIGHT MLS,MDAA403420,N,Y,38.7513854,-76.6190907
PAST SALE,June-24-2020,Single Family Residential,6352 Audubon Ct,Dunkirk,MD,20754,405000,4,2.5,BAY COUNTRY,2172,65340,1987,529,186,3,Sold,,,https://www.redfin.com/MD/Dunkirk/6352-Audubon-Ct-20754/home/10468874,BRIGHT MLS,MDAA409870,N,Y,38.756722,-76.6166084
PAST SALE,September-25-2020,Single Family Residential,11900 Lyons Glen Ct,Dunkirk,MD,20754,650000,4,3.0,Dunkirk,3780,48787,2000,436,172,,Sold,,,https://www.redfin.com/MD/Dunkirk/11900-Lyons-Glen-Ct-20754/home/15093588,BRIGHT MLS,MDCA175632,N,Y,38.7458,-76.6766663
PAST SALE,April-30-2020,Single Family Residential,11621 Rivershore Dr,Dunkirk,MD,20754,395000,3,2.0,SHORES OF CALVERT,1925,30256,1976,584,205,17,Sold,,,https://www.redfin.com/MD/Dunkirk/11621-Rivershore-Dr-20754/home/15095401,BRIGHT MLS,MDCA175226,N,Y,38.737648,-76.6795083
PAST SALE,March-22-2019,Single Family Residential,3735 Yellow Bank Rd,Dunkirk,MD,20754,430000,4,3.0,Dunkirk,2364,59242,1968,989,182,,Sold,,,https://www.redfin.com/MD/Dunkirk/3735-Yellow-Bank-Rd-20754/home/15100445,BRIGHT MLS,MDCA152614,N,Y,38.7297563,-76.6727866
PAST SALE,November-22-2021,Single Family Residential,254 Jewell Rd,Dunkirk,MD,20754,489900,3,2.0,Dunkirk,2055,191664,1962,13,238,,Sold,,,https://www.redfin.com/MD/Dunkirk/254-Jewell-Rd-20754/home/10468159,BRIGHT MLS,MDAA2012400,N,Y,38.7580855,-76.6089807
PAST SALE,,Single Family Residential,11220 Ward Rd,Dunkirk,MD,20754,485000,,2.5,,4317,130680,1992,,112,,,,,https://www.redfin.com/MD/Dunkirk/11220-Ward-Rd-20754/home/15093844,,,N,Y,38.7346083,-76.6443848
PAST SALE,May-15-2019,Single Family Residential,3375 Lancer Ct,Dunkirk,MD,20754,734999,6,3.5,LYONS CREEK OVERLOOK,5876,35283,2003,935,125,23,Sold,,,https://www.redfin.com/MD/Dunkirk/3375-Lancer-Ct-20754/home/15090772,BRIGHT MLS,MDCA131912,N,Y,38.7480045,-76.6682753
PAST SALE,November-15-2019,Single Family Residential,4101 Patuxent Ct,Dunkirk,MD,20754,705000,4,4.0,PATUXENT PALISADES,4279,76666,1972,751,165,42,Sold,,,https://www.redfin.com/MD/Dunkirk/4101-Patuxent-Ct-20754/home/15096987,BRIGHT MLS,MDCA170436,N,Y,38.7494461,-76.6830044
PAST SALE,July-1-2021,Single Family Residential,10030 Kaylorite St,Dunkirk,MD,20754,640000,4,3.5,FERRY LANDING WOODS,2784,142006,1978,157,230,,Sold,,,https://www.redfin.com/MD/Dunkirk/10030-Kaylorite-St-20754/home/15097291,BRIGHT MLS,MDCA182900,N,Y,38.7170037,-76.6847185
PAST SALE,March-19-2020,Single Family Residential,1731 Edinburgh Ln,Dunkirk,MD,20754,450000,4,2.5,DUNKIRK WOODS,3320,168577,1978,626,136,,Sold,,,https://www.redfin.com/MD/Dunkirk/1731-Edinburgh-Ln-20754/home/15097779,BRIGHT MLS,MDCA173612,N,Y,38.7364893,-76.6344347
PAST SALE,December-6-2019,Single Family Residential,12760 Carronade Ct,Dunkirk,MD,20754,560000,5,4.0,LYONS CREEK HUNDRED,3127,246985,1984,730,179,10,Sold,,,https://www.redfin.com/MD/Dunkirk/12760-Carronade-Ct-20754/home/15095098,BRIGHT MLS,MDCA172716,N,Y,38.75933,-76.636135
PAST SALE,February-28-2020,Single Family Residential,12611 Southern Maryland Blvd,Dunkirk,MD,20754,680000,4,2.5,SPRINGFIELD SUB,4337,246985,1978,646,157,,Sold,,,https://www.redfin.com/MD/Dunkirk/12611-Southern-Maryland-Blvd-20754/home/15096161,BRIGHT MLS,MDCA172212,N,Y,38.756921,-76.6557799
PAST SALE,July-2-2019,Single Family Residential,12730 Lena Ct,Dunkirk,MD,20754,821279,5,6.5,THE LAKES AT TWIN SHIELDS,6042,50530,2019,887,136,54,Sold,,,https://www.redfin.com/MD/Dunkirk/12730-Lena-Ct-20754/home/144375392,BRIGHT MLS,MDCA170788,N,Y,38.7619786,-76.6454677
PAST SALE,June-23-2020,Single Family Residential,3640 Yellow Bank Rd,Dunkirk,MD,20754,269158,5,3.5,Dunkirk,5100,50094,1998,530,53,,Sold,,,https://www.redfin.com/MD/Dunkirk/3640-Yellow-Bank-Rd-20754/home/15093568,BRIGHT MLS,MDCA173988,N,Y,38.7279553,-76.6711174
PAST SALE,March-31-2020,Single Family Residential,4106 Overlook Ct,Dunkirk,MD,20754,552000,3,2.5,SHORES OF CALVERT,2608,34107,1978,614,212,18,Sold,,,https://www.redfin.com/MD/Dunkirk/4106-Overlook-Ct-20754/home/15100285,BRIGHT MLS,MDCA174422,N,Y,38.7415373,-76.6832525
PAST SALE,May-28-2021,Single Family Residential,11910 Rivershore Dr,Dunkirk,MD,20754,471000,3,3.0,SHORES OF CALVERT,2051,43560,1974,191,230,19,Sold,,,https://www.redfin.com/MD/Dunkirk/11910-Rivershore-Dr-20754/home/15099446,BRIGHT MLS,MDCA181392,N,Y,38.7429945,-76.6809067
PAST SALE,August-10-2020,Single Family Residential,11400 Crestwood Dr,Owings,MD,20736,525000,3,2.0,CRESTWOOD ESTS,2412,130680,1981,482,218,,Sold,,,https://www.redfin.com/MD/Owings/11400-Crestwood-Dr-20736/home/15096550,BRIGHT MLS,MDCA177044,N,Y,38.7374719,-76.633938
PAST SALE,August-21-2020,Single Family Residential,2729 Icehouse Ct,Dunkirk,MD,20754,531032,4,2.5,HICKORY CREEK,2940,34978,1995,471,181,,Sold,,,https://www.redfin.com/MD/Dunkirk/2729-Icehouse-Ct-20754/home/15093698,BRIGHT MLS,MDCA177182,N,Y,38.7275248,-76.6507244
PAST SALE,December-12-2019,Single Family Residential,331 Greenridge Dr,Dunkirk,MD,20754,435000,5,2.5,BAY COUNTRY,3014,43560,1989,724,144,3,Sold,,,https://www.redfin.com/MD/Dunkirk/331-Greenridge-Dr-20754/home/10468819,BRIGHT MLS,MDAA413940,N,Y,38.7644982,-76.618188
PAST SALE,March-13-2020,Single Family Residential,1731 S Plantation Dr,Dunkirk,MD,20754,527500,3,2.5,LYONS CREEK HUNDRED,2352,427324,1986,632,224,10,Sold,,,https://www.redfin.com/MD/Dunkirk/1731-S-Plantation-Dr-20754/home/143279684,BRIGHT MLS,MDCA171914,N,Y,38.765243,-76.634035
PAST SALE,December-18-2020,Single Family Residential,1920 N Plantation Dr,Dunkirk,MD,20754,640000,3,3.0,LYONS CREEK HUNDRED,3142,134600,1982,352,204,10,Sold,,,https://www.redfin.com/MD/Dunkirk/1920-N-Plantation-Dr-20754/home/15096809,BRIGHT MLS,MDCA177156,N,Y,38.7606031,-76.6412261
PAST SALE,October-28-2020,Single Family Residential,9650 Tara Dr,Dunkirk,MD,20754,480000,5,3.5,DUNKIRK SOUTH,3032,91476,1999,403,158,,Sold,,,https://www.redfin.com/MD/Dunkirk/9650-Tara-Dr-20754/home/15094774,BRIGHT MLS,MDCA177666,N,Y,38.7099439,-76.6547852
PAST SALE,September-27-2019,Single Family Residential,2840 Feather Ridge Ct,Dunkirk,MD,20754,425000,4,3.0,HICKORY CREEK,2709,30404,1998,800,157,,Sold,,,https://www.redfin.com/MD/Dunkirk/2840-Feather-Ridge-Ct-20754/home/15092264,BRIGHT MLS,MDCA171548,N,Y,38.7302124,-76.6517171
PAST SALE,July-12-2021,Single Family Residential,3220 Hewitt Ct,Dunkirk,MD,20754,665000,4,3.5,OLD HUNDRED,3971,60984,2001,146,167,,Sold,,,https://www.redfin.com/MD/Dunkirk/3220-Hewitt-Ct-20754/home/15093712,BRIGHT MLS,MDCA182766,N,Y,38.7072344,-76.6640344
PAST SALE,December-28-2018,Single Family Residential,3436 Jones Rd,Dunkirk,MD,20754,489900,4,3.5,SMITHVILLE,3571,47045,1990,1073,137,17,Sold,,,https://www.redfin.com/MD/Dunkirk/3436-Jones-Rd-20754/home/15094817,BRIGHT MLS,MDCA100282,N,Y,38.7098526,-76.6710272
PAST SALE,July-15-2020,Single Family Residential,2010 N Plantation Dr,Dunkirk,MD,20754,687500,5,3.0,LYONS CREEK HUNDRED,5462,167270,2004,508,126,10,Sold,,,https://www.redfin.com/MD/Dunkirk/2010-N-Plantation-Dr-20754/home/15096475,BRIGHT MLS,MDCA175264,N,Y,38.7638414,-76.6421286
PAST SALE,November-19-2020,Single Family Residential,3925 Lyons Creek Rd,Dunkirk,MD,20754,610000,4,3.0,Dunkirk,3040,43560,1996,381,201,,Sold,,,https://www.redfin.com/MD/Dunkirk/3925-Lyons-Creek-Rd-20754/home/15092372,BRIGHT MLS,MDCA178826,N,Y,38.7458395,-76.6777039
PAST SALE,April-21-2020,Single Family Residential,12705 Lena Ct,Dunkirk,MD,20754,798830,5,3.0,THE LAKES AT TWIN SHIELDS,3846,74052,2020,593,208,54,Sold,,,https://www.redfin.com/MD/Dunkirk/12705-Lena-Ct-20754/home/144375386,BRIGHT MLS,MDCA175906,N,Y,38.7611017,-76.6439621
PAST SALE,June-1-2020,Single Family Residential,9905 Golden Russet Ct,Dunkirk,MD,20754,415000,4,3.0,APPLE GREENE,2226,20037,1977,552,186,,Sold,,,https://www.redfin.com/MD/Dunkirk/9905-Golden-Russet-Ct-20754/home/15095355,BRIGHT MLS,MDCA175892,N,Y,38.7165434,-76.6537926
PAST SALE,May-29-2020,Single Family Residential,12540 Perrywood Ln,Dunkirk,MD,20754,529900,3,2.5,PERRY'S CHOICE,2394,43560,1997,555,221,25,Sold,,,https://www.redfin.com/MD/Dunkirk/12540-Perrywood-Ln-20754/home/15093538,BRIGHT MLS,MDCA175842,N,Y,38.7555564,-76.6540182
PAST SALE,July-16-2020,Single Family Residential,3200 Hickory Ridge Rd,Dunkirk,MD,20754,490000,4,3.5,CALVERT ESTS,3450,131116,1987,507,142,,Sold,,,https://www.redfin.com/MD/Dunkirk/3200-Hickory-Ridge-Rd-20754/home/15095576,BRIGHT MLS,MDCA175872,N,Y,38.7549987,-76.6675985
PAST SALE,June-23-2020,Single Family Residential,1961 Haven Ln,Dunkirk,MD,20754,550000,5,3.0,DUNKIRK FIELDS,3449,139392,1976,530,159,,Sold,,,https://www.redfin.com/MD/Dunkirk/1961-Haven-Ln-20754/home/15095424,BRIGHT MLS,MDCA175998,N,Y,38.722158,-76.6384058
PAST SALE,,Single Family Residential,2080 McCracken Dr,Dunkirk,MD,20754,250000,,2.0,,1658,147668,1976,,151,,,,,https://www.redfin.com/MD/Dunkirk/2080-McCracken-Dr-20754/home/15100304,,,N,Y,38.7261942,-76.6475659
PAST SALE,June-14-2021,Single Family Residential,2921 Cedarwood Ln,Dunkirk,MD,20754,615000,4,3.5,CEDARWOOD,3056,246114,1983,174,201,,Sold,,,https://www.redfin.com/MD/Dunkirk/2921-Cedarwood-Ln-20754/home/15095230,BRIGHT MLS,MDCA182390,N,Y,38.746783,-76.6582619
PAST SALE,May-14-2021,Single Family Residential,4200 Landing Ln,Dunkirk,MD,20754,612000,3,3.5,FERRY LANDING WOODS,2672,130680,1983,205,229,10,Sold,,,https://www.redfin.com/MD/Dunkirk/4200-Landing-Ln-20754/home/15097337,BRIGHT MLS,MDCA182032,N,Y,38.7212031,-76.6841772
PAST SALE,,Single Family Residential,12601 Southern Maryland Blvd,Dunkirk,MD,20754,350000,,1.5,,3044,226512,1790,,115,,,,,https://www.redfin.com/MD/Dunkirk/12601-Southern-Maryland-Blvd-20754/home/15097298,,,N,Y,38.756171,-76.6561119
PAST SALE,November-22-2019,Single Family Residential,12010 Longleaf Ln,Dunkirk,MD,20754,595000,4,4.0,LYONS CREEK OVERLOOK,4233,43560,2004,744,141,25,Sold,,,https://www.redfin.com/MD/Dunkirk/12010-Longleaf-Ln-20754/home/15090946,BRIGHT MLS,MDCA172634,N,Y,38.7466465,-76.6655683
PAST SALE,,Single Family Residential,12038 Steven Ln,Dunkirk,MD,20754,1085000,,4.5,,5153,54886,1996,,211,,,,,https://www.redfin.com/MD/Dunkirk/12038-Steven-Ln-20754/home/15096965,,,N,Y,38.749553,-76.6797564
PAST SALE,March-5-2021,Single Family Residential,3785 Larkview Ct,Dunkirk,MD,20754,755000,5,4.5,LYONS CREEK OVERLOOK,5470,48787,2005,275,138,23,Sold,,,https://www.redfin.com/MD/Dunkirk/3785-Larkview-Ct-20754/home/23134625,BRIGHT MLS,MDCA180478,N,Y,38.7520055,-76.6682978
PAST SALE,April-3-2020,Single Family Residential,3502 Old Jones Rd,Dunkirk,MD,20754,550000,3,3.0,Dunkirk,3166,43560,1984,611,174,,Sold,,,https://www.redfin.com/MD/Dunkirk/3502-Old-Jones-Rd-20754/home/15095260,BRIGHT MLS,MDCA173168,N,Y,38.7137894,-76.671343
PAST SALE,January-14-2021,Single Family Residential,12500 Perrywood Ln,Dunkirk,MD,20754,765000,8,5.0,PERRY'S CHOICE,5178,46609,1994,325,148,,Sold,,,https://www.redfin.com/MD/Dunkirk/12500-Perrywood-Ln-20754/home/15093183,BRIGHT MLS,MDCA179840,N,Y,38.7539922,-76.6557779
PAST SALE,,Single Family Residential,6318 McKendree Rd,Dunkirk,MD,20754,360000,,2.5,,2084,90605,1974,,173,,,,,https://www.redfin.com/MD/Dunkirk/6318-McKendree-Rd-20754/home/10468065,,,N,Y,38.76323,-76.622696
PAST SALE,March-29-2021,Single Family Residential,9521 Owens Ln,Dunkirk,MD,20754,326000,4,2.5,HALL'S HILLS,2398,181210,1984,251,136,,Sold,,,https://www.redfin.com/MD/Dunkirk/9521-Owen-Ln-20754/home/15095198,BRIGHT MLS,MDCA179908,N,Y,38.7066017,-76.6606506
PAST SALE,May-3-2021,Single Family Residential,3180 Lacrosse Ct,Dunkirk,MD,20754,674900,5,4.5,LYONS CREEK OVERLOOK,5328,,2004,216,127,23,Sold,,,https://www.redfin.com/MD/Dunkirk/3180-Lacrosse-Ct-20754/home/15090778,BRIGHT MLS,MDCA181134,N,Y,38.7493744,-76.6644856
PAST SALE,August-26-2019,Single Family Residential,1219 Prince St,Dunkirk,MD,20754,258000,3,2.5,CAVALIER COUNTRY,1040,19018,1972,832,248,,Sold,,,https://www.redfin.com/MD/Dunkirk/1219-Prince-St-20754/home/15098808,BRIGHT MLS,MDCA171220,N,Y,38.747781,-76.626808
PAST SALE,April-2-2021,Single Family Residential,2618 Apple Way,Dunkirk,MD,20754,486500,4,2.5,APPLE GREENE,2128,20429,1979,247,229,,Sold,,,https://www.redfin.com/MD/Dunkirk/2618-Apple-Way-20754/home/15096901,BRIGHT MLS,MDCA181152,N,Y,38.7150933,-76.6520329
PAST SALE,May-3-2021,Single Family Residential,1408 Knight Ave,Dunkirk,MD,20754,355000,4,2.0,CAVALIER COUNTRY,1844,19528,1972,216,193,,Sold,,,https://www.redfin.com/MD/Dunkirk/1408-Knight-Ave-20754/home/15099653,BRIGHT MLS,MDCA181780,N,Y,38.7484796,-76.6290194
PAST SALE,April-28-2021,Single Family Residential,11623 Rivershore Dr,Dunkirk,MD,20754,445000,3,3.0,SHORES OF CALVERT,2691,31493,1976,221,165,17,Sold,,,https://www.redfin.com/MD/Dunkirk/11623-Rivershore-Dr-20754/home/15098030,BRIGHT MLS,MDCA181802,N,Y,38.7376919,-76.6791925
PAST SALE,July-13-2021,Single Family Residential,12745 Lena Ct,Dunkirk,MD,20754,855044,6,4.5,THE LAKES AT TWIN SHIELDS,5013,54886,2021,145,171,,Sold,,,https://www.redfin.com/MD/Dunkirk/12745-Lena-Ct-20754/home/144375390,BRIGHT MLS,MDCA181360,N,Y,38.7629393,-76.6448438
PAST SALE,October-8-2020,Single Family Residential,11945 Luray Ln,Dunkirk,MD,20754,800000,4,4.5,RAY FIELDS,5104,224770,2001,423,157,,Sold,,,https://www.redfin.com/MD/Dunkirk/11945-Luray-Ln-20754/home/15092089,BRIGHT MLS,MDCA178102,N,Y,38.743123,-76.675713
PAST SALE,November-9-2020,Single Family Residential,6425 Meadowlark Dr,Dunkirk,MD,20754,630000,5,3.5,TALL OAKS,4390,87120,2000,391,144,16,Sold,,,https://www.redfin.com/MD/Dunkirk/6425-Meadowlark-Dr-20754/home/10470155,BRIGHT MLS,MDAA447420,N,Y,38.7486129,-76.5997275
PAST SALE,July-2-2021,Single Family Residential,10945 Two Sisters Ln,Dunkirk,MD,20754,530000,4,2.5,HICKORY CREEK,2028,30535,1999,156,261,,Sold,,,https://www.redfin.com/MD/Dunkirk/10945-2-Sisters-Ln-20754/home/15092271,BRIGHT MLS,MDCA182680,N,Y,38.7278962,-76.6483781
PAST SALE,October-16-2020,Single Family Residential,12013 Steven Ln,Dunkirk,MD,20754,630000,4,2.5,PATUXENT PALISADES,2796,45302,1996,415,225,42,Sold,,,https://www.redfin.com/MD/Dunkirk/12013-Steven-Ln-20754/home/15096966,BRIGHT MLS,MDCA178672,N,Y,38.7468559,-76.6786738
PAST SALE,October-30-2020,Single Family Residential,3010 Jones Rd,Dunkirk,MD,20754,765000,4,3.5,OLD HUNDRED,4500,108900,1998,401,170,14,Sold,,,https://www.redfin.com/MD/Dunkirk/3010-Jones-Rd-20754/home/15091721,BRIGHT MLS,MDCA178412,N,Y,38.7098905,-76.6633577
PAST SALE,February-26-2021,Single Family Residential,9616 Cortland Ln,Dunkirk,MD,20754,480000,4,2.5,APPLE GREENE,2316,23914,2004,282,207,,Sold,,,https://www.redfin.com/MD/Dunkirk/9616-Cortland-Ln-20754/home/15095126,BRIGHT MLS,MDCA180506,N,Y,38.7125642,-76.6551913
PAST SALE,May-14-2021,Single Family Residential,4801 Regal Ln,Dunkirk,MD,20754,327000,2,1.0,REGAL ESTS,1415,43560,1975,205,231,,Sold,,,https://www.redfin.com/MD/Dunkirk/4801-Regal-Ln-20754/home/15098045,BRIGHT MLS,MDCA181824,N,Y,38.7429934,-76.6711626
PAST SALE,July-20-2021,Single Family Residential,2311 Shields Dr,Dunkirk,MD,20754,736000,4,4.5,TWIN SHIELDS ESTS,5192,140699,1989,138,142,,Sold,,,https://www.redfin.com/MD/Dunkirk/2311-Shields-Dr-20754/home/15096751,BRIGHT MLS,MDCA2000090,N,Y,38.7593033,-76.6419706
PAST SALE,March-23-2021,Single Family Residential,2601 Apple Way,Dunkirk,MD,20754,510000,4,2.5,APPLE GREENE,2964,20081,1981,257,172,,Sold,,,https://www.redfin.com/MD/Dunkirk/2601-Apple-Way-20754/home/15097173,BRIGHT MLS,MDCA180944,N,Y,38.7136332,-76.6491452
PAST SALE,June-14-2021,Single Family Residential,10310 Three Doctors Rd,Dunkirk,MD,20754,580000,5,3.5,FERRY LANDING WOODS,2753,132422,1983,174,211,9,Sold,,,https://www.redfin.com/MD/Dunkirk/10310-3-Doctors-Rd-20754/home/15095405,BRIGHT MLS,MDCA182068,N,Y,38.7262612,-76.6799369
PAST SALE,May-20-2021,Single Family Residential,2030 Mccracken Dr,Dunkirk,MD,20754,457000,3,2.5,DUNKIRK WOODS,1932,161608,1975,199,237,,Sold,,,https://www.redfin.com/MD/Dunkirk/2030-McCracken-Dr-20754/home/15098051,BRIGHT MLS,MDCA182140,N,Y,38.7254025,-76.642467
PAST SALE,,Single Family Residential,11701 Jester Ct,Dunkirk,MD,20754,340000,3,2.0,,1712,33410,1978,,199,,,,,https://www.redfin.com/MD/Dunkirk/11701-Jester-Ct-20754/home/15095718,,,N,Y,38.7404061,-76.6758994
PAST SALE,November-6-2020,Single Family Residential,3508 Smithville Dr,Dunkirk,MD,20754,439900,3,2.0,SMITH'S PURCHASE,1932,75794,1987,394,228,,Sold,,,https://www.redfin.com/MD/Dunkirk/3508-Smithville-Dr-20754/home/15092758,BRIGHT MLS,MDCA178130,N,Y,38.7218942,-76.675719
PAST SALE,April-1-2021,Single Family Residential,10250 Three Doctors Rd,Dunkirk,MD,20754,500000,4,2.5,FERRY LANDING WOODS,3158,138956,1977,248,158,,Sold,,,https://www.redfin.com/MD/Dunkirk/10250-3-Doctors-Rd-20754/home/15095387,BRIGHT MLS,MDCA180854,N,Y,38.7242299,-76.6827111
PAST SALE,September-10-2019,Single Family Residential,11201 Oakwood Dr,Dunkirk,MD,20754,465000,5,3.0,LAKEWOOD,3954,31080,1982,817,118,,Sold,,,https://www.redfin.com/MD/Dunkirk/11201-Oakwood-Dr-20754/home/15096963,BRIGHT MLS,MDCA171110,N,Y,38.7332837,-76.6497769
PAST SALE,April-30-2021,Single Family Residential,3605 Lantern Ct,Dunkirk,MD,20754,725000,4,4.5,LYONS CREEK OVERLOOK,3719,47045,2006,219,195,23,Sold,,,https://www.redfin.com/MD/Dunkirk/3605-Lantern-Ct-20754/home/15090644,BRIGHT MLS,MDCA181746,N,Y,38.7502447,-76.6676662
PAST SALE,June-18-2021,Single Family Residential,10610 Taney Ct,Dunkirk,MD,20754,580000,4,2.5,SMITH'S PURCHASE,2164,70567,1986,170,268,,Sold,,,https://www.redfin.com/MD/Dunkirk/10610-Taney-Ct-20754/home/15092761,BRIGHT MLS,MDCA182714,N,Y,38.7234576,-76.6746363
PAST SALE,July-17-2020,Single Family Residential,3010 Hickory Ridge Rd,Dunkirk,MD,20754,529000,4,3.5,CALVERT ESTS,3524,189486,1988,506,150,13,Sold,,,https://www.redfin.com/MD/Dunkirk/3010-Hickory-Ridge-Rd-20754/home/15094958,BRIGHT MLS,MDCA176376,N,Y,38.7521799,-76.6616432
PAST SALE,October-4-2019,Single Family Residential,6445 Meadowlark Dr,Dunkirk,MD,20754,579000,5,4.5,TALL OAKS,3148,63162,1992,793,184,12,Sold,,,https://www.redfin.com/MD/Dunkirk/6445-Meadowlark-Dr-20754/home/10470180,BRIGHT MLS,MDAA402734,N,Y,38.7455318,-76.6032934
PAST SALE,January-8-2019,Single Family Residential,9816 Golden Russet Dr,Dunkirk,MD,20754,389990,5,3.5,APPLE GREENE,2996,23914,1983,1062,130,,Sold,,,https://www.redfin.com/MD/Dunkirk/9816-Golden-Russet-Dr-20754/home/15096057,BRIGHT MLS,MDCA104038,N,Y,38.7142758,-76.654695
PAST SALE,October-20-2020,Single Family Residential,12760 Lena Ct,Dunkirk,MD,20754,1064405,4,4.5,THE LAKES AT TWIN SHIELDS,6431,51836,2020,411,166,50,Sold,,,https://www.redfin.com/MD/Dunkirk/12760-Lena-Ct-20754/home/144375398,BRIGHT MLS,MDCA179354,N,Y,38.7637007,-76.6464604
PAST SALE,February-21-2019,Single Family Residential,12732 Legacy Dr,Dunkirk,MD,20754,730441,4,3.0,THE LAKES AT TWIN SHIELDS,4056,49658,2019,1018,180,50,Sold,,,https://www.redfin.com/MD/Dunkirk/12732-Legacy-Dr-20754/home/144375409,BRIGHT MLS,MDCA164440,N,Y,38.76348,-76.6487165
PAST SALE,July-2-2019,Single Family Residential,12690 Twin Lakes Dr,Dunkirk,MD,20754,850601,4,3.5,THE LAKES AT TWIN SHIELDS,5173,113692,2019,887,164,54,Sold,,,https://www.redfin.com/MD/Dunkirk/12690-Twin-Lakes-Dr-20754/home/144375384,BRIGHT MLS,MDCA170786,N,Y,38.7599648,-76.6447884
PAST SALE,December-20-2019,Single Family Residential,12680 Twin Lakes Dr,Dunkirk,MD,20754,1029786,6,5.5,THE LAKES AT TWIN SHIELDS,8482,71874,2019,716,121,54,Sold,,,https://www.redfin.com/MD/Dunkirk/12680-Twin-Lakes-Dr-20754/home/144375385,BRIGHT MLS,MDCA173810,N,Y,38.7593128,-76.6442402
PAST SALE,October-1-2021,Single Family Residential,2487 Shields Dr,Dunkirk,MD,20754,911517,5,4.5,THE LAKES AT TWIN SHIELDS,4146,152024,2021,65,220,50,Sold,,,https://www.redfin.com/MD/Dunkirk/2487-Shields-Dr-20754/home/108433836,BRIGHT MLS,MDCA2002210,N,Y,38.7588576,-76.6496208
PAST SALE,October-24-2019,Single Family Residential,12685 Twin Lakes Dr,Dunkirk,MD,20754,1124442,6,6.0,THE LAKES AT TWIN SHIELDS,7453,83200,,773,151,54,Sold,,,https://www.redfin.com/MD/Dunkirk/12670-Twin-Lakes-Dr-20754/home/144375382,BRIGHT MLS,MDCA173048,N,Y,38.7588191,-76.6436935
PAST SALE,January-14-2020,Single Family Residential,12741 Legacy Dr,Dunkirk,MD,20754,837023,4,3.5,THE LAKES AT TWIN SHIELDS,5544,44431,2020,691,151,54,Sold,,,https://www.redfin.com/MD/Dunkirk/12741-Legacy-Dr-20754/home/144375406,BRIGHT MLS,MDCA174116,N,Y,38.7642731,-76.6486263
PAST SALE,December-8-2020,Single Family Residential,12695 Twin Lakes Dr,Dunkirk,MD,20754,833522,4,3.5,THE LAKES AT TWIN SHIELDS,5892,88862,2020,362,141,54,Sold,,,https://www.redfin.com/MD/Dunkirk/12695-Twin-Lakes-Dr-20754/home/144375383,BRIGHT MLS,MDCA180194,N,Y,38.7606669,-76.6435435
PAST SALE,February-11-2020,Single Family Residential,12731 Legacy Dr,Dunkirk,MD,20754,875129,4,4.5,THE LAKES AT TWIN SHIELDS,4881,58806,2020,663,179,54,Sold,,,https://www.redfin.com/MD/Dunkirk/12731-Legacy-Dr-20754/home/144375405,BRIGHT MLS,MDCA174608,N,Y,38.7639012,-76.6480171
PAST SALE,August-4-2020,Single Family Residential,12755 Lena Ct,Dunkirk,MD,20754,883815,4,3.5,THE LAKES AT TWIN SHIELDS,4963,58806,2020,488,178,54,Sold,,,https://www.redfin.com/MD/Dunkirk/12755-Lena-Ct-20754/home/144375394,BRIGHT MLS,MDCA177890,N,Y,38.7634739,-76.645197
PAST SALE,August-20-2019,Single Family Residential,12765 Lena Ct,Dunkirk,MD,20754,946085,5,4.5,LAKES AT TWIN SHIELDS,6768,54886,2019,838,140,54,Sold,,,https://www.redfin.com/MD/Dunkirk/12765-Lena-Ct-20754/home/144375395,BRIGHT MLS,MDCA171798,N,Y,38.763907,-76.6454677
