SALE TYPE,SOLD DATE,PROPERTY TYPE,ADDRESS,CITY,STATE OR PROVINCE,ZIP OR POSTAL CODE,PRICE,BEDS,BATHS,LOCATION,SQUARE FEET,LOT SIZE,YEAR BUILT,DAYS ON MARKET,$/SQUARE FEET,HOA/MONTH,STATUS,NEXT OPEN HOUSE START TIME,NEXT OPEN HOUSE END TIME,URL (SEE https://www.redfin.com/buy-a-home/comparative-market-analysis FOR INFO ON PRICING),SOURCE,MLS#,FAVORITE,INTERESTED,LATITUDE,LONGITUDE
MLS Listing,,Single Family Residential,11917 Moss Point Ln,Reston,VA,20194,820000,4,3.0,RESTON,2616,15998,1987,22,313,60,Active,,,https://www.redfin.com/VA/Reston/11917-Moss-Point-Ln-20194/home/9212715,BRIGHT MLS,VAFX2030744,N,Y,38.9721235,-77.3605942
PAST SALE,October-16-2020,Condo/Co-op,1509 N Point Dr #1,Reston,VA,20194,335000,2,2.0,NORTH POINT VILLAS CONDO,1050,,1999,414,319,420,Sold,,,https://www.redfin.com/VA/Reston/1509-N-Point-Dr-20194/unit-001/home/171037337,BRIGHT MLS,VAFX1149040,N,Y,38.980614,-77.351586
PAST SALE,September-4-2020,Condo/Co-op,1501 N Point Dr #304,Reston,VA,20194,359500,3,2.0,NORTH POINT VILLAS CONDO,1300,,1999,456,277,468,Sold,,,https://www.redfin.com/VA/Reston/1501-N-Point-Dr-20194/unit-304/home/25708577,BRIGHT MLS,VAFX1143314,N,Y,38.9805527,-77.3524073
PAST SALE,June-4-2021,Townhouse,11757 Arbor Glen Way,Reston,VA,20194,639900,3,3.5,RESTON SEC 39 BLK 9,2775,2131,1987,183,231,125,Sold,,,https://www.redfin.com/VA/Reston/11757-Arbor-Glen-Way-20194/home/9139482,BRIGHT MLS,VAFX1198268,N,Y,38.977793,-77.353074
PAST SALE,November-30-2020,Townhouse,1600 Fieldthorn Dr,Reston,VA,20194,406000,2,1.5,RESTON SEC 41 BLK 3 WHIS,1133,1582,1986,369,358,109,Sold,,,https://www.redfin.com/VA/Reston/1600-Fieldthorn-Dr-20194/home/9210839,BRIGHT MLS,VAFX1162754,N,Y,38.971756,-77.3571513
PAST SALE,July-21-2021,Condo/Co-op,1300-C Windleaf Dr #147,Reston,VA,20194,337000,2,2.0,SUTTON RIDGE CONDO,1020,,1995,136,330,315,Sold,,,https://www.redfin.com/VA/Reston/1300C-Windleaf-Dr-20194/unit-147/home/175468081,BRIGHT MLS,VAFX1208104,N,Y,38.98448,-77.34468
PAST SALE,August-18-2021,Townhouse,11635 Chapel Cross Way,Reston,VA,20194,720000,3,3.5,RESTON SEC 35 BLK 1 THE,2638,3812,1987,108,273,158,Sold,,,https://www.redfin.com/VA/Reston/11635-Chapel-Cross-Way-20194/home/9138670,BRIGHT MLS,VAFX2003532,N,Y,38.9773322,-77.3487399
PAST SALE,June-7-2021,Condo/Co-op,11307 Sundial Ct #112,Reston,VA,20194,321100,2,1.0,BALDWIN GROVE CONDO,832,,1995,180,386,364,Sold,,,https://www.redfin.com/VA/Reston/11307-Sundial-Ct-20194/unit-112/home/9147161,BRIGHT MLS,VAFX1202776,N,Y,38.981583,-77.338144
PAST SALE,August-12-2021,Townhouse,1702 Quietree Dr,Reston,VA,20194,405000,2,2.5,RESTON SEC 41 BLK 1A 1B,952,1055,1986,114,425,98,Sold,,,https://www.redfin.com/VA/Reston/1702-Quietree-Dr-20194/home/9212699,BRIGHT MLS,VAFX2003854,N,Y,38.9685553,-77.3574193
PAST SALE,September-9-2020,Single Family Residential,1250 Lamplighter Way,Reston,VA,20194,810000,4,3.5,RESTON,2216,5162,1990,451,366,83,Sold,,,https://www.redfin.com/VA/Reston/1250-Lamplighter-Way-20194/home/9143373,BRIGHT MLS,VAFX1145420,N,Y,38.9846066,-77.3343494
PAST SALE,October-30-2020,Condo/Co-op,1514-E Summerchase Ct,Reston,VA,20194,274000,2,1.0,SUMMERRIDGE CONDO,952,,1987,400,288,364,Sold,,,https://www.redfin.com/VA/Reston/1514-Summerchase-Ct-20194/unit-1514-E/home/9140994,BRIGHT MLS,VAFX1158248,N,Y,38.9790036,-77.3534616
PAST SALE,January-28-2021,Townhouse,11926 Fieldthorn Ct,Reston,VA,20194,415000,2,1.5,RESTON SEC 41 BLK 3 WHIS,1133,990,1986,310,366,109,Sold,,,https://www.redfin.com/VA/Reston/11926-Fieldthorn-Ct-20194/home/9210963,BRIGHT MLS,VAFX1171494,N,Y,38.9707339,-77.3572522
PAST SALE,September-23-2021,Condo/Co-op,1519 N Point Dr #304,Reston,VA,20194,350000,2,2.0,NORTH POINT VILLAS CONDO,1191,,1999,72,294,389,Sold,,,https://www.redfin.com/VA/Reston/1519-N-Point-Dr-20194/unit-304/home/168028922,BRIGHT MLS,VAFX2017776,N,Y,38.9795971,-77.3513755
PAST SALE,November-12-2019,Townhouse,1334 Park Garden Ln,Reston,VA,20194,605000,4,3.5,RESTON SEC 63 BLK 2,2738,2415,1994,753,221,85,Sold,,,https://www.redfin.com/VA/Reston/1334-Park-Garden-Ln-20194/home/9148314,BRIGHT MLS,VAFX1090208,N,Y,38.982013,-77.343755
PAST SALE,December-18-2020,Single Family Residential,11114 Chessington Pl,Reston,VA,20194,1160000,5,4.5,HUNTERS END,6950,11831,2003,351,167,92,Sold,,,https://www.redfin.com/VA/Reston/11114-Chessington-Pl-20194/home/9832393,BRIGHT MLS,VAFX1157496,N,Y,38.9756392,-77.3301317
PAST SALE,July-27-2020,Townhouse,1305 Sundial Dr,Reston,VA,20194,574900,2,3.0,RESTON SEC 61 BLK 3 PARK,1602,1584,1992,495,359,160,Sold,,,https://www.redfin.com/VA/Reston/1305-Sundial-Dr-20194/home/9146556,BRIGHT MLS,VAFX1136088,N,Y,38.9833246,-77.338525
PAST SALE,September-16-2019,Single Family Residential,11921 Moss Point Ln,Reston,VA,20194,590000,4,4.0,RESTON,2424,8338,1987,810,243,53,Sold,,,https://www.redfin.com/VA/Reston/11921-Moss-Point-Ln-20194/home/9129671,BRIGHT MLS,VAFX1071802,N,Y,38.9726246,-77.3607736
PAST SALE,June-18-2021,Townhouse,11604 Chapel Cross Way,Reston,VA,20194,725000,3,3.5,RESTON SEC 35 BLK 1 THE,1838,3346,1986,169,394,158,Sold,,,https://www.redfin.com/VA/Reston/11604-Chapel-Cross-Way-20194/home/9138558,BRIGHT MLS,VAFX1198404,N,Y,38.976583,-77.34679
PAST SALE,October-27-2020,Townhouse,12128 Purple Sage Ct,Reston,VA,20194,415300,3,2.5,RESTON SEC 49 BLK 3A 3B,1220,1400,1985,403,340,110,Sold,,,https://www.redfin.com/VA/Reston/12128-Purple-Sage-Ct-20194/home/9131284,BRIGHT MLS,VAFX1154528,N,Y,38.974383,-77.3636159
PAST SALE,November-18-2021,Condo/Co-op,1515 Church Hill Pl #1515,Reston,VA,20194,345000,2,1.5,HAMPTON POINTE CONDO,1047,,1988,16,330,321,Sold,,,https://www.redfin.com/VA/Reston/1515-Church-Hill-Pl-20194/unit-1515/home/40456486,BRIGHT MLS,VAFX2022488,N,Y,38.977932,-77.346583
PAST SALE,December-2-2019,Townhouse,1209 Heritage Commons Ct,Reston,VA,20194,520000,4,3.5,RESTON SEC 75 BLK 4A VIN,2338,1824,1997,733,222,150,Sold,,,https://www.redfin.com/VA/Reston/1209-Heritage-Commons-Ct-20194/home/9124372,BRIGHT MLS,VAFX1097644,N,Y,38.9886132,-77.3432553
PAST SALE,June-11-2021,Townhouse,1588 Woodcrest Dr,Reston,VA,20194,425000,2,1.5,RESTON SEC 39 BLK 6 WOOD,1139,1020,1987,176,373,110,Sold,,,https://www.redfin.com/VA/Reston/1588-Woodcrest-Dr-20194/home/9133014,BRIGHT MLS,VAFX1199372,N,Y,38.978203,-77.3544821
PAST SALE,May-4-2020,Townhouse,1701 Whisperhill Dr,Reston,VA,20194,419900,3,2.5,RESTON SEC 41 BLK 1A 1B,1370,1185,1985,579,306,102,Sold,,,https://www.redfin.com/VA/Reston/1701-Whisperhill-Dr-20194/home/9211653,BRIGHT MLS,VAFX1117150,N,Y,38.9697696,-77.3558478
PAST SALE,February-22-2021,Single Family Residential,1219 Reston Ave,Herndon,VA,20170,985000,4,3.5,POPOVICH COSTA PROPERTY,3386,43577,2006,285,291,,Sold,,,https://www.redfin.com/VA/Herndon/1219-Reston-Ave-20170/home/9121498,BRIGHT MLS,VAFX1169414,N,Y,38.9910893,-77.3448031
PAST SALE,August-20-2019,Townhouse,1481 Autumn Ridge Cir,Reston,VA,20194,440500,3,3.5,RESTON,2040,2128,1986,837,216,58,Sold,,,https://www.redfin.com/VA/Reston/1481-Autumn-Ridge-Cir-20194/home/9133433,BRIGHT MLS,VAFX1075620,N,Y,38.9776979,-77.35576
PAST SALE,May-18-2021,Townhouse,1611 Fieldthorn Dr,Reston,VA,20194,437250,2,1.5,RESTON SEC 41 BLK 3 WHIS,1100,1499,1986,200,398,112,Sold,,,https://www.redfin.com/VA/Reston/1611-Fieldthorn-Dr-20194/home/9211472,BRIGHT MLS,VAFX1193460,N,Y,38.972031,-77.3565969
PAST SALE,July-1-2019,Single Family Residential,1415 Belcastle Ct,Reston,VA,20194,800000,3,2.5,RESTON,3354,7895,1994,887,239,266,Sold,,,https://www.redfin.com/VA/Reston/1415-Belcastle-Ct-20194/home/9147088,BRIGHT MLS,VAFX1053702,N,Y,38.9766675,-77.3405859
PAST SALE,January-11-2019,Condo/Co-op,1501 North Point Dr #301,Reston,VA,20194,305000,2,2.0,NORTH POINT VILLAS,1191,,1999,1058,256,399,Sold,,,https://www.redfin.com/VA/Reston/1501-N-Point-Dr-20194/unit-301/home/22035189,BRIGHT MLS,1009993318,N,Y,38.9805527,-77.3524073
PAST SALE,April-28-2021,Single Family Residential,12061 Summer Meadow Ln,Reston,VA,20194,815111,4,2.5,RESTON,3100,10060,1985,220,263,59,Sold,,,https://www.redfin.com/VA/Reston/12061-Summer-Meadow-Ln-20194/home/9210655,BRIGHT MLS,VAFX2000170,N,Y,38.9699525,-77.3649453
PAST SALE,October-14-2021,Townhouse,1569 Autumn Ridge Cir,Reston,VA,20194,440000,3,3.0,RESTON SEC 39 BLK 7,1740,2293,1988,51,253,176,Sold,,,https://www.redfin.com/VA/Reston/1569-Autumn-Ridge-Cir-20194/home/9133788,BRIGHT MLS,VAFX2020730,N,Y,38.9783888,-77.3573644
PAST SALE,April-5-2021,Townhouse,1207 Weatherstone Ct,Reston,VA,20194,635000,3,3.0,RESTON SEC 73 BLK 7 WEAT,2459,2620,1995,243,258,104,Sold,,,https://www.redfin.com/VA/Reston/1207-Weatherstone-Ct-20194/home/9125539,BRIGHT MLS,VAFX1182494,N,Y,38.986866,-77.341425
PAST SALE,May-24-2021,Single Family Residential,12063 Summer Meadow Ln,Reston,VA,20194,816000,4,3.5,RESTON,3100,12118,1985,194,263,60,Sold,,,https://www.redfin.com/VA/Reston/12063-Summer-Meadow-Ln-20194/home/9210661,BRIGHT MLS,VAFX1191574,N,Y,38.9701278,-77.3650799
PAST SALE,March-19-2021,Townhouse,1636 Harvest Green Ct,Reston,VA,20194,371600,2,1.5,RESTON SEC 49 BLK 3A 3B,1180,1070,1983,260,315,95,Sold,,,https://www.redfin.com/VA/Reston/1636-Harvest-Green-Ct-20194/home/9137088,BRIGHT MLS,VAFX1180314,N,Y,38.9762061,-77.3531924
PAST SALE,May-20-2019,Townhouse,1615 Purple Sage Dr,Reston,VA,20194,349800,2,1.5,RESTON,1248,1029,1985,929,280,110,Sold,,,https://www.redfin.com/VA/Reston/1615-Purple-Sage-Dr-20194/home/9131070,BRIGHT MLS,VAFX1002844,N,Y,38.973276,-77.363075
MLS Listing,,Townhouse,1259 Wild Hawthorn Way,Reston,VA,20194,625000,3,3.0,RESTON SEC 75 BLK 4B WIL,2082,1576,1995,1,300,109,Active,,,https://www.redfin.com/VA/Reston/1259-Wild-Hawthorn-Way-20194/home/9124796,BRIGHT MLS,VAFX2033380,N,Y,38.989917,-77.343022
MLS Listing,,Townhouse,11910 Crosswind Ct,Reston,VA,20194,405000,2,2.5,RESTON SEC 41 BLK 1A 1B,1190,1099,1985,2,340,103,Active,,,https://www.redfin.com/VA/Reston/11910-Crosswind-Ct-20194/home/9212033,BRIGHT MLS,VAFX2033126,N,Y,38.9695729,-77.356882
MLS Listing,,Townhouse,1499 Autumn Ridge Cir,Reston,VA,20194,559000,4,3.5,RESTON SEC 39 BLK 7,1740,2152,1986,3,321,116,Active,December-5-2021 01:00 PM,December-5-2021 03:00 PM,https://www.redfin.com/VA/Reston/1499-Autumn-Ridge-Cir-20194/home/9133505,BRIGHT MLS,VAFX2032116,N,Y,38.977129,-77.356187
MLS Listing,,Condo/Co-op,11408 Gate Hill Pl #118,Reston,VA,20194,399900,2,2.0,SUTTON RIDGE CONDO,1220,,1995,31,328,375,Active,December-5-2021 01:00 PM,December-5-2021 03:00 PM,https://www.redfin.com/VA/Reston/11408-Gate-Hill-Pl-20194/unit-118/home/9149858,BRIGHT MLS,VAFX2028194,N,Y,38.984597,-77.343435
MLS Listing,,Townhouse,1280 Vintage Pl,Reston,VA,20194,525000,2,3.5,RESTON SEC 75 BLK 4A VIN,1296,1242,1996,39,405,93,Active,,,https://www.redfin.com/VA/Reston/1280-Vintage-Pl-20194/home/9124011,BRIGHT MLS,VAFX2027018,N,Y,38.9877309,-77.344101
MLS Listing,,Townhouse,11415 Hollow Timber Way,Reston,VA,20194,740000,3,3.5,RESTON SEC 61 BLK 1 TIMB,1962,,1990,60,377,60,Active,December-5-2021 01:00 PM,December-5-2021 03:00 PM,https://www.redfin.com/VA/Reston/11415-Hollow-Timber-Way-20194/home/9145039,BRIGHT MLS,VAFX2000203,N,Y,38.979291,-77.342547
MLS Listing,,Single Family Residential,11955 Grey Squirrel Ln,Reston,VA,20194,885750,5,3.5,RESTON,2240,16921,1986,66,395,60,Active,,,https://www.redfin.com/VA/Reston/11955-Grey-Squirrel-Ln-20194/home/9129828,BRIGHT MLS,VAFX2023596,N,Y,38.9734982,-77.360325
MLS Listing,,Condo/Co-op,11313 Sundial Ct #208,Reston,VA,20194,339900,2,2.0,BALDWIN GROVE CONDO,1012,,1994,72,336,519,Active,,,https://www.redfin.com/VA/Reston/11313-Sundial-Ct-20194/unit-208/home/9147232,BRIGHT MLS,VAFX2024020,N,Y,38.981666,-77.337711
MLS Listing,,Condo/Co-op,1300-K Windleaf Dr #154,Reston,VA,20194,439900,3,2.0,SUTTON RIDGE CONDO,1239,,1995,136,355,375,Active,,,https://www.redfin.com/VA/Reston/1300K-Windleaf-Dr-20194/unit-154/home/177420326,BRIGHT MLS,VAFX2007270,N,Y,38.98448,-77.34468
PAST SALE,March-29-2021,Townhouse,11713 Great Owl Cir,Reston,VA,20194,649000,3,3.0,RESTON SEC 55 BLK 3B,2278,1775,1991,250,285,100,Sold,,,https://www.redfin.com/VA/Reston/11713-Great-Owl-Cir-20194/home/9140740,BRIGHT MLS,VAFX1180526,N,Y,38.981864,-77.350831
PAST SALE,,Condo/Co-op,11721 Summerchase Cir Unit A,Reston,VA,20194,331000,2,2.0,,1042,,1988,,318,,,,,https://www.redfin.com/VA/Reston/11721-Summerchase-Cir-20194/unit-A/home/9141450,,,N,Y,38.979161,-77.352329
PAST SALE,October-4-2019,Townhouse,1606 Harvest Green Ct,Reston,VA,20194,393999,3,2.5,RESTON SEC 49 BLK 3A 3B,1280,1380,1983,792,308,86,Sold,,,https://www.redfin.com/VA/Reston/1606-Harvest-Green-Ct-20194/home/9136971,BRIGHT MLS,VAFX1088832,N,Y,38.9765278,-77.3521942
PAST SALE,March-31-2021,Townhouse,11723 Great Owl Cir,Reston,VA,20194,600000,2,2.5,RESTON SEC 55 BLK 3B,2002,1782,1990,248,300,100,Sold,,,https://www.redfin.com/VA/Reston/11723-Great-Owl-Cir-20194/home/9140700,BRIGHT MLS,VAFX1175600,N,Y,38.9818939,-77.351397
PAST SALE,,Condo/Co-op,11708 Summerchase Cir,Reston,VA,20194,277500,2,2.0,,1042,,1987,,266,,,,,https://www.redfin.com/VA/Reston/11708-Summerchase-Cir-20194/home/9141188,,,N,Y,38.978737,-77.3526765
PAST SALE,June-26-2020,Townhouse,1602 Harvest Green Ct,Reston,VA,20194,400000,3,2.5,RESTON SEC 49 BLK 3A 3B,1280,1380,1983,526,313,90,Sold,,,https://www.redfin.com/VA/Reston/1602-Harvest-Green-Ct-20194/home/9136955,BRIGHT MLS,VAFX1127146,N,Y,38.9764729,-77.3520597
PAST SALE,November-30-2021,Townhouse,11483 Heritage Commons Way,Reston,VA,20194,520000,2,3.5,RESTON SEC 75 BLK 4A VIN,1546,1242,1996,4,336,93,Sold,,,https://www.redfin.com/VA/Reston/11483-Heritage-Commons-Way-20194/home/9124685,BRIGHT MLS,VAFX2026792,N,Y,38.98803,-77.3438709
PAST SALE,December-10-2020,Townhouse,1346 Sundial Dr,Reston,VA,20194,632000,3,2.5,RESTON SEC 61 BLK 3 PARK,2027,1738,1993,359,312,160,Sold,,,https://www.redfin.com/VA/Reston/1346-Sundial-Dr-20194/home/9146342,BRIGHT MLS,VAFX1156768,N,Y,38.982178,-77.338906
PAST SALE,January-5-2021,Townhouse,1318 Sundial Dr,Reston,VA,20194,690000,3,3.0,RESTON SEC 61 BLK 3 PARK,2364,2715,1993,333,292,160,Sold,,,https://www.redfin.com/VA/Reston/1318-Sundial-Dr-20194/home/9146452,BRIGHT MLS,VAFX1157226,N,Y,38.983147,-77.339535
PAST SALE,August-10-2020,Condo/Co-op,1504-E Summerchase Ct,Reston,VA,20194,321500,2,2.0,SUMMERRIDGE CONDO,1042,,1987,481,309,366,Sold,,,https://www.redfin.com/VA/Reston/1504-Summerchase-Ct-20194/unit-1504-E/home/9140847,BRIGHT MLS,VAFX1141656,N,Y,38.978467,-77.352473
PAST SALE,April-13-2021,Townhouse,11405 Summer House Ct,Reston,VA,20194,670000,3,2.5,RESTON SEC 61 BLK 3 PARK,1602,1697,1994,235,418,165,Sold,,,https://www.redfin.com/VA/Reston/11405-Summer-House-Ct-20194/home/9146013,BRIGHT MLS,VAFX1185880,N,Y,38.9815202,-77.3392062
PAST SALE,April-13-2021,Townhouse,1344 Sundial Dr,Reston,VA,20194,610000,3,3.0,RESTON SEC 61 BLK 3 PARK,1602,1682,1993,235,381,160,Sold,,,https://www.redfin.com/VA/Reston/1344-Sundial-Dr-20194/home/9146348,BRIGHT MLS,VAFX1185454,N,Y,38.98223,-77.338869
PAST SALE,July-20-2020,Single Family Residential,1429 Waterfront Rd,Reston,VA,20194,1038888,5,3.5,RESTON,4330,6224,1997,502,240,151,Sold,,,https://www.redfin.com/VA/Reston/1429-Waterfront-Rd-20194/home/9146799,BRIGHT MLS,VAFX1133976,N,Y,38.9759919,-77.3399129
PAST SALE,November-2-2020,Single Family Residential,1281 Golden Eagle Dr,Reston,VA,20194,936000,4,3.5,RESTON,3340,17278,1985,397,280,59,Sold,,,https://www.redfin.com/VA/Reston/1281-Golden-Eagle-Dr-20194/home/9137401,BRIGHT MLS,VAFX1158156,N,Y,38.9860589,-77.3457453
PAST SALE,February-27-2019,Single Family Residential,1402 Belcastle Ct,Reston,VA,20194,870000,4,3.5,RESTON,3665,5239,1994,1011,237,58,Sold,,,https://www.redfin.com/VA/Reston/1402-Belcastle-Ct-20194/home/9147013,BRIGHT MLS,VAFX745338,N,Y,38.977232,-77.3417075
PAST SALE,,Condo/Co-op,1325 Garden Wall Ct #501,Reston,VA,20194,260000,2,1.5,,832,,1993,,313,,,,,https://www.redfin.com/VA/Reston/1325-Garden-Wall-Ct-20194/unit-501/home/9147518,,,N,Y,38.982584,-77.337889
PAST SALE,November-20-2020,Townhouse,1346 Garden Wall Cir #514,Reston,VA,20194,380000,2,2.0,BALDWIN GROVE CONDO,1116,,1993,379,341,493,Sold,,,https://www.redfin.com/VA/Reston/1346-Garden-Wall-Cir-20194/unit-514/home/9147606,BRIGHT MLS,VAFX1152370,N,Y,38.982584,-77.337889
PAST SALE,July-17-2020,Single Family Residential,1407 Belcastle Ct,Reston,VA,20194,939000,3,2.5,RESTON,3354,7769,1994,505,280,283,Sold,,,https://www.redfin.com/VA/Reston/1407-Belcastle-Ct-20194/home/9147104,BRIGHT MLS,VAFX1133492,N,Y,38.9769223,-77.3410794
PAST SALE,March-31-2021,Townhouse,1306 Garden Wall Cir #114,Reston,VA,20194,400000,2,2.0,BALDWIN GROVE CONDO,1116,,1995,248,358,520,Sold,,,https://www.redfin.com/VA/Reston/1306-Garden-Wall-Cir-20194/unit-114/home/9147176,BRIGHT MLS,VAFX1180460,N,Y,38.9815577,-77.3379326
PAST SALE,September-30-2021,Condo/Co-op,1520 N Point Dr #304,Reston,VA,20194,367500,3,2.0,NORTH POINT VILLAS CONDO,1300,,1999,65,283,468,Sold,,,https://www.redfin.com/VA/Reston/1520-N-Point-Dr-20194/unit-304/home/28550819,BRIGHT MLS,VAFX2012378,N,Y,38.9796759,-77.3520933
PAST SALE,August-13-2020,Single Family Residential,11633 Springhouse Pl,Reston,VA,20194,825000,4,3.5,RESTON,3495,10727,1988,478,236,59,Sold,,,https://www.redfin.com/VA/Reston/11633-Springhouse-Pl-20194/home/9139954,BRIGHT MLS,VAFX1140746,N,Y,38.9825353,-77.3501867
PAST SALE,April-10-2020,Townhouse,1646 Harvest Green Ct,Reston,VA,20194,383000,2,2.0,RESTON SEC 49 BLK 3A 3B,1155,1023,1983,603,332,149,Sold,,,https://www.redfin.com/VA/Reston/1646-Harvest-Green-Ct-20194/home/9137122,BRIGHT MLS,VAFX1113994,N,Y,38.975883,-77.3533829
PAST SALE,September-30-2020,Townhouse,1326 Sundial Dr,Reston,VA,20194,690000,3,2.5,RESTON SEC 61 BLK 3 PARK,2364,3158,1993,430,292,160,Sold,,,https://www.redfin.com/VA/Reston/1326-Sundial-Dr-20194/home/9146417,BRIGHT MLS,VAFX1149208,N,Y,38.9829174,-77.3394193
PAST SALE,May-31-2019,Townhouse,1332 Sundial Dr,Reston,VA,20194,571500,3,2.5,RESTON,1902,1720,1993,918,300,208,Sold,,,https://www.redfin.com/VA/Reston/1332-Sundial-Dr-20194/home/9146390,BRIGHT MLS,VAFX1001794,N,Y,38.9827566,-77.3391012
PAST SALE,August-2-2019,Single Family Residential,11634 Springhouse Pl,Reston,VA,20194,760000,4,3.5,RESTON,2922,6750,1988,855,260,58,Sold,,,https://www.redfin.com/VA/Reston/11634-Springhouse-Pl-20194/home/9139949,BRIGHT MLS,VAFX1073818,N,Y,38.9826212,-77.3498727
PAST SALE,January-4-2019,Townhouse,1334 Sundial Dr,Reston,VA,20194,625000,3,2.5,RESTON,1998,1768,1993,1065,313,207,Sold,,,https://www.redfin.com/VA/Reston/1334-Sundial-Dr-20194/home/9146386,BRIGHT MLS,VAFX101320,N,Y,38.982646,-77.339051
PAST SALE,December-20-2019,Townhouse,1395 Heritage Oak Way,Reston,VA,20194,550000,3,3.0,RESTON SEC 61 BLK 2 HERI,1832,1783,1992,715,300,106,Sold,,,https://www.redfin.com/VA/Reston/1395-Heritage-Oak-Way-20194/home/9145931,BRIGHT MLS,VAFX1090090,N,Y,38.9806359,-77.33922
PAST SALE,April-5-2019,Townhouse,11705 Great Owl Cir,Reston,VA,20194,499900,2,3.5,RESTON,2278,1738,1988,974,219,158,Sold,,,https://www.redfin.com/VA/Reston/11705-Great-Owl-Cir-20194/home/9140400,BRIGHT MLS,VAFX995464,N,Y,38.9816071,-77.3505007
PAST SALE,December-20-2019,Townhouse,1613 Harvest Green Ct,Reston,VA,20194,381900,2,1.5,RESTON SEC 49 BLK 3A 3B,930,1716,1983,715,411,86,Sold,,,https://www.redfin.com/VA/Reston/1613-Harvest-Green-Ct-20194/home/9136908,BRIGHT MLS,VAFX1099050,N,Y,38.9760555,-77.3526428
PAST SALE,April-13-2020,Townhouse,11530 Hemingway Dr,Reston,VA,20194,770000,4,3.5,RESTON SEC 33 BLK 7A HEM,2696,2700,1994,600,286,100,Sold,,,https://www.redfin.com/VA/Reston/11530-Hemingway-Dr-20194/home/9136045,BRIGHT MLS,VAFX1114060,N,Y,38.977058,-77.34221
PAST SALE,December-21-2020,Townhouse,1563 Bennington Woods Ct,Reston,VA,20194,400000,3,2.5,RESTON SEC 31 BLK 4,1280,1360,1983,348,313,81,Sold,,,https://www.redfin.com/VA/Reston/1563-Bennington-Woods-Ct-20194/home/9134944,BRIGHT MLS,VAFX1165954,N,Y,38.9742279,-77.3501249
PAST SALE,March-14-2019,Townhouse,11458 Hollow Timber Ct,Reston,VA,20194,665900,4,3.5,RESTON,3096,3953,1992,996,215,223,Sold,,,https://www.redfin.com/VA/Reston/11458-Hollow-Timber-Ct-20194/home/9145409,BRIGHT MLS,VAFX992788,N,Y,38.980205,-77.3428969
PAST SALE,May-9-2019,Townhouse,11403 Hollow Timber Ct,Reston,VA,20194,634900,3,3.5,RESTON,3002,3317,1992,940,211,165,Sold,,,https://www.redfin.com/VA/Reston/11403-Hollow-Timber-Ct-20194/home/9145156,BRIGHT MLS,VAFX1001638,N,Y,38.979389,-77.341144
PAST SALE,March-17-2021,Townhouse,11790 Great Owl Cir,Reston,VA,20194,660000,3,3.5,RESTON SEC 55 BLK 3A,2654,2280,1989,262,249,160,Sold,,,https://www.redfin.com/VA/Reston/11790-Great-Owl-Cir-20194/home/9140131,BRIGHT MLS,VAFX1177952,N,Y,38.981208,-77.3519811
PAST SALE,August-26-2020,Townhouse,11405 Hollow Timber Ct,Reston,VA,20194,645000,2,3.5,RESTON SEC 61 BLK 1 TIMB,2940,3370,1992,465,219,180,Sold,,,https://www.redfin.com/VA/Reston/11405-Hollow-Timber-Ct-20194/home/9145150,BRIGHT MLS,VAFX1141532,N,Y,38.979354,-77.341278
PAST SALE,April-17-2020,Townhouse,11409 Hollow Timber Ct,Reston,VA,20194,685000,3,3.5,RESTON SEC 61 BLK 1 TIMB,3076,2872,1992,596,223,165,Sold,,,https://www.redfin.com/VA/Reston/11409-Hollow-Timber-Ct-20194/home/9145140,BRIGHT MLS,VAFX1110152,N,Y,38.97966,-77.341287
PAST SALE,March-7-2019,Single Family Residential,11636 Old Brookville Ct,Reston,VA,20194,790000,3,3.5,RESTON,1983,5473,1988,1003,398,124,Sold,,,https://www.redfin.com/VA/Reston/11636-Old-Brookville-Ct-20194/home/9139659,BRIGHT MLS,VAFX748726,N,Y,38.9814066,-77.3479436
PAST SALE,March-12-2021,Single Family Residential,1258 New Bedford Ln,Reston,VA,20194,1573000,5,4.5,NEW BEDFORD,6199,18885,1992,267,254,5,Sold,,,https://www.redfin.com/VA/Reston/1258-New-Bedford-Ln-20194/home/9146735,BRIGHT MLS,VAFX1176892,N,Y,38.9816221,-77.3336539
PAST SALE,,Condo/Co-op,1515 N Point Dr Unit 02-0202,Reston,VA,20194,330000,2,2.0,,1191,,1999,,277,,,,,https://www.redfin.com/VA/Reston/1515-N-Point-Dr-20194/unit-02-0202/home/21705815,,,N,Y,38.979918,-77.3513755
PAST SALE,,Condo/Co-op,1515 N Point Dr Unit 02-0101,Reston,VA,20194,308000,2,2.0,,1191,,1999,,259,,,,,https://www.redfin.com/VA/Reston/1515-N-Point-Dr-20194/unit-02-0101/home/21705328,,,N,Y,38.979918,-77.3513755
PAST SALE,June-27-2019,Townhouse,1283 Weatherstone Ct,Reston,VA,20194,560000,3,3.5,RESTON,2382,2611,1996,891,235,92,Sold,,,https://www.redfin.com/VA/Reston/1283-Weatherstone-Ct-20194/home/9144521,BRIGHT MLS,VAFX1058556,N,Y,38.9851017,-77.3403167
PAST SALE,,Condo/Co-op,1519 N Point Dr Unit 01-0304,Reston,VA,20194,340000,2,2.0,,1191,,1999,,285,,,,,https://www.redfin.com/VA/Reston/1519-N-Point-Dr-20194/unit-01-0304/home/17112058,,,N,Y,38.9795971,-77.3513755
PAST SALE,September-2-2020,Condo/Co-op,1519 N Point Dr #303,Reston,VA,20194,340000,2,2.0,NORTH POINT VILLAS CONDO,1191,,1999,458,285,343,Sold,,,https://www.redfin.com/VA/Reston/1519-N-Point-Dr-20194/unit-303/home/17111311,BRIGHT MLS,VAFX1144552,N,Y,38.9795971,-77.3513755
PAST SALE,,Condo/Co-op,1520 N Point Dr Unit 03-0303,Reston,VA,20194,345000,3,2.0,,1300,,1999,,265,,,,,https://www.redfin.com/VA/Reston/1520-N-Point-Dr-20194/unit-03-0303/home/12074400,,,N,Y,38.9796759,-77.3520933
PAST SALE,,Condo/Co-op,1520 N Point Dr Unit 03-0304,Reston,VA,20194,315000,3,2.0,,1300,,1999,,242,,,,,https://www.redfin.com/VA/Reston/1520-N-Point-Dr-20194/unit-03-0304/home/12074355,,,N,Y,38.9796759,-77.3520933
PAST SALE,,Condo/Co-op,1509 N Point Dr Unit 06-0001,Reston,VA,20194,335000,2,2.0,,1050,,1999,,319,,,,,https://www.redfin.com/VA/Reston/1509-N-Point-Dr-20194/unit-06-0001/home/9855606,,,N,Y,38.980614,-77.351586
PAST SALE,,Condo/Co-op,1505 N Point Dr Unit 07-0101,Reston,VA,20194,315000,2,1.0,,947,,1999,,333,,,,,https://www.redfin.com/VA/Reston/1505-N-Point-Dr-20194/unit-07-0101/home/9854090,,,N,Y,38.9805881,-77.3519975
PAST SALE,,Condo/Co-op,1505 N Point Dr Unit 07-0301,Reston,VA,20194,302500,2,1.0,,947,,1999,,319,,,,,https://www.redfin.com/VA/Reston/1505-N-Point-Dr-20194/unit-07-0301/home/9854095,,,N,Y,38.9805881,-77.3519975
PAST SALE,,Condo/Co-op,1501 N Point Dr Unit 08-0304,Reston,VA,20194,359500,3,2.0,,1300,,1999,,277,,,,,https://www.redfin.com/VA/Reston/1501-N-Point-Dr-20194/unit-08-0304/home/9855272,,,N,Y,38.9805527,-77.3524073
PAST SALE,March-23-2020,Condo/Co-op,1575 Church Hill Pl #1575,Reston,VA,20194,350051,1,2.0,HAMPTON POINTE CONDO,1256,,1989,621,279,431,Sold,,,https://www.redfin.com/VA/Reston/1575-Church-Hill-Pl-20194/unit-1575/home/12446608,BRIGHT MLS,VAFX1111360,N,Y,38.978142,-77.347844
PAST SALE,August-19-2019,Single Family Residential,11121 Tommye Ln,Reston,VA,20194,905000,4,3.5,PINEY RUN MEADOW,3465,36047,1997,838,261,42,Sold,,,https://www.redfin.com/VA/Reston/11121-Tommye-Ln-20194/home/9152614,BRIGHT MLS,VAFX1067856,N,Y,38.987161,-77.3302214
PAST SALE,January-11-2019,Single Family Residential,11129 Tommye Ln,Reston,VA,20194,1005888,5,4.5,PINEY RUN MEADOW,4942,57291,1998,1058,204,50,Sold,,,https://www.redfin.com/VA/Reston/11129-Tommye-Ln-20194/home/9152626,BRIGHT MLS,1000483568,N,Y,38.986325,-77.329614
PAST SALE,March-31-2021,Townhouse,1218 Weatherstone Ct,Reston,VA,20194,622500,3,3.0,RESTON SEC 73 BLK 7 WEAT,1660,2864,1994,248,375,104,Sold,,,https://www.redfin.com/VA/Reston/1218-Weatherstone-Ct-20194/home/9144672,BRIGHT MLS,VAFX1190286,N,Y,38.9862361,-77.3416065
PAST SALE,April-14-2021,Single Family Residential,1305 Stamford Way,Reston,VA,20194,1075000,6,4.5,RESTON,5119,15134,1989,234,210,60,Sold,,,https://www.redfin.com/VA/Reston/1305-Stamford-Way-20194/home/9158901,BRIGHT MLS,VAFX1185192,N,Y,38.9794094,-77.3317694
PAST SALE,March-18-2021,Single Family Residential,1307 Stamford Way,Reston,VA,20194,1075000,6,4.5,RESTON,4044,15881,1989,261,266,60,Sold,,,https://www.redfin.com/VA/Reston/1307-Stamford-Way-20194/home/9158904,BRIGHT MLS,VAFX1179862,N,Y,38.9791687,-77.3317694
PAST SALE,September-24-2019,Vacant Land,11572 Greenwich Point Rd,Reston,VA,20194,850000,,,Reston,,14065,2021,802,,58,Sold,,,https://www.redfin.com/VA/Reston/11572-Greenwich-Point-Rd-20194/home/162551933,BRIGHT MLS,VAFX1091266,N,Y,38.974845,-77.342751
PAST SALE,October-31-2019,Single Family Residential,1309 Stamford Way,Reston,VA,20194,900000,6,4.5,RESTON,5623,15153,1989,765,160,56,Sold,,,https://www.redfin.com/VA/Reston/1309-Stamford-Way-20194/home/9158907,BRIGHT MLS,VAFX1073244,N,Y,38.9788703,-77.3317919
PAST SALE,,Single Family Residential,1315 Gatesmeadow Way,Reston,VA,20194,950000,5,3.5,,3587,11308,1997,,265,,,,,https://www.redfin.com/VA/Reston/1315-Gatesmeadow-Way-20194/home/9160316,,,N,Y,38.9763074,-77.3238049
PAST SALE,August-21-2020,Single Family Residential,1321 Gatesmeadow Way,Reston,VA,20194,915000,4,4.5,CRIPPENS CORNER,4670,12731,2000,470,196,143,Sold,,,https://www.redfin.com/VA/Reston/1321-Gatesmeadow-Way-20194/home/9160337,BRIGHT MLS,VAFX1125246,N,Y,38.9756529,-77.3238722
PAST SALE,March-15-2019,Single Family Residential,1326 Murray Downs Way,Reston,VA,20194,769900,4,3.5,CRIPPENS CORNER,3608,6960,1998,995,213,90,Sold,,,https://www.redfin.com/VA/Reston/1326-Murray-Downs-Way-20194/home/9161125,BRIGHT MLS,VAFX993130,N,Y,38.9762488,-77.3229075
PAST SALE,August-20-2021,Single Family Residential,11407 Night Star Way,Reston,VA,20194,960000,5,3.5,RESTON,2723,12356,1994,106,353,70,Sold,,,https://www.redfin.com/VA/Reston/11407-Night-Star-Way-20194/home/9123268,BRIGHT MLS,VAFX1202256,N,Y,38.9900521,-77.3419318
PAST SALE,April-11-2019,Single Family Residential,1386 Cameron Heath Dr,Reston,VA,20194,1195000,4,3.5,HUNTERS END,7966,11160,2002,968,150,92,Sold,,,https://www.redfin.com/VA/Reston/1386-Cameron-Heath-Dr-20194/home/9832398,BRIGHT MLS,VAFX867948,N,Y,38.9755426,-77.3294362
PAST SALE,August-23-2021,Condo/Co-op,1431 Church Hill Pl #1431,Reston,VA,20194,380000,2,2.0,HAMPTON POINTE CONDO,1159,,1988,103,328,427,Sold,,,https://www.redfin.com/VA/Reston/1431-Church-Hill-Pl-20194/unit-1431/home/9142163,BRIGHT MLS,VAFX2009518,N,Y,38.979338,-77.3462349
PAST SALE,November-5-2021,Single Family Residential,11401 Northwind Ct,Reston,VA,20194,840000,4,3.5,RESTON,3720,6439,1996,29,226,77,Sold,,,https://www.redfin.com/VA/Reston/11401-Northwind-Ct-20194/home/9123581,BRIGHT MLS,VAFX2025616,N,Y,38.9907084,-77.3395091
PAST SALE,September-27-2019,Townhouse,11407 Heritage Oak Ct,Reston,VA,20194,570000,3,3.0,RESTON,1816,1759,1993,799,314,106,Sold,,,https://www.redfin.com/VA/Reston/11407-Heritage-Oak-Ct-20194/home/9145479,BRIGHT MLS,VAFX1083226,N,Y,38.979973,-77.339765
PAST SALE,November-5-2021,Single Family Residential,1138 Round Pebble Ln,Reston,VA,20194,1250000,5,4.5,RESTON,4508,20456,1994,29,277,60,Sold,,,https://www.redfin.com/VA/Reston/1138-Round-Pebble-Ln-20194/home/9122918,BRIGHT MLS,VAFX2025572,N,Y,38.9920679,-77.340384
PAST SALE,March-17-2020,Condo/Co-op,1300 Windleaf Dr #157,Reston,VA,20194,385000,2,2.0,SUTTON RIDGE CONDO,1360,,1995,627,283,366,Sold,,,https://www.redfin.com/VA/Reston/1300-Windleaf-Dr-20194/unit-157/home/9150114,BRIGHT MLS,VAFX1115022,N,Y,38.98448,-77.34468
PAST SALE,December-20-2018,Condo/Co-op,1515 North Point Dr #101,Reston,VA,20194,308000,2,2.0,NORTH POINT VILLAS,1191,,1999,1080,259,400,Sold,,,https://www.redfin.com/VA/Reston/1515-N-Point-Dr-20194/unit-101/home/147121527,BRIGHT MLS,1009912462,N,Y,38.979918,-77.3513755
PAST SALE,March-29-2019,Condo/Co-op,11400K Windleaf Ct #40,Reston,VA,20194,400000,2,2.5,SUTTON RIDGE,1420,,1996,981,282,365,Sold,,,https://www.redfin.com/VA/Reston/11400K-Windleaf-Ct-20194/unit-40/home/176275912,BRIGHT MLS,VAFX748748,N,Y,38.98587,-77.342736
PAST SALE,June-30-2021,Condo/Co-op,1304-B Garden Wall Cir #105,Reston,VA,20194,286000,2,2.0,BALDWIN GROVE CONDO,1053,,1995,157,272,514,Sold,,,https://www.redfin.com/VA/Reston/1304-Garden-Wall-Cir-20194/unit-105/home/9147127,BRIGHT MLS,VAFX1195640,N,Y,38.981598,-77.3381425
PAST SALE,April-28-2021,Townhouse,11811 Great Owl Cir,Reston,VA,20194,655000,3,3.5,RESTON SEC 55 BLK 3A,1736,2550,1988,220,377,60,Sold,,,https://www.redfin.com/VA/Reston/11811-Great-Owl-Cir-20194/home/9140382,BRIGHT MLS,VAFX1185022,N,Y,38.981486,-77.3508596
PAST SALE,March-11-2021,Townhouse,1676 Bayfield Way,Reston,VA,20194,480000,3,2.5,RESTON SEC 45 BLK 6,1720,2108,1983,268,279,137,Sold,,,https://www.redfin.com/VA/Reston/1676-Bayfield-Way-20194/home/9136470,BRIGHT MLS,VAFX1176638,N,Y,38.9742672,-77.35234
PAST SALE,January-31-2020,Single Family Residential,1144 Round Pebble Ln,Reston,VA,20194,950000,5,4.5,RESTON,6840,20075,1994,673,139,58,Sold,,,https://www.redfin.com/VA/Reston/1144-Round-Pebble-Ln-20194/home/9122898,BRIGHT MLS,VAFX100659,N,Y,38.991488,-77.3394866
PAST SALE,July-24-2020,Single Family Residential,1159-B Fieldview Dr,Reston,VA,20194,1285000,6,4.5,ESTATES AT WYNDHAM HILLS,5885,26507,1998,498,218,12,Sold,,,https://www.redfin.com/VA/Reston/1159-Fieldview-Dr-20194/unit-B/home/9126161,BRIGHT MLS,VAFX1124436,N,Y,38.9894965,-77.3351054
PAST SALE,January-7-2019,Townhouse,11504 Hemingway Dr,Reston,VA,20194,1025000,4,3.5,RESTON,3104,2336,1995,1062,330,57,Sold,,,https://www.redfin.com/VA/Reston/11504-Hemingway-Dr-20194/home/9136140,BRIGHT MLS,1004096890,N,Y,38.9761795,-77.3424812
PAST SALE,April-7-2020,Condo/Co-op,1367-D Garden Wall Cir #706,Reston,VA,20194,350200,2,2.0,BALDWIN GROVE CONDO,1053,,1993,606,333,472,Sold,,,https://www.redfin.com/VA/Reston/1367-Garden-Wall-Cir-20194/unit-706/home/9147746,BRIGHT MLS,VAFX1116340,N,Y,38.9828922,-77.3383428
PAST SALE,May-22-2019,Townhouse,1264 Vintage Pl,Reston,VA,20194,480000,3,2.5,RESTON,1296,1877,1996,927,370,58,Sold,,,https://www.redfin.com/VA/Reston/1264-Vintage-Pl-20194/home/9123952,BRIGHT MLS,VAFX1055586,N,Y,38.987616,-77.343479
PAST SALE,February-27-2020,Single Family Residential,11577 Greenwich Point Rd,Reston,VA,20194,1365000,4,4.5,RESTON,4885,12538,1991,646,279,59,Sold,,,https://www.redfin.com/VA/Reston/11577-Greenwich-Point-Rd-20194/home/9135594,BRIGHT MLS,VAFX1103022,N,Y,38.975134,-77.3439732
PAST SALE,August-8-2019,Condo/Co-op,1307-D Windleaf Dr #132,Reston,VA,20194,417000,2,2.0,SUTTON RIDGE,1360,,1997,849,307,365,Sold,,,https://www.redfin.com/VA/Reston/1307-Windleaf-Dr-20194/unit-132/home/9149948,BRIGHT MLS,VAFX1075390,N,Y,38.984128,-77.344129
PAST SALE,September-10-2021,Townhouse,1711 Quietree Dr,Reston,VA,20194,462500,3,2.5,RESTON SEC 41 BLK 1A 1B,1400,930,1986,85,330,98,Sold,,,https://www.redfin.com/VA/Reston/1711-Quietree-Dr-20194/home/9212567,BRIGHT MLS,VAFX2002276,N,Y,38.968074,-77.357664
PAST SALE,September-30-2020,Townhouse,1573 Poplar Grove Dr,Reston,VA,20194,392000,3,2.5,RESTON SEC 39 BLK 2 BLK,1340,1419,1986,430,293,140,Sold,,,https://www.redfin.com/VA/Reston/1573-Poplar-Grove-Dr-20194/home/9132093,BRIGHT MLS,VAFX1141390,N,Y,38.977414,-77.35969
PAST SALE,September-3-2020,Single Family Residential,11260 Stones Throw Dr,Reston,VA,20194,1260000,5,4.5,ESTATES AT WYNDHAM HILLS,6300,26565,1999,457,200,12,Sold,,,https://www.redfin.com/VA/Reston/11260-Stones-Throw-Dr-20194/home/9126106,BRIGHT MLS,VAFX1137344,N,Y,38.989876,-77.3328463
PAST SALE,March-19-2019,Condo/Co-op,1314-A Garden Wall Cir,Reston,VA,20194,315000,2,2.0,BALDWIN GROVE,1053,,1994,991,299,474,Sold,,,https://www.redfin.com/VA/Reston/1314A-Garden-Wall-Cir-20194/unit-A/home/143320764,BRIGHT MLS,VAFX992792,N,Y,38.981666,-77.337711
PAST SALE,March-15-2021,Single Family Residential,11327 Woodbrook Ln,Reston,VA,20194,975000,4,3.5,RESTON,3687,12267,1992,264,264,60,Sold,,,https://www.redfin.com/VA/Reston/11327-Woodbrook-Ln-20194/home/9144492,BRIGHT MLS,VAFX1174598,N,Y,38.9852907,-77.33583
PAST SALE,February-28-2020,Townhouse,1569 Brass Lantern Way,Reston,VA,20194,700000,3,3.5,RESTON SEC 35 BLK 2 THE,2259,4365,1988,645,310,103,Sold,,,https://www.redfin.com/VA/Reston/1569-Brass-Lantern-Way-20194/home/9138961,BRIGHT MLS,VAFX1108624,N,Y,38.9778886,-77.3450387
PAST SALE,,Condo/Co-op,1519 N Point Dr Unit 01-0201,Reston,VA,20194,320000,3,2.0,,1300,,1999,,246,,,,,https://www.redfin.com/VA/Reston/1519-N-Point-Dr-20194/unit-01-0201/home/17111313,,,N,Y,38.9795971,-77.3513755
PAST SALE,,Condo/Co-op,1519 N Point Dr Unit 01-0102,Reston,VA,20194,378000,3,2.0,,1300,,1999,,291,,,,,https://www.redfin.com/VA/Reston/1519-N-Point-Dr-20194/unit-01-0102/home/17112061,,,N,Y,38.9795971,-77.3513755
PAST SALE,,Townhouse,11428 Hollow Timber Way,Reston,VA,20194,665000,3,3.5,,2106,3366,1990,,316,,,,,https://www.redfin.com/VA/Reston/11428-Hollow-Timber-Way-20194/home/9144999,,,N,Y,38.979779,-77.342896
PAST SALE,July-22-2020,Single Family Residential,1312 Red Hawk Cir,Reston,VA,20194,815000,4,4.5,RESTON,2898,5117,1998,500,281,183,Sold,,,https://www.redfin.com/VA/Reston/1312-Red-Hawk-Cir-20194/home/9150374,BRIGHT MLS,VAFX1131260,N,Y,38.9858098,-77.3449377
PAST SALE,October-7-2020,Condo/Co-op,1307 Windleaf Dr #192,Reston,VA,20194,344000,2,2.0,SUTTON RIDGE CONDO,1100,,1997,423,313,366,Sold,,,https://www.redfin.com/VA/Reston/1307-Windleaf-Dr-20194/unit-192/home/9150347,BRIGHT MLS,VAFX1149920,N,Y,38.984128,-77.344129
PAST SALE,July-7-2020,Townhouse,1271 Weatherstone Ct,Reston,VA,20194,575000,3,3.5,RESTON SEC 73 BLK 7 WEAT,1622,1934,1996,515,355,,Sold,,,https://www.redfin.com/VA/Reston/1271-Weatherstone-Ct-20194/home/9144556,BRIGHT MLS,VAFX1139858,N,Y,38.9852589,-77.339787
PAST SALE,December-7-2018,Townhouse,1579 Brass Lantern Way,Reston,VA,20194,659000,4,3.5,RESTON,2996,4034,1988,1093,220,103,Sold,,,https://www.redfin.com/VA/Reston/1579-Brass-Lantern-Way-20194/home/9138931,BRIGHT MLS,1009921376,N,Y,38.9774086,-77.3449602
PAST SALE,April-15-2019,Townhouse,11796 Bayfield Ct,Reston,VA,20194,399999,2,2.5,RESTON,1160,2201,1984,964,345,,Sold,,,https://www.redfin.com/VA/Reston/11796-Bayfield-Ct-20194/home/9136858,BRIGHT MLS,VAFX867842,N,Y,38.9750051,-77.3525756
PAST SALE,October-9-2019,Single Family Residential,11593 Lake Newport Rd,Reston,VA,20194,765000,4,3.5,RESTON,3717,13948,1985,787,206,58,Sold,,,https://www.redfin.com/VA/Reston/11593-Lake-Newport-Rd-20194/home/9135639,BRIGHT MLS,VAFX1082878,N,Y,38.9750396,-77.3473155
PAST SALE,August-31-2020,Condo/Co-op,1307 Windleaf Dr #131,Reston,VA,20194,330000,2,2.0,SUTTON RIDGE CONDO,1020,,1997,460,324,371,Sold,,,https://www.redfin.com/VA/Reston/1307-Windleaf-Dr-20194/unit-131/home/9149939,BRIGHT MLS,VAFX1140096,N,Y,38.984128,-77.344129
PAST SALE,January-8-2021,Condo/Co-op,11408 Gate Hill Pl #119,Reston,VA,20194,407000,3,2.0,SUTTON RIDGE CONDO,1239,,1995,330,328,375,Sold,,,https://www.redfin.com/VA/Reston/11408-Gate-Hill-Pl-20194/unit-119/home/9149865,BRIGHT MLS,VAFX1170096,N,Y,38.984597,-77.343435
PAST SALE,March-4-2020,Condo/Co-op,1381 Garden Wall Cir #613,Reston,VA,20194,279900,2,1.0,BALDWIN GROVE CONDO,788,,1993,640,355,349,Sold,,,https://www.redfin.com/VA/Reston/1381-Garden-Wall-Cir-20194/unit-613/home/9147696,BRIGHT MLS,VAFX1108346,N,Y,38.983081,-77.33797
PAST SALE,,Condo/Co-op,11407 Gate Hill Pl #102,Reston,VA,20194,375000,2,2.0,,1220,,1997,,307,,,,,https://www.redfin.com/VA/Reston/11407-Gate-Hill-Pl-20194/unit-102/home/9149750,,,N,Y,38.9840019,-77.343143
PAST SALE,,Condo/Co-op,11407 Gate Hill Pl #100,Reston,VA,20194,408000,2,2.0,,1360,,1997,,300,,,,,https://www.redfin.com/VA/Reston/11407-Gate-Hill-Pl-20194/unit-100/home/9149738,,,N,Y,38.9840019,-77.343143
PAST SALE,October-25-2019,Townhouse,1225 Woodbrook Ct,Reston,VA,20194,670000,3,3.5,RESTON,2670,3057,1993,771,251,58,Sold,,,https://www.redfin.com/VA/Reston/1225-Woodbrook-Ct-20194/home/9144222,BRIGHT MLS,VAFX1079410,N,Y,38.9843789,-77.335671
PAST SALE,September-14-2020,Townhouse,1585 Brass Lantern Way,Reston,VA,20194,630000,3,3.5,RESTON SEC 35 BLK 2 THE,2638,3245,1988,446,239,103,Sold,,,https://www.redfin.com/VA/Reston/1585-Brass-Lantern-Way-20194/home/9138913,BRIGHT MLS,VAFX1134016,N,Y,38.9770652,-77.3449377
PAST SALE,September-10-2021,Single Family Residential,11571 Hemingway Dr,Reston,VA,20194,875428,3,2.5,RESTON,3191,4783,1991,85,274,110,Sold,,,https://www.redfin.com/VA/Reston/11571-Hemingway-Dr-20194/home/9135776,BRIGHT MLS,VAFX2012992,N,Y,38.9783355,-77.3440853
PAST SALE,September-30-2021,Townhouse,1256 Wedgewood Manor Way,Reston,VA,20194,636420,3,2.5,RESTON SEC 73 BLK 4 WEDG,2416,3721,1994,65,263,59,Sold,,,https://www.redfin.com/VA/Reston/1256-Wedgewood-Manor-Way-20194/home/9143664,BRIGHT MLS,VAFX2008386,N,Y,38.983605,-77.336097
PAST SALE,June-29-2020,Townhouse,1383 Park Garden Ln,Reston,VA,20194,594000,3,3.5,RESTON SEC 63 BLK 3 PARK,2505,1768,1993,523,237,100,Sold,,,https://www.redfin.com/VA/Reston/1383-Park-Garden-Ln-20194/home/9149051,BRIGHT MLS,VAFX1128260,N,Y,38.983005,-77.343161
PAST SALE,January-17-2019,Condo/Co-op,1307 Windleaf Dr Unit M,Reston,VA,20194,345000,2,2.0,SUTTON RIDGE,1012,,1997,1052,341,364,Sold,,,https://www.redfin.com/VA/Reston/1307-Windleaf-Dr-20194/unit-138/home/9149994,BRIGHT MLS,VAFX221306,N,Y,38.984128,-77.344129
PAST SALE,December-15-2020,Single Family Residential,11319 Woodbrook Ln,Reston,VA,20194,905000,4,3.5,RESTON,3728,13181,1991,354,243,59,Sold,,,https://www.redfin.com/VA/Reston/11319-Woodbrook-Ln-20194/home/9144447,BRIGHT MLS,VAFX1163174,N,Y,38.9853019,-77.3352019
PAST SALE,April-26-2021,Townhouse,1434 Park Garden Ln,Reston,VA,20194,650000,3,3.5,RESTON SEC 63 BLK 3 PARK,2040,1460,1994,222,319,159,Sold,,,https://www.redfin.com/VA/Reston/1434-Park-Garden-Ln-20194/home/9148663,BRIGHT MLS,VAFX1177268,N,Y,38.983609,-77.345237
PAST SALE,August-30-2019,Single Family Residential,1610 Stowe Rd,Reston,VA,20194,765000,4,2.5,RESTON,2632,27297,1982,827,291,63,Sold,,,https://www.redfin.com/VA/Reston/1610-Stowe-Rd-20194/home/9226581,BRIGHT MLS,VAFX1072162,N,Y,38.9714144,-77.3515788
PAST SALE,March-17-2020,Single Family Residential,11678 Bennington Woods Rd,Reston,VA,20194,825000,5,3.5,RESTON,4072,14426,1984,627,203,59,Sold,,,https://www.redfin.com/VA/Reston/11678-Bennington-Woods-Rd-20194/home/9226432,BRIGHT MLS,VAFX1106906,N,Y,38.9716274,-77.3483922
PAST SALE,,Single Family Residential,11690 Stockbridge Ln,Reston,VA,20194,615000,4,2.5,,1614,9212,1983,,381,,,,,https://www.redfin.com/VA/Reston/11690-Stockbridge-Ln-20194/home/9227152,,,N,Y,38.9692185,-77.3516671
PAST SALE,,Condo/Co-op,1519 N Point Dr Unit 01-0302,Reston,VA,20194,340000,3,2.0,,1300,,1999,,262,,,,,https://www.redfin.com/VA/Reston/1519-N-Point-Dr-20194/unit-01-0302/home/22961512,,,N,Y,38.9795971,-77.3513755
PAST SALE,April-26-2021,Townhouse,1554 Bennington Woods Ct,Reston,VA,20194,460000,3,2.5,RESTON SEC 31 BLK 4,1220,1360,1983,222,377,83,Sold,,,https://www.redfin.com/VA/Reston/1554-Bennington-Woods-Ct-20194/home/9135023,BRIGHT MLS,VAFX1183148,N,Y,38.9747579,-77.3502315
PAST SALE,October-27-2021,Single Family Residential,1408 Hemingway Ct,Reston,VA,20194,830000,5,3.5,RESTON,3802,4047,1991,38,218,110,Sold,,,https://www.redfin.com/VA/Reston/1408-Hemingway-Ct-20194/home/9135806,BRIGHT MLS,VAFX2017442,N,Y,38.9776536,-77.3440853
PAST SALE,August-19-2019,Single Family Residential,1505 N Village Rd,Reston,VA,20194,755000,4,3.0,RESTON,3506,14319,1989,838,215,58,Sold,,,https://www.redfin.com/VA/Reston/1505-N-Village-Rd-20194/home/9135498,BRIGHT MLS,VAFX996654,N,Y,38.9760757,-77.3445115
PAST SALE,April-15-2019,Condo/Co-op,1506-A Summerchase Ct Unit A,Reston,VA,20194,265000,2,1.0,SUMMERRIDGE,952,,1987,964,278,351,Sold,,,https://www.redfin.com/VA/Reston/1506-Summerchase-Ct-20194/unit-A/home/9140851,BRIGHT MLS,VAFX999100,N,Y,38.978933,-77.352875
PAST SALE,May-31-2019,Condo/Co-op,11404-Q Gate Hill Pl #96,Reston,VA,20194,385000,2,2.5,SUTTON RIDGE,1250,,1997,918,308,365,Sold,,,https://www.redfin.com/VA/Reston/11404Q-Gate-Hill-Pl-20194/unit-96/home/45465994,BRIGHT MLS,VAFX1054358,N,Y,38.9849147,-77.3424015
PAST SALE,March-22-2019,Condo/Co-op,11708-E Summerchase Cir Unit 1708-E,Reston,VA,20194,277500,2,2.0,SUMMERRIDGE,1042,,1987,988,266,351,Sold,,,https://www.redfin.com/VA/Reston/11708-Summerchase-Cir-20194/unit-1708-E/home/21654621,BRIGHT MLS,VAFX993462,N,Y,38.978737,-77.3526765
PAST SALE,June-7-2019,Single Family Residential,1466 Waterfront Rd,Reston,VA,20194,1350000,4,3.0,RESTON,4832,8865,1995,911,279,92,Sold,,,https://www.redfin.com/VA/Reston/1466-Waterfront-Rd-20194/home/9146925,BRIGHT MLS,VAFX1000226,N,Y,38.9752987,-77.3418196
PAST SALE,April-23-2021,Townhouse,1403 Newport Spring Ct,Reston,VA,20194,580000,3,3.5,RESTON SEC 57 BLK 3,1819,1654,1989,225,319,186,Sold,,,https://www.redfin.com/VA/Reston/1403-Newport-Spring-Ct-20194/home/9139214,BRIGHT MLS,VAFX1184176,N,Y,38.980955,-77.353592
PAST SALE,June-24-2021,Townhouse,11511 Wild Hawthorn Ct,Reston,VA,20194,605000,3,3.0,RESTON SEC 75 BLK 4B WIL,1762,1574,1996,163,343,108,Sold,,,https://www.redfin.com/VA/Reston/11511-Wild-Hawthorn-Ct-20194/home/9125244,BRIGHT MLS,VAFX1202064,N,Y,38.989548,-77.34365
PAST SALE,June-24-2021,Townhouse,1386 Heritage Oak Way,Reston,VA,20194,681250,3,3.0,RESTON SEC 61 BLK 2 HERI,2147,2449,1992,163,317,110,Sold,,,https://www.redfin.com/VA/Reston/1386-Heritage-Oak-Way-20194/home/9145632,BRIGHT MLS,VAFX1205226,N,Y,38.980516,-77.339693
PAST SALE,June-25-2021,Townhouse,11473 Heritage Commons Way,Reston,VA,20194,547000,3,3.5,RESTON SEC 75 BLK 4A VIN,1602,1170,1996,162,341,93,Sold,,,https://www.redfin.com/VA/Reston/11473-Heritage-Commons-Way-20194/home/9124658,BRIGHT MLS,VAFX1203088,N,Y,38.987922,-77.3435219
PAST SALE,June-25-2021,Townhouse,1725 Whisperhill Dr,Reston,VA,20194,392000,2,2.5,RESTON SEC 41 BLK 1A 1B,1152,1074,1985,162,340,103,Sold,,,https://www.redfin.com/VA/Reston/1725-Whisperhill-Dr-20194/home/9211743,BRIGHT MLS,VAFX1206238,N,Y,38.9696428,-77.355668
PAST SALE,June-18-2021,Single Family Residential,1216 Bishopsgate Way,Reston,VA,20194,975000,4,3.5,ASCOT,3384,37465,1983,169,288,13,Sold,,,https://www.redfin.com/VA/Reston/1216-Bishopsgate-Way-20194/home/9157980,BRIGHT MLS,VAFX1202702,N,Y,38.9817878,-77.326587
PAST SALE,June-25-2021,Single Family Residential,1628 Bennington Hollow Ln,Reston,VA,20194,712000,3,2.5,RESTON,2650,10529,1983,162,269,60,Sold,,,https://www.redfin.com/VA/Reston/1628-Bennington-Hollow-Ln-20194/home/9226652,BRIGHT MLS,VAFX1199076,N,Y,38.9700029,-77.3482127
PAST SALE,August-14-2020,Single Family Residential,10811 Crippen Vale Ct,Reston,VA,20194,834000,4,3.5,CRIPPENS CORNER,4157,9460,1996,477,201,142,Sold,,,https://www.redfin.com/VA/Reston/10811-Crippen-Vale-Ct-20194/home/9159557,BRIGHT MLS,VAFX1126206,N,Y,38.9759094,-77.3190933
PAST SALE,September-14-2021,Condo/Co-op,11406 Windleaf Ct #4,Reston,VA,20194,465000,2,2.0,SUTTON RIDGE CONDO,1360,,1995,81,342,315,Sold,,,https://www.redfin.com/VA/Reston/11406-Windleaf-Ct-20194/unit-4/home/18995898,BRIGHT MLS,VAFX2016008,N,Y,38.9852582,-77.3436104
PAST SALE,July-23-2020,Single Family Residential,1283 Lamplighter Way,Reston,VA,20194,785000,3,3.5,RESTON,2995,7278,1989,499,262,89,Sold,,,https://www.redfin.com/VA/Reston/1283-Lamplighter-Way-20194/home/9143268,BRIGHT MLS,VAFX1118252,N,Y,38.9834348,-77.3335417
PAST SALE,October-9-2020,Single Family Residential,11210 Center Post Ct,Reston,VA,20194,849999,4,3.5,RESTON,3226,5259,1993,421,263,208,Sold,,,https://www.redfin.com/VA/Reston/11210-Center-Post-Ct-20194/home/9143093,BRIGHT MLS,VAFX1151358,N,Y,38.9801571,-77.3354711
PAST SALE,April-27-2020,Condo/Co-op,1405 Church Hill Pl #1405,Reston,VA,20194,353000,2,1.5,HAMPTON POINTE,1165,,1990,586,303,371,Sold,,,https://www.redfin.com/VA/Reston/1405-Church-Hill-Pl-20194/unit-1405/home/9141936,BRIGHT MLS,VAFX1116438,N,Y,38.979684,-77.346113
PAST SALE,June-30-2020,Townhouse,1301 Vintage Pl,Reston,VA,20194,494000,2,3.5,RESTON SEC 75 BLK 4A VIN,1650,1960,1996,522,299,93,Sold,,,https://www.redfin.com/VA/Reston/1301-Vintage-Pl-20194/home/9124100,BRIGHT MLS,VAFX1123970,N,Y,38.988009,-77.344705
PAST SALE,November-16-2021,Condo/Co-op,1342 Garden Wall Cir #503,Reston,VA,20194,387500,2,2.0,BALDWIN GROVE CONDO,1116,,1993,18,347,460,Sold,,,https://www.redfin.com/VA/Reston/1342-Garden-Wall-Cir-20194/unit-503/home/9147533,BRIGHT MLS,VAFX2018048,N,Y,38.982584,-77.337889
PAST SALE,July-7-2020,Townhouse,1650 Harvest Green Ct,Reston,VA,20194,412300,2,1.5,RESTON SEC 49 BLK 3A 3B,1185,1023,1983,515,348,90,Sold,,,https://www.redfin.com/VA/Reston/1650-Harvest-Green-Ct-20194/home/9137138,BRIGHT MLS,VAFX1134360,N,Y,38.9758489,-77.353482
PAST SALE,November-20-2020,Townhouse,1292 Wedgewood Manor Way,Reston,VA,20194,650000,3,3.5,RESTON SEC 73 BLK 4 WEDG,2820,3633,1994,379,230,107,Sold,,,https://www.redfin.com/VA/Reston/1292-Wedgewood-Manor-Way-20194/home/9143551,BRIGHT MLS,VAFX1155836,N,Y,38.981896,-77.336163
PAST SALE,April-30-2020,Single Family Residential,1319 Aldbury Way,Reston,VA,20194,945000,4,4.5,CRIPPENS CORNER,5113,13459,1997,583,185,138,Sold,,,https://www.redfin.com/VA/Reston/1319-Aldbury-Way-20194/home/9160506,BRIGHT MLS,VAFX1121492,N,Y,38.976221,-77.324478
PAST SALE,October-1-2021,Townhouse,11521 Hemingway Dr,Reston,VA,20194,749000,4,3.5,RESTON,2696,2240,1993,64,278,110,Sold,,,https://www.redfin.com/VA/Reston/11521-Hemingway-Dr-20194/home/9136200,BRIGHT MLS,VAFX2012654,N,Y,38.976739,-77.342926
PAST SALE,March-29-2019,Single Family Residential,11630 Springhouse Pl,Reston,VA,20194,754500,4,3.5,RESTON,3292,7489,1989,981,229,44,Sold,,,https://www.redfin.com/VA/Reston/11630-Springhouse-Pl-20194/home/9139941,BRIGHT MLS,VAFX1048896,N,Y,38.9827176,-77.3492894
PAST SALE,April-30-2019,Townhouse,1503 Twisted Oak Dr,Reston,VA,20194,399900,3,2.5,RESTON,1340,1757,1987,949,298,132,Sold,,,https://www.redfin.com/VA/Reston/1503-Twisted-Oak-Dr-20194/home/9134113,BRIGHT MLS,VAFX998816,N,Y,38.977508,-77.3540896
PAST SALE,February-18-2020,Townhouse,11763 Arbor Glen Way,Reston,VA,20194,549000,3,3.5,RESTON SEC 39 BLK 9,1874,2532,1987,655,293,184,Sold,,,https://www.redfin.com/VA/Reston/11763-Arbor-Glen-Way-20194/home/9139507,BRIGHT MLS,VAFX1103820,N,Y,38.977769,-77.3527469
PAST SALE,July-13-2020,Single Family Residential,11809 Briar Mill Ln,Reston,VA,20194,551985,4,3.5,RESTON,1638,11319,1985,509,337,59,Sold,,,https://www.redfin.com/VA/Reston/11809-Briar-Mill-Ln-20194/home/9138377,BRIGHT MLS,VAFX1117856,N,Y,38.9724478,-77.3528455
PAST SALE,May-11-2021,Townhouse,1286 Vintage Pl,Reston,VA,20194,566000,2,2.5,RESTON SEC 75 BLK 4A VIN,1602,1296,1996,207,353,93,Sold,,,https://www.redfin.com/VA/Reston/1286-Vintage-Pl-20194/home/9124039,BRIGHT MLS,VAFX1191540,N,Y,38.987785,-77.344279
PAST SALE,,Townhouse,1302 Park Garden Ln,Reston,VA,20194,615000,3,3.5,,2800,2280,1993,,220,,,,,https://www.redfin.com/VA/Reston/1302-Park-Garden-Ln-20194/home/9148219,,,N,Y,38.982277,-77.345195
PAST SALE,May-29-2020,Townhouse,1779 Whisperhill Dr,Reston,VA,20194,410000,2,2.5,RESTON SEC 41 BLK 1A 1B,952,1059,1985,554,431,103,Sold,,,https://www.redfin.com/VA/Reston/1779-Whisperhill-Dr-20194/home/9211960,BRIGHT MLS,VAFX1124914,N,Y,38.9695216,-77.3556939
PAST SALE,November-19-2021,Townhouse,1683 Sierra Woods Ct,Reston,VA,20194,433000,3,2.5,RESTON SEC 49 BLK 4,1280,2077,1985,15,338,90,Sold,,,https://www.redfin.com/VA/Reston/1683-Sierra-Woods-Ct-20194/home/9209938,BRIGHT MLS,VAFX2001759,N,Y,38.970875,-77.36457
PAST SALE,May-1-2019,Townhouse,11610 Chapel Cross Way,Reston,VA,20194,655000,3,3.5,RESTON,2348,3178,1986,948,279,56,Sold,,,https://www.redfin.com/VA/Reston/11610-Chapel-Cross-Way-20194/home/9138587,BRIGHT MLS,VAFX1000032,N,Y,38.976852,-77.347015
PAST SALE,June-15-2021,Single Family Residential,1314 Pavilion Club Way,Reston,VA,20194,895000,5,3.5,RESTON,3408,5241,1994,172,263,208,Sold,,,https://www.redfin.com/VA/Reston/1314-Pavilion-Club-Way-20194/home/9143011,BRIGHT MLS,VAFX1185706,N,Y,38.9803317,-77.3359646
PAST SALE,September-14-2021,Townhouse,1336 Garden Wall Cir #414,Reston,VA,20194,467500,2,2.0,BALDWIN GROVE CONDO,1116,,1994,81,419,520,Sold,,,https://www.redfin.com/VA/Reston/1336-Garden-Wall-Cir-20194/unit-414/home/9147512,BRIGHT MLS,VAFX2003762,N,Y,38.9822909,-77.337653
PAST SALE,December-2-2019,Townhouse,1624 Sierra Woods Dr,Reston,VA,20194,385000,3,2.0,RESTON SEC 49 BLK 4,1820,1318,1985,733,212,110,Sold,,,https://www.redfin.com/VA/Reston/1624-Sierra-Woods-Dr-20194/home/9130528,BRIGHT MLS,VAFX1093246,N,Y,38.973008,-77.364862
PAST SALE,October-22-2019,Townhouse,1640 Poplar Grove Dr,Reston,VA,20194,452500,3,3.0,RESTON SEC 39 BLK 2 BLK,1668,2232,1986,774,271,60,Sold,,,https://www.redfin.com/VA/Reston/1640-Poplar-Grove-Dr-20194/home/9132711,BRIGHT MLS,VAFX1089542,N,Y,38.978117,-77.3605709
PAST SALE,March-13-2020,Condo/Co-op,11314 Sundial Ct Unit F,Reston,VA,20194,364900,2,2.5,BALDWIN GROVE CONDO,1540,,1995,631,237,478,Sold,,,https://www.redfin.com/VA/Reston/11314-Sundial-Ct-20194/unit-807/home/9147860,BRIGHT MLS,VAFX1109640,N,Y,38.982065,-77.33802
PAST SALE,,Condo/Co-op,11404 Gate Hill Pl #90,Reston,VA,20194,415000,3,2.0,,1239,,1997,,335,,,,,https://www.redfin.com/VA/Reston/11404-Gate-Hill-Pl-20194/unit-90/home/9149671,,,N,Y,38.9847641,-77.3425375
PAST SALE,April-29-2021,Townhouse,11915 Crosswind Ct,Reston,VA,20194,410000,2,2.5,RESTON SEC 41 BLK 1A 1B,952,1056,1986,219,431,103,Sold,,,https://www.redfin.com/VA/Reston/11915-Crosswind-Ct-20194/home/9212068,BRIGHT MLS,VAFX1189966,N,Y,38.969278,-77.357077
PAST SALE,,Condo/Co-op,1509 N Point Dr Unit 06-0102,Reston,VA,20194,299900,2,2.0,,1050,,1999,,286,,,,,https://www.redfin.com/VA/Reston/1509-N-Point-Dr-20194/unit-06-0102/home/9854084,,,N,Y,38.980614,-77.351586
PAST SALE,June-28-2019,Single Family Residential,1308 Sawbridge Way,Reston,VA,20194,812000,5,3.5,RESTON,4400,18874,1992,890,185,57,Sold,,,https://www.redfin.com/VA/Reston/1308-Sawbridge-Way-20194/home/9158937,BRIGHT MLS,VAFX993332,N,Y,38.9787056,-77.3313881
PAST SALE,September-18-2019,Single Family Residential,1247 Reston Ave,Herndon,VA,20170,830000,4,4.5,VINTAGE PLACE,4250,9844,1999,808,195,58,Sold,,,https://www.redfin.com/VA/Herndon/1247-Reston-Ave-20170/home/9126382,BRIGHT MLS,VAFX1068638,N,Y,38.988647,-77.3452069
PAST SALE,July-15-2021,Townhouse,1303 Vintage Pl,Reston,VA,20194,510000,2,2.5,RESTON SEC 75 BLK 4A VIN,1650,1188,1996,142,309,93,Sold,,,https://www.redfin.com/VA/Reston/1303-Vintage-Pl-20194/home/9124106,BRIGHT MLS,VAFX1201826,N,Y,38.988072,-77.344677
PAST SALE,July-15-2021,Townhouse,1605 Purple Sage Dr,Reston,VA,20194,400000,2,1.5,RESTON SEC 49 BLK 3A 3B,1170,1044,1985,142,342,153,Sold,,,https://www.redfin.com/VA/Reston/1605-Purple-Sage-Dr-20194/home/9131118,BRIGHT MLS,VAFX1207878,N,Y,38.973586,-77.363149
PAST SALE,July-16-2021,Townhouse,1558 Twisted Oak Dr,Reston,VA,20194,515000,3,3.0,RESTON SEC 39 BLK 2 BLK,1624,1620,1987,141,317,130,Sold,,,https://www.redfin.com/VA/Reston/1558-Twisted-Oak-Dr-20194/home/9134243,BRIGHT MLS,VAFX1202616,N,Y,38.976882,-77.355559
PAST SALE,July-20-2021,Condo/Co-op,1301 Garden Wall Ct #901,Reston,VA,20194,335000,2,1.0,BALDWIN GROVE CONDO,832,,1995,137,403,364,Sold,,,https://www.redfin.com/VA/Reston/1301-Garden-Wall-Ct-20194/unit-901/home/9147919,BRIGHT MLS,VAFX1209468,N,Y,38.981941,-77.338433
PAST SALE,,Condo/Co-op,1300 Windleaf Dr #147,Reston,VA,20194,337000,2,2.0,,1020,,1995,,330,,,,,https://www.redfin.com/VA/Reston/1300-Windleaf-Dr-20194/unit-147/home/9150048,,,N,Y,38.98448,-77.34468
PAST SALE,July-20-2021,Condo/Co-op,1511 N Point Dr #303,Reston,VA,20194,353000,2,2.0,NORTH POINT VILLAS CONDO,1191,,1999,137,296,447,Sold,,,https://www.redfin.com/VA/Reston/1511-N-Point-Dr-20194/unit-303/home/21705641,BRIGHT MLS,VAFX2001026,N,Y,38.9804951,-77.3511512
PAST SALE,July-8-2021,Townhouse,1739 Quietree Dr,Reston,VA,20194,470000,3,2.5,RESTON SEC 41 BLK 1A 1B,1442,1239,1986,149,326,98,Sold,,,https://www.redfin.com/VA/Reston/1739-Quietree-Dr-20194/home/9212675,BRIGHT MLS,VAFX1202150,N,Y,38.968275,-77.358341
PAST SALE,August-16-2021,Townhouse,1632 Fieldthorn Dr,Reston,VA,20194,420000,2,2.0,RESTON SEC 41 BLK 3 WHIS,1133,1095,1986,110,371,112,Sold,,,https://www.redfin.com/VA/Reston/1632-Fieldthorn-Dr-20194/home/9211082,BRIGHT MLS,VAFX2001656,N,Y,38.9710699,-77.356075
PAST SALE,August-20-2021,Single Family Residential,10911 Hunter Gate Way,Reston,VA,20194,1050000,4,4.5,CRIPPENS CORNER,5572,12736,2000,106,188,111,Sold,,,https://www.redfin.com/VA/Reston/10911-Hunter-Gate-Way-20194/home/9160647,BRIGHT MLS,VAFX2001764,N,Y,38.9774609,-77.3279106
PAST SALE,August-23-2021,Single Family Residential,1135 Round Pebble Ln,Reston,VA,20194,1199990,5,5.0,RESTON,5176,20577,1994,103,232,60,Sold,,,https://www.redfin.com/VA/Reston/1135-Round-Pebble-Ln-20194/home/9123193,BRIGHT MLS,VAFX2010362,N,Y,38.9927061,-77.3408999
PAST SALE,September-23-2021,Single Family Residential,1656 Cedar Hollow Way,Reston,VA,20194,841270,4,4.0,RESTON,1624,7429,1986,72,518,60,Sold,,,https://www.redfin.com/VA/Reston/1656-Cedar-Hollow-Way-20194/home/9212753,BRIGHT MLS,VAFX1198806,N,Y,38.9718669,-77.3586204
PAST SALE,June-19-2020,Single Family Residential,11620 Deer Forest Rd,Reston,VA,20194,761000,4,2.5,SHAKER WOODS,3296,25000,1984,533,231,15,Sold,,,https://www.redfin.com/VA/Reston/11620-Deer-Forest-Rd-20194/home/9138459,BRIGHT MLS,VAFX1118508,N,Y,38.9862812,-77.3499624
PAST SALE,September-27-2019,Condo/Co-op,11730-E Summerchase Cir Unit 1730-E,Reston,VA,20194,222600,2,1.0,SUMMERRIDGE,952,,1987,799,234,351,Sold,,,https://www.redfin.com/VA/Reston/11730-Summerchase-Cir-20194/unit-1730E/home/9141665,BRIGHT MLS,VAFX1081948,N,Y,38.978357,-77.3521382
PAST SALE,November-30-2021,Townhouse,1524 Poplar Grove Dr,Reston,VA,20194,515000,3,3.0,RESTON SEC 39 BLK 2 BLK,1530,1481,1986,4,337,80,Sold,,,https://www.redfin.com/VA/Reston/1524-Poplar-Grove-Dr-20194/home/9132320,BRIGHT MLS,VAFX2027030,N,Y,38.978176,-77.358372
PAST SALE,April-24-2020,Townhouse,1396 Park Garden Ln,Reston,VA,20194,585000,3,3.5,RESTON SEC 63 BLK 3 PARK,1740,1582,1993,589,336,,Sold,,,https://www.redfin.com/VA/Reston/1396-Park-Garden-Ln-20194/home/9148524,BRIGHT MLS,VAFX1124992,N,Y,38.9836262,-77.3436815
PAST SALE,June-28-2019,Condo/Co-op,1509 N Point Dr #102,Reston,VA,20194,299900,2,2.0,NORTH POINT VILLAS,1050,,1999,890,286,406,Sold,,,https://www.redfin.com/VA/Reston/1509-N-Point-Dr-20194/unit-102/home/162869264,BRIGHT MLS,VAFX1001554,N,Y,38.980614,-77.351586
PAST SALE,April-15-2019,Townhouse,11407 Gate Hill Pl Unit G,Reston,VA,20194,375000,2,2.0,SUTTON RIDGE,1220,,1997,964,307,364,Sold,,,https://www.redfin.com/VA/Reston/11407-Gate-Hill-Pl-20194/unit-G/home/12051570,BRIGHT MLS,VAFX1002074,N,Y,38.9840019,-77.343143
PAST SALE,August-5-2019,Townhouse,1753 Whisperhill Dr,Reston,VA,20194,355000,3,2.5,RESTON,1880,885,1985,852,189,161,Sold,,,https://www.redfin.com/VA/Reston/1753-Whisperhill-Dr-20194/home/9211855,BRIGHT MLS,VAFX1066278,N,Y,38.9693479,-77.355385
PAST SALE,April-26-2021,Townhouse,1731 Quietree,Reston,VA,20194,417000,2,2.5,RESTON SEC 41 BLK 1A 1B,1049,871,1986,222,398,103,Sold,,,https://www.redfin.com/VA/Reston/1731-Quietree-Dr-20194/home/9212655,BRIGHT MLS,VAFX1185748,N,Y,38.968077,-77.3583079
PAST SALE,April-11-2019,Townhouse,1384 Park Garden Ln,Reston,VA,20194,535000,3,3.5,BALDWIN GROVE,2220,1526,1994,968,241,53,Sold,,,https://www.redfin.com/VA/Reston/1384-Park-Garden-Ln-20194/home/9148474,BRIGHT MLS,VAFX994190,N,Y,38.9835009,-77.343119
PAST SALE,August-19-2020,Townhouse,1320 Park Garden Ln,Reston,VA,20194,630000,3,3.0,RESTON SEC 63 BLK 2,2862,2400,1993,472,220,97,Sold,,,https://www.redfin.com/VA/Reston/1320-Park-Garden-Ln-20194/home/9148272,BRIGHT MLS,VAFX1139984,N,Y,38.982097,-77.344384
PAST SALE,April-8-2021,Condo/Co-op,1519 N Point Dr #103,Reston,VA,20194,350000,2,2.0,NORTH POINT VILLAS CONDO,1191,,1999,240,294,445,Sold,,,https://www.redfin.com/VA/Reston/1519-N-Point-Dr-20194/unit-103/home/167189960,BRIGHT MLS,VAFX1185076,N,Y,38.9795971,-77.3513755
PAST SALE,,Condo/Co-op,1515 N Point Dr Unit 02-0301,Reston,VA,20194,325000,2,2.0,,1191,,1999,,273,,,,,https://www.redfin.com/VA/Reston/1515-N-Point-Dr-20194/unit-02-0301/home/21705461,,,N,Y,38.979918,-77.3513755
PAST SALE,January-6-2021,Condo/Co-op,11400 Windleaf Ct Unit M,Reston,VA,20194,315500,2,2.0,SUTTON RIDGE CONDO,1100,,1996,332,287,369,Sold,,,https://www.redfin.com/VA/Reston/11400-Windleaf-Ct-20194/unit-M/home/45394253,BRIGHT MLS,VAFX1160496,N,Y,38.98587,-77.342736
PAST SALE,May-27-2021,Townhouse,1300-E Windleaf Dr #149,Reston,VA,20194,465000,2,2.0,SUTTON RIDGE CONDO,1527,,1995,191,305,375,Sold,,,https://www.redfin.com/VA/Reston/1300-Windleaf-Dr-20194/unit-149/home/9150057,BRIGHT MLS,VAFX1185660,N,Y,38.98448,-77.34468
PAST SALE,June-19-2019,Townhouse,12135 Purple Sage Ct,Reston,VA,20194,375000,2,1.5,RESTON,1155,1690,1985,899,325,110,Sold,,,https://www.redfin.com/VA/Reston/12135-Purple-Sage-Ct-20194/home/9131500,BRIGHT MLS,VAFX1059978,N,Y,38.973531,-77.36417
PAST SALE,,Single Family Residential,10819 Leesburg Pike,Herndon,VA,20170,12100000,,2.0,,1530,1066767,1931,,7908,,,,,https://www.redfin.com/VA/Herndon/10819-Leesburg-Pike-20170/home/9156219,,,N,Y,38.9831458,-77.3227056
PAST SALE,January-28-2021,Single Family Residential,11626 Old Brookville Ct,Reston,VA,20194,795000,4,3.5,RESTON,3600,9058,1988,310,221,58,Sold,,,https://www.redfin.com/VA/Reston/11626-Old-Brookville-Ct-20194/home/9139710,BRIGHT MLS,VAFX1174390,N,Y,38.9805516,-77.3480109
PAST SALE,June-14-2019,Townhouse,11312 Sundial Ct,Reston,VA,20194,357000,2,2.0,BALDWIN GROVE,1116,,1995,904,320,474,Sold,,,https://www.redfin.com/VA/Reston/11312-Sundial-Ct-20194/unit-803/home/9147830,BRIGHT MLS,VAFX1052174,N,Y,38.982065,-77.33802
PAST SALE,September-8-2021,Townhouse,1353 Park Garden Ln,Reston,VA,20194,730000,4,4.0,RESTON SEC 63 BLK 2,2954,3295,1994,87,247,98,Sold,,,https://www.redfin.com/VA/Reston/1353-Park-Garden-Ln-20194/home/9148041,BRIGHT MLS,VAFX1202354,N,Y,38.9824996,-77.3429188
PAST SALE,,Townhouse,11421 Hollow Timber Way,Reston,VA,20194,660000,2,3.5,,1962,2975,1990,,336,,,,,https://www.redfin.com/VA/Reston/11421-Hollow-Timber-Way-20194/home/9144982,,,N,Y,38.979379,-77.343146
PAST SALE,July-8-2021,Townhouse,1235 Woodbrook Ct,Reston,VA,20194,790000,3,3.5,RESTON SEC 73 BLK 5,2670,3414,1994,149,296,178,Sold,,,https://www.redfin.com/VA/Reston/1235-Woodbrook-Ct-20194/home/9144184,BRIGHT MLS,VAFX1205702,N,Y,38.984041,-77.336124
PAST SALE,July-1-2021,Townhouse,1605 Fieldthorn Dr,Reston,VA,20194,415000,2,2.0,RESTON SEC 41 BLK 3 WHIS,1215,975,1985,156,342,112,Sold,,,https://www.redfin.com/VA/Reston/1605-Fieldthorn-Dr-20194/home/9211489,BRIGHT MLS,VAFX1207892,N,Y,38.9721811,-77.3570952
PAST SALE,July-16-2020,Townhouse,1550 Twisted Oak Dr,Reston,VA,20194,395550,3,2.5,RESTON SEC 39 BLK 2 BLK,1340,2224,1987,506,295,194,Sold,,,https://www.redfin.com/VA/Reston/1550-Twisted-Oak-Dr-20194/home/9831996,BRIGHT MLS,VAFX1134428,N,Y,38.9771032,-77.3552447
PAST SALE,March-16-2021,Townhouse,1260 Vintage Pl,Reston,VA,20194,540000,2,3.5,RESTON SEC 75 BLK 4A VIN,1603,1297,1996,263,337,60,Sold,,,https://www.redfin.com/VA/Reston/1260-Vintage-Pl-20194/home/9123938,BRIGHT MLS,VAFX1179638,N,Y,38.987542,-77.343285
PAST SALE,November-19-2019,Condo/Co-op,1327 Garden Wall Ct #504,Reston,VA,20194,317000,2,2.0,BALDWIN GROVE CONDO,1012,,1994,746,313,475,Sold,,,https://www.redfin.com/VA/Reston/1327-Garden-Wall-Ct-20194/unit-504/home/9147539,BRIGHT MLS,VAFX1091778,N,Y,38.982584,-77.337889
PAST SALE,April-14-2021,Townhouse,1619 Fieldthorn Dr,Reston,VA,20194,444250,2,2.0,RESTON SEC 41 BLK 3 WHIS,1133,1412,1986,234,392,128,Sold,,,https://www.redfin.com/VA/Reston/1619-Fieldthorn-Dr-20194/home/9211439,BRIGHT MLS,VAFX1183494,N,Y,38.9716797,-77.356456
PAST SALE,July-10-2019,Townhouse,1506 Poplar Grove Dr,Reston,VA,20194,427000,3,3.0,RESTON,1534,1380,1986,878,278,80,Sold,,,https://www.redfin.com/VA/Reston/1506-Poplar-Grove-Dr-20194/home/9132266,BRIGHT MLS,VAFX1063312,N,Y,38.9788722,-77.3582055
PAST SALE,June-30-2020,Townhouse,11927 Redtree Way,Reston,VA,20194,415000,2,2.5,RESTON SEC 41 BLK 1A 1B,1224,1061,1986,522,339,103,Sold,,,https://www.redfin.com/VA/Reston/11927-Redtree-Way-20194/home/9212239,BRIGHT MLS,VAFX1129490,N,Y,38.968676,-77.356217
PAST SALE,December-4-2019,Townhouse,1360 Park Garden Ln,Reston,VA,20194,555000,3,3.5,RESTON SEC 63 BLK 2,1815,2288,1995,731,306,81,Sold,,,https://www.redfin.com/VA/Reston/1360-Park-Garden-Ln-20194/home/9148400,BRIGHT MLS,VAFX1093624,N,Y,38.982375,-77.3425151
PAST SALE,October-10-2019,Single Family Residential,1637 Stowe Rd,Reston,VA,20194,675000,4,3.0,RESTON,2693,7964,1983,786,251,58,Sold,,,https://www.redfin.com/VA/Reston/1637-Stowe-Rd-20194/home/9227380,BRIGHT MLS,VAFX1086224,N,Y,38.969313,-77.3496035
PAST SALE,July-3-2021,Townhouse,11439 Summer House Ct,Reston,VA,20194,635000,3,3.0,RESTON SEC 61 BLK 3 PARK,1998,1738,1995,154,318,170,Sold,,,https://www.redfin.com/VA/Reston/11439-Summer-House-Ct-20194/home/9146144,BRIGHT MLS,VAFX1202770,N,Y,38.98229,-77.340424
PAST SALE,,Condo/Co-op,1516 N Point Dr Unit 04-0301,Reston,VA,20194,300000,2,1.0,,947,,1999,,317,,,,,https://www.redfin.com/VA/Reston/1516-N-Point-Dr-20194/unit-04-0301/home/9854080,,,N,Y,38.9800221,-77.3519587
PAST SALE,May-14-2021,Single Family Residential,11264 Stones Throw Dr,Reston,VA,20194,1462500,5,4.5,ESTATES AT WYNDHAM HILLS,6841,27305,1998,204,214,12,Sold,,,https://www.redfin.com/VA/Reston/11264-Stones-Throw-Dr-20194/home/9126090,BRIGHT MLS,VAFX1191916,N,Y,38.9906683,-77.3327565
PAST SALE,May-17-2021,Condo/Co-op,1308 Garden Wall Cir #113,Reston,VA,20194,299469,2,1.0,BALDWIN GROVE CONDO,788,,1995,201,380,365,Sold,,,https://www.redfin.com/VA/Reston/1308-Garden-Wall-Cir-20194/unit-113/home/9147170,BRIGHT MLS,VAFX1191562,N,Y,38.981583,-77.338144
PAST SALE,November-8-2019,Single Family Residential,10851 Grovehampton Ct,Reston,VA,20194,762500,3,3.5,CRIPPENS CORNER,3115,6650,1998,757,245,100,Sold,,,https://www.redfin.com/VA/Reston/10851-Grovehampton-Ct-20194/home/9160092,BRIGHT MLS,VAFX1080132,N,Y,38.9769783,-77.3215164
PAST SALE,December-8-2020,Condo/Co-op,11304-B Sundial Ct #905,Reston,VA,20194,333000,2,2.0,BALDWIN GROVE CONDO,1053,,1995,361,316,433,Sold,,,https://www.redfin.com/VA/Reston/11304-Sundial-Ct-20194/unit-905/home/9147945,BRIGHT MLS,VAFX1158222,N,Y,38.981941,-77.338433
PAST SALE,June-8-2021,Condo/Co-op,1416 Church Hill Pl,Reston,VA,20194,385000,2,1.5,HAMPTON POINTE CONDO,1004,,1989,179,383,372,Sold,,,https://www.redfin.com/VA/Reston/1416-Church-Hill-Pl-20194/unit-1416/home/9142028,BRIGHT MLS,VAFX1199296,N,Y,38.97974,-77.346953
PAST SALE,June-7-2021,Single Family Residential,11205 Pavilion Club Ct,Reston,VA,20194,920000,6,4.5,RESTON,3346,5559,1992,180,275,208,Sold,,,https://www.redfin.com/VA/Reston/11205-Pavilion-Club-Ct-20194/home/9143170,BRIGHT MLS,VAFX1201176,N,Y,38.9813316,-77.3348429
PAST SALE,June-3-2021,Townhouse,1206 Woodbrook Ct,Reston,VA,20194,782000,3,3.5,RESTON SEC 73 BLK 5,3418,3418,1995,184,229,187,Sold,,,https://www.redfin.com/VA/Reston/1206-Woodbrook-Ct-20194/home/9143959,BRIGHT MLS,VAFX1195028,N,Y,38.984675,-77.3366999
PAST SALE,November-23-2020,Condo/Co-op,1510 Church Hill Pl,Reston,VA,20194,395000,2,2.0,HAMPTON POINTE CONDO,1286,,1988,376,307,426,Sold,,,https://www.redfin.com/VA/Reston/1510-Church-Hill-Pl-20194/home/9142626,BRIGHT MLS,VAFX1165364,N,Y,38.978219,-77.347094
PAST SALE,June-4-2021,Condo/Co-op,1377 Garden Wall Cir Unit 607 (F),Reston,VA,20194,410000,2,2.5,BALDWIN GROVE CONDO,1600,,1993,183,256,520,Sold,,,https://www.redfin.com/VA/Reston/1377-Garden-Wall-Cir-20194/unit-607/home/9147652,BRIGHT MLS,VAFX1197332,N,Y,38.983081,-77.33797
PAST SALE,June-8-2021,Single Family Residential,1308 Stable Farm Ct,Reston,VA,20194,930000,4,2.5,CRIPPENS CORNER,3764,6274,1996,179,247,145,Sold,,,https://www.redfin.com/VA/Reston/1308-Stable-Farm-Ct-20194/home/9159532,BRIGHT MLS,VAFX1195866,N,Y,38.9757221,-77.318667
PAST SALE,June-1-2021,Single Family Residential,11949 Grey Squirrel Ln,Reston,VA,20194,940000,5,3.5,RESTON,3664,22956,1986,186,257,60,Sold,,,https://www.redfin.com/VA/Reston/11949-Grey-Squirrel-Ln-20194/home/9129850,BRIGHT MLS,VAFX1196270,N,Y,38.9734161,-77.3588447
PAST SALE,June-4-2021,Townhouse,1636 Poplar Grove Dr,Reston,VA,20194,470000,3,2.5,RESTON SEC 39 BLK 2 BLK,1234,1357,1986,183,381,81,Sold,,,https://www.redfin.com/VA/Reston/1636-Poplar-Grove-Dr-20194/home/9132693,BRIGHT MLS,VAFX1198060,N,Y,38.9780159,-77.360652
PAST SALE,June-9-2021,Townhouse,1540 Deer Point Way,Reston,VA,20194,705000,3,3.5,RESTON SEC 39 BLK 5,1737,3031,1989,178,406,125,Sold,,,https://www.redfin.com/VA/Reston/1540-Deer-Point-Way-20194/home/9132795,BRIGHT MLS,VAFX1204626,N,Y,38.9790952,-77.3558504
PAST SALE,July-28-2020,Townhouse,11535 Hemingway Dr,Reston,VA,20194,800000,4,3.5,RESTON SEC 33 BLK 7A HEM,2576,3616,1996,494,311,100,Sold,,,https://www.redfin.com/VA/Reston/11535-Hemingway-Dr-20194/home/9136226,BRIGHT MLS,VAFX1131552,N,Y,38.97711,-77.342771
PAST SALE,,Townhouse,11947 Hollowwind Ct,Reston,VA,20194,400000,2,2.5,,1100,952,1986,,364,,,,,https://www.redfin.com/VA/Reston/11947-Hollowwind-Ct-20194/home/9212494,,,N,Y,38.968302,-77.357052
PAST SALE,March-24-2020,Single Family Residential,11185 Longwood Grove Dr,Reston,VA,20194,1075000,5,4.5,RESTON,5800,17747,1989,620,185,59,Sold,,,https://www.redfin.com/VA/Reston/11185-Longwood-Grove-Dr-20194/home/9144827,BRIGHT MLS,VAFX1105246,N,Y,38.9790261,-77.3343045
PAST SALE,September-21-2020,Condo/Co-op,1303 Garden Wall Ct,Reston,VA,20194,334900,2,2.0,BALDWIN GROVE CONDO,1012,,1995,439,331,433,Sold,,,https://www.redfin.com/VA/Reston/1303-Garden-Wall-Ct-20194/unit-904/home/9147934,BRIGHT MLS,VAFX1145564,N,Y,38.981941,-77.338433
PAST SALE,May-7-2019,Townhouse,1676 Oaktree Ct,Reston,VA,20194,393000,2,2.5,RESTON,1080,1277,1986,942,364,33,Sold,,,https://www.redfin.com/VA/Reston/1676-Oaktree-Ct-20194/home/9212324,BRIGHT MLS,VAFX993162,N,Y,38.9689229,-77.356992
PAST SALE,August-19-2019,Townhouse,1672 Oaktree Ct,Reston,VA,20194,395000,2,2.5,RESTON,1080,930,1986,838,366,103,Sold,,,https://www.redfin.com/VA/Reston/1672-Oaktree-Ct-20194/home/9212305,BRIGHT MLS,VAFX1076598,N,Y,38.968903,-77.356885
PAST SALE,August-14-2020,Condo/Co-op,11318 Sundial Ct #813,Reston,VA,20194,280000,2,1.0,BALDWIN GROVE CONDO,788,,1995,477,355,348,Sold,,,https://www.redfin.com/VA/Reston/11318-Sundial-Ct-20194/unit-813/home/9147902,BRIGHT MLS,VAFX1122586,N,Y,38.982065,-77.33802
PAST SALE,,Condo/Co-op,11735 Summerchase Cir Unit C,Reston,VA,20194,256000,2,1.0,,952,,1988,,269,,,,,https://www.redfin.com/VA/Reston/11735-Summerchase-Cir-20194/unit-C/home/9141751,,,N,Y,38.978624,-77.351353
PAST SALE,August-17-2020,Townhouse,1771 Whisperhill Dr,Reston,VA,20194,425000,3,2.5,RESTON SEC 41 BLK 1A 1B,1464,1254,1985,474,290,160,Sold,,,https://www.redfin.com/VA/Reston/1771-Whisperhill-Dr-20194/home/9211924,BRIGHT MLS,VAFX1137648,N,Y,38.9691786,-77.3557831
PAST SALE,,Townhouse,11919 Redtree Way,Reston,VA,20194,360000,2,2.5,,1100,1365,1986,,327,,,,,https://www.redfin.com/VA/Reston/11919-Redtree-Way-20194/home/9212216,,,N,Y,38.9687242,-77.3560298
PAST SALE,December-10-2020,Condo/Co-op,1309 Garden Wall Ct,Reston,VA,20194,271500,2,1.0,BALDWIN GROVE CONDO,832,,1995,359,326,348,Sold,,,https://www.redfin.com/VA/Reston/1309-Garden-Wall-Ct-20194/unit-801/home/9147818,BRIGHT MLS,VAFX1163458,N,Y,38.982065,-77.33802
PAST SALE,September-30-2021,Townhouse,1735 Whisperhill Dr,Reston,VA,20194,446050,3,3.5,RESTON SEC 41 BLK 1A 1B,1480,933,1985,65,301,98,Sold,,,https://www.redfin.com/VA/Reston/1735-Whisperhill-Dr-20194/home/9211779,BRIGHT MLS,VAFX2015816,N,Y,38.969853,-77.355339
PAST SALE,September-14-2021,Single Family Residential,11406 Wild Bramble Way,Reston,VA,20194,1430000,6,4.5,RESTON,6002,27152,1994,81,238,60,Sold,,,https://www.redfin.com/VA/Reston/11406-Wild-Bramble-Way-20194/home/9122968,BRIGHT MLS,VAFX1175278,N,Y,38.9922524,-77.3435245
PAST SALE,March-27-2020,Condo/Co-op,1510-A Summerchase Ct,Reston,VA,20194,205000,1,1.0,SUMMERRIDGE CONDO,700,,1987,617,293,364,Sold,,,https://www.redfin.com/VA/Reston/1510-Summerchase-Ct-20194/unit-A/home/9140913,BRIGHT MLS,VAFX1113336,N,Y,38.9790769,-77.353075
PAST SALE,January-9-2020,Townhouse,11922 Redtree Way,Reston,VA,20194,365000,2,2.5,RESTON SEC 41 BLK 1A 1B,1352,1066,1986,695,270,153,Sold,,,https://www.redfin.com/VA/Reston/11922-Redtree-Way-20194/home/9212198,BRIGHT MLS,VAFX1105224,N,Y,38.969041,-77.3564851
PAST SALE,February-17-2021,Condo/Co-op,1347 Garden Wall Cir #612,Reston,VA,20194,281500,2,1.0,BALDWIN GROVE CONDO,832,,1993,290,338,365,Sold,,,https://www.redfin.com/VA/Reston/1347-Garden-Wall-Cir-20194/unit-612/home/9147690,BRIGHT MLS,VAFX1174166,N,Y,38.983081,-77.33797
PAST SALE,,Condo/Co-op,11733 Summerchase Cir Unit A,Reston,VA,20194,265000,2,2.0,,1042,,1988,,254,,,,,https://www.redfin.com/VA/Reston/11733-Summerchase-Cir-20194/unit-A/home/9141706,,,N,Y,38.978624,-77.351353
PAST SALE,July-1-2019,Single Family Residential,11701 Old Bayberry Ln,Reston,VA,20194,585000,3,3.5,RESTON,2366,9644,1985,887,247,58,Sold,,,https://www.redfin.com/VA/Reston/11701-Old-Bayberry-Ln-20194/home/9138345,BRIGHT MLS,VAFX1061882,N,Y,38.9734923,-77.352296
PAST SALE,February-26-2020,Condo/Co-op,1305-A Windleaf Dr #161,Reston,VA,20194,400000,2,2.5,SUTTON RIDGE CONDO,1250,,1995,647,320,360,Sold,,,https://www.redfin.com/VA/Reston/1305-Windleaf-Dr-20194/unit-161/home/9150140,BRIGHT MLS,VAFX1107460,N,Y,38.98493,-77.34419
PAST SALE,November-18-2020,Condo/Co-op,1334 Garden Wall Cir Unit 407 (F),Reston,VA,20194,389025,2,2.5,BALDWIN GROVE CONDO,1540,,1994,381,253,492,Sold,,,https://www.redfin.com/VA/Reston/1334-Garden-Wall-Cir-20194/unit-407-F/home/173375164,BRIGHT MLS,VAFX1159776,N,Y,38.9822909,-77.337653
PAST SALE,April-29-2019,Townhouse,12102 Purple Sage Ct,Reston,VA,20194,383000,3,1.5,RESTON,1220,1380,1985,950,314,110,Sold,,,https://www.redfin.com/VA/Reston/12102-Purple-Sage-Ct-20194/home/9131199,BRIGHT MLS,VAFX1050944,N,Y,38.974296,-77.36274
PAST SALE,March-26-2021,Condo/Co-op,11741 Summerchase Cir Unit 1741-D,Reston,VA,20194,228000,1,1.0,SUMMERRIDGE CONDO,700,,1988,253,326,370,Sold,,,https://www.redfin.com/VA/Reston/11741-Summerchase-Cir-20194/unit-1741-D/home/55168627,BRIGHT MLS,VAFX2000270,N,Y,38.9782016,-77.3515927
PAST SALE,February-5-2021,Condo/Co-op,1515 N Point Dr #303,Reston,VA,20194,355000,3,2.0,NORTH POINT VILLAS CONDO,1300,,1999,302,273,468,Sold,,,https://www.redfin.com/VA/Reston/1515-N-Point-Dr-20194/unit-303/home/22966162,BRIGHT MLS,VAFX1160996,N,Y,38.979918,-77.3513755
PAST SALE,July-26-2019,Townhouse,1585 Stowe Ct,Reston,VA,20194,451500,3,2.5,RESTON,1220,1360,1982,862,370,58,Sold,,,https://www.redfin.com/VA/Reston/1585-Stowe-Ct-20194/home/9134829,BRIGHT MLS,VAFX1070380,N,Y,38.973737,-77.349839
PAST SALE,June-25-2021,Condo/Co-op,1519 N Point Dr #202,Reston,VA,20194,385000,3,2.0,NORTH POINT VILLAS CONDO,1300,,1999,162,296,517,Sold,,,https://www.redfin.com/VA/Reston/1519-N-Point-Dr-20194/unit-202/home/44648750,BRIGHT MLS,VAFX1206446,N,Y,38.9795971,-77.3513755
PAST SALE,March-27-2019,Single Family Residential,11326 Bright Pond Ln,Reston,VA,20194,999000,5,3.5,RESTON,3127,43068,1994,983,319,58,Sold,,,https://www.redfin.com/VA/Reston/11326-Bright-Pond-Ln-20194/home/9125352,BRIGHT MLS,VAFX842458,N,Y,38.9886313,-77.339038
PAST SALE,August-5-2021,Single Family Residential,12014 Creekbend Dr,Reston,VA,20194,1280000,6,4.5,RESTON,6260,47309,1996,121,204,60,Sold,,,https://www.redfin.com/VA/Reston/12014-Creekbend-Dr-20194/home/9130822,BRIGHT MLS,VAFX2001022,N,Y,38.9780005,-77.36425
PAST SALE,August-6-2021,Townhouse,1505 Twisted Oak Dr,Reston,VA,20194,410000,3,1.5,RESTON SEC 39 BLK 2 BLK,1336,1753,1987,120,307,135,Sold,,,https://www.redfin.com/VA/Reston/1505-Twisted-Oak-Dr-20194/home/9134120,BRIGHT MLS,VAFX2003232,N,Y,38.9774679,-77.3540896
PAST SALE,August-22-2019,Single Family Residential,11583 Lake Newport Rd,Reston,VA,20194,949500,5,4.0,RESTON,3264,19548,1984,835,291,58,Sold,,,https://www.redfin.com/VA/Reston/11583-Lake-Newport-Rd-20194/home/9135608,BRIGHT MLS,VAFX1069396,N,Y,38.9742246,-77.3461042
PAST SALE,February-19-2021,Condo/Co-op,11721-A Summerchase Cir Unit 1721-A,Reston,VA,20194,331000,2,2.0,SUMMERRIDGE CONDO,1042,,1988,288,318,370,Sold,,,https://www.redfin.com/VA/Reston/11721-Summerchase-Cir-20194/unit-1721-A/home/49870105,BRIGHT MLS,VAFX1176152,N,Y,38.979161,-77.352329
PAST SALE,August-6-2021,Townhouse,1409 Newport Spring Ct,Reston,VA,20194,601000,3,3.5,RESTON SEC 57 BLK 3,2102,1912,1989,120,286,185,Sold,,,https://www.redfin.com/VA/Reston/1409-Newport-Spring-Ct-20194/home/9139189,BRIGHT MLS,VAFX2002718,N,Y,38.9808312,-77.3532205
PAST SALE,August-10-2021,Single Family Residential,1270 New Bedford Ln,Reston,VA,20194,1220000,4,3.5,NEW BEDFORD,4171,13965,1992,116,292,,Sold,,,https://www.redfin.com/VA/Reston/1270-New-Bedford-Ln-20194/home/9146698,BRIGHT MLS,VAFX2006244,N,Y,38.9802746,-77.3343494
PAST SALE,April-13-2020,Townhouse,11938 Redtree Way,Reston,VA,20194,358000,3,2.5,RESTON SEC 41 BLK 1A 1B,1080,885,1986,600,331,103,Sold,,,https://www.redfin.com/VA/Reston/11938-Redtree-Way-20194/home/9212129,BRIGHT MLS,VAFX1116796,N,Y,38.969088,-77.356193
PAST SALE,October-30-2020,Single Family Residential,11272 Center Harbor Rd,Reston,VA,20194,885000,5,3.5,RESTON,3918,13890,1989,400,226,59,Sold,,,https://www.redfin.com/VA/Reston/11272-Center-Harbor-Rd-20194/home/9158840,BRIGHT MLS,VAFX1150964,N,Y,38.9828641,-77.3330931
PAST SALE,November-30-2021,Townhouse,1587 Brass Lantern,Reston,VA,20194,775000,4,3.5,RESTON SEC 35 BLK 2 THE,3033,4276,1988,4,256,174,Sold,,,https://www.redfin.com/VA/Reston/1587-Brass-Lantern-Way-20194/home/9138909,BRIGHT MLS,VAFX2000099,N,Y,38.9768877,-77.3450789
PAST SALE,October-22-2021,Single Family Residential,1261 New Bedford Ln,Reston,VA,20194,1160000,5,5.0,NEW BEDFORD,6454,13695,1992,43,180,5,Sold,,,https://www.redfin.com/VA/Reston/1261-New-Bedford-Ln-20194/home/9146756,BRIGHT MLS,VAFX1196418,N,Y,38.9809606,-77.3334744
PAST SALE,April-19-2019,Townhouse,1737 Quietree Dr,Reston,VA,20194,392000,2,2.5,RESTON,1452,930,1986,960,270,102,Sold,,,https://www.redfin.com/VA/Reston/1737-Quietree-Dr-20194/unit-N/home/9212668,BRIGHT MLS,VAFX1025660,N,Y,38.968226,-77.3583419
PAST SALE,November-8-2019,Single Family Residential,1279 Lamplighter Way,Reston,VA,20194,775000,4,3.5,RESTON,2735,10162,1989,757,283,138,Sold,,,https://www.redfin.com/VA/Reston/1279-Lamplighter-Way-20194/home/9143280,BRIGHT MLS,VAFX1090764,N,Y,38.9837705,-77.3336764
PAST SALE,October-28-2019,Condo/Co-op,1424 Church Hill Pl,Reston,VA,20194,340000,2,1.5,HAMPTON POINTE CONDO,1165,,1989,768,292,370,Sold,,,https://www.redfin.com/VA/Reston/1424-Church-Hill-Pl-20194/unit-1424/home/9142092,BRIGHT MLS,VAFX1089972,N,Y,38.979158,-77.346915
PAST SALE,May-6-2019,Townhouse,1672 Sierra Woods Ct,Reston,VA,20194,389000,3,3.0,RESTON,1820,1472,1984,943,214,140,Sold,,,https://www.redfin.com/VA/Reston/1672-Sierra-Woods-Ct-20194/home/9210049,BRIGHT MLS,VAFX994246,N,Y,38.971335,-77.3650229
PAST SALE,September-30-2021,Single Family Residential,11196 Longwood Grove Dr,Reston,VA,20194,1450000,5,4.5,RESTON,3404,12855,1990,65,426,60,Sold,,,https://www.redfin.com/VA/Reston/11196-Longwood-Grove-Dr-20194/home/9159009,BRIGHT MLS,VAFX2018304,N,Y,38.9781849,-77.3323079
PAST SALE,September-27-2019,Townhouse,11945 Hollowwind Ct,Reston,VA,20194,402000,2,2.5,RESTON,1100,1021,1986,799,365,103,Sold,,,https://www.redfin.com/VA/Reston/11945-Hollowwind-Ct-20194/home/9212487,BRIGHT MLS,VAFX1084878,N,Y,38.9682734,-77.3570194
PAST SALE,September-30-2021,Single Family Residential,11579 Lake Newport Rd,Reston,VA,20194,1050000,6,4.0,RESTON,3780,20015,1987,65,278,,Sold,,,https://www.redfin.com/VA/Reston/11579-Lake-Newport-Rd-20194/home/9135752,BRIGHT MLS,VAFX2009198,N,Y,38.973689,-77.3456107
PAST SALE,July-9-2021,Townhouse,11554 Brass Lantern Ct,Reston,VA,20194,745000,3,4.0,RESTON SEC 35 BLK 2 THE,2653,3779,1988,148,281,174,Sold,,,https://www.redfin.com/VA/Reston/11554-Brass-Lantern-Ct-20194/home/9138728,BRIGHT MLS,VAFX1202938,N,Y,38.977826,-77.345767
PAST SALE,July-1-2021,Single Family Residential,11967 Grey Squirrel Ln,Reston,VA,20194,980000,5,3.5,RESTON,3733,24434,1986,156,263,60,Sold,,,https://www.redfin.com/VA/Reston/11967-Grey-Squirrel-Ln-20194/home/9129792,BRIGHT MLS,VAFX1200296,N,Y,38.9748889,-77.3607512
PAST SALE,November-8-2021,Single Family Residential,10936 Hunter Gate Way,Reston,VA,20194,1286000,6,5.5,CRIPPENS CORNER,4733,36000,1999,26,272,145,Sold,,,https://www.redfin.com/VA/Reston/10936-Hunter-Gate-Way-20194/home/9160776,BRIGHT MLS,VAFX2023236,N,Y,38.9777062,-77.3308721
PAST SALE,December-17-2020,Townhouse,1519 Autumn Ridge Cir,Reston,VA,20194,493000,3,3.5,RESTON SEC 39 BLK 7,1966,2216,1986,352,251,115,Sold,,,https://www.redfin.com/VA/Reston/1519-Autumn-Ridge-Cir-20194/home/9133573,BRIGHT MLS,VAFX1168602,N,Y,38.9766164,-77.3566578
PAST SALE,August-30-2019,Condo/Co-op,1519 N Point Dr #201,Reston,VA,20194,320000,3,2.0,NORTH POINT VILLAS,1300,,1999,827,246,451,Sold,,,https://www.redfin.com/VA/Reston/1519-N-Point-Dr-20194/unit-201/home/147120688,BRIGHT MLS,VAFX100811,N,Y,38.9795971,-77.3513755
PAST SALE,May-17-2021,Townhouse,1369 Park Garden Ln,Reston,VA,20194,710000,3,3.0,RESTON SEC 63 BLK 2,2591,3293,1993,201,274,98,Sold,,,https://www.redfin.com/VA/Reston/1369-Park-Garden-Ln-20194/home/9148032,BRIGHT MLS,VAFX1196288,N,Y,38.9827304,-77.3428291
PAST SALE,August-2-2019,Single Family Residential,1277 Lamplighter Way,Reston,VA,20194,789000,4,3.5,RESTON,2418,5937,1991,855,326,137,Sold,,,https://www.redfin.com/VA/Reston/1277-Lamplighter-Way-20194/home/9143288,BRIGHT MLS,VAFX1071126,N,Y,38.9838303,-77.3338558
PAST SALE,February-5-2021,Townhouse,11784 Great Owl Cir,Reston,VA,20194,623000,3,3.5,RESTON SEC 55 BLK 3A,2258,1609,1989,302,276,101,Sold,,,https://www.redfin.com/VA/Reston/11784-Great-Owl-Cir-20194/home/9140164,BRIGHT MLS,VAFX1172164,N,Y,38.9812727,-77.3522054
PAST SALE,August-31-2021,Single Family Residential,11908 Champion Lake Ct,Herndon,VA,20170,1012000,4,3.5,SHAKER WOODS,4558,30433,1993,95,222,103,Sold,,,https://www.redfin.com/VA/Herndon/11908-Champion-Lake-Ct-20170/home/9832312,BRIGHT MLS,VAFX2010386,N,Y,38.9851976,-77.3576335
PAST SALE,February-24-2021,Townhouse,11408 Hollow Timber Way,Reston,VA,20194,820000,4,3.5,RESTON SEC 61 BLK 1 TIMB,2775,3087,1990,283,295,185,Sold,,,https://www.redfin.com/VA/Reston/11408-Hollow-Timber-Way-20194/home/9145077,BRIGHT MLS,VAFX1174876,N,Y,38.979811,-77.34212
PAST SALE,March-3-2021,Townhouse,1538 Twisted Oak Dr,Reston,VA,20194,445000,3,2.5,RESTON SEC 39 BLK 2 BLK,1340,1440,1987,276,332,194,Sold,,,https://www.redfin.com/VA/Reston/1538-Twisted-Oak-Dr-20194/home/9832001,BRIGHT MLS,VAFX1177052,N,Y,38.976895,-77.354704
PAST SALE,November-10-2020,Single Family Residential,1600 N Village Rd,Reston,VA,20194,1225000,4,3.5,RESTON,4778,35977,1983,389,256,59,Sold,,,https://www.redfin.com/VA/Reston/1600-N-Village-Rd-20194/home/9226408,BRIGHT MLS,VAFX1159418,N,Y,38.9721455,-77.3476295
PAST SALE,April-22-2021,Single Family Residential,1296 Golden Eagle Dr,Reston,VA,20194,876000,5,3.5,RESTON,3275,13922,1985,226,267,60,Sold,,,https://www.redfin.com/VA/Reston/1296-Golden-Eagle-Dr-20194/home/9137457,BRIGHT MLS,VAFX1184382,N,Y,38.9847585,-77.3466874
PAST SALE,May-7-2021,Condo/Co-op,11707 Summerchase Cir Unit D,Reston,VA,20194,316500,2,1.0,SUMMERRIDGE CONDO,952,,1987,211,332,370,Sold,,,https://www.redfin.com/VA/Reston/11707-Summerchase-Cir-20194/unit-D/home/9141146,BRIGHT MLS,VAFX1186970,N,Y,38.9794709,-77.353396
PAST SALE,April-30-2019,Townhouse,11704 Great Owl Cir,Reston,VA,20194,552500,3,3.5,RESTON,1882,1876,1991,949,294,100,Sold,,,https://www.redfin.com/VA/Reston/11704-Great-Owl-Cir-20194/home/9140429,BRIGHT MLS,VAFX1001566,N,Y,38.9819076,-77.3500409
PAST SALE,September-17-2021,Townhouse,1323 Sundial Dr,Reston,VA,20194,685000,3,2.5,RESTON SEC 61 BLK 3 PARK,2364,2536,1993,78,290,60,Sold,,,https://www.redfin.com/VA/Reston/1323-Sundial-Dr-20194/home/9146616,BRIGHT MLS,VAFX2003464,N,Y,38.9831862,-77.3391277
PAST SALE,August-30-2019,Single Family Residential,1592 Stowe Rd,Reston,VA,20194,737000,6,2.5,RESTON,2963,13169,1983,827,249,58,Sold,,,https://www.redfin.com/VA/Reston/1592-Stowe-Rd-20194/home/9135160,BRIGHT MLS,VAFX927960,N,Y,38.9729666,-77.350725
PAST SALE,June-20-2019,Townhouse,11401-K Gate Hill Pl #72,Reston,VA,20194,407000,2,2.5,SUTTON RIDGE,1420,,1997,898,287,365,Sold,,,https://www.redfin.com/VA/Reston/11401-Gate-Hill-Pl-20194/unit-72/home/9149542,BRIGHT MLS,VAFX1053674,N,Y,38.9850061,-77.3418196
PAST SALE,December-14-2018,Single Family Residential,1311 Quail Ridge Dr,Reston,VA,20194,769000,5,3.5,RESTON,3000,20221,1984,1086,256,58,Sold,,,https://www.redfin.com/VA/Reston/1311-Quail-Ridge-Dr-20194/home/9137878,BRIGHT MLS,1006066966,N,Y,38.9835614,-77.3485716
PAST SALE,June-29-2021,Townhouse,11412 Hollow Timber Way,Reston,VA,20194,824000,4,3.5,RESTON SEC 61 BLK 1 TIMB,3012,4559,1990,158,274,185,Sold,,,https://www.redfin.com/VA/Reston/11412-Hollow-Timber-Way-20194/home/9145069,BRIGHT MLS,VAFX1200540,N,Y,38.979618,-77.342292
PAST SALE,November-18-2020,Condo/Co-op,11710-E Summerchase Cir Unit E,Reston,VA,20194,272000,2,1.0,SUMMERRIDGE CONDO,952,,1987,381,286,364,Sold,,,https://www.redfin.com/VA/Reston/11710-Summerchase-Cir-20194/unit-E/home/9141253,BRIGHT MLS,VAFX1158892,N,Y,38.978743,-77.352641
PAST SALE,October-26-2020,Townhouse,1516 Poplar Grove Dr,Reston,VA,20194,460000,3,3.5,RESTON SEC 39 BLK 2 BLK,1767,1411,1986,404,260,80,Sold,,,https://www.redfin.com/VA/Herndon/1516-Poplar-Grove-Dr-20194/home/9132295,BRIGHT MLS,VAFX1158902,N,Y,38.978501,-77.358302
PAST SALE,November-30-2020,Single Family Residential,1163 Fieldview Dr,Reston,VA,20194,1250000,5,4.5,ESTATES AT WYNDHAM HILLS,4679,27285,1997,369,267,60,Sold,,,https://www.redfin.com/VA/Reston/1163-Fieldview-Dr-20194/home/9125909,BRIGHT MLS,VAFX1159726,N,Y,38.9888745,-77.3363235
PAST SALE,March-31-2020,Single Family Residential,11602 Auburn Grove Ct,Reston,VA,20194,760000,4,2.5,RESTON,2453,13615,1985,613,310,59,Sold,,,https://www.redfin.com/VA/Reston/11602-Auburn-Grove-Ct-20194/home/9122576,BRIGHT MLS,VAFX1112510,N,Y,38.9867724,-77.3474949
PAST SALE,October-30-2020,Townhouse,11417 Hollow Timber Way,Reston,VA,20194,722000,3,3.5,RESTON SEC 61 BLK 1 TIMB,3106,4043,1990,400,232,180,Sold,,,https://www.redfin.com/VA/Reston/11417-Hollow-Timber-Way-20194/home/9145030,BRIGHT MLS,VAFX1152298,N,Y,38.979293,-77.342697
PAST SALE,October-25-2019,Townhouse,11426 Summer House Ct,Reston,VA,20194,645000,3,3.0,RESTON,2364,2681,1994,771,273,160,Sold,,,https://www.redfin.com/VA/Reston/11426-Summer-House-Ct-20194/home/9146216,BRIGHT MLS,VAFX1090512,N,Y,38.9826909,-77.3399129
PAST SALE,October-29-2020,Single Family Residential,1265 Lamplighter Way,Reston,VA,20194,755000,3,3.5,RESTON,2926,7274,1990,401,258,148,Sold,,,https://www.redfin.com/VA/Reston/1265-Lamplighter-Way-20194/home/9143309,BRIGHT MLS,VAFX1111092,N,Y,38.9839346,-77.3344391
PAST SALE,April-26-2021,Single Family Residential,10855 Hunter Gate Way,Reston,VA,20194,925000,4,3.5,CRIPPENS CORNER,3563,6599,1999,222,260,154,Sold,,,https://www.redfin.com/VA/Reston/10855-Hunter-Gate-Way-20194/home/9159729,BRIGHT MLS,VAFX1183620,N,Y,38.9776226,-77.3200805
PAST SALE,May-13-2021,Townhouse,11706 Great Owl Cir,Reston,VA,20194,650000,3,3.5,RESTON SEC 55 BLK 3B,2536,2376,1991,205,256,100,Sold,,,https://www.redfin.com/VA/Reston/11706-Great-Owl-Cir-20194/home/9140436,BRIGHT MLS,VAFX1189848,N,Y,38.9819639,-77.350097
PAST SALE,October-16-2019,Townhouse,1638 Purple Sage Dr,Reston,VA,20194,360000,2,1.5,RESTON,930,1014,1985,780,387,110,Sold,,,https://www.redfin.com/VA/Reston/1638-Purple-Sage-Dr-20194/home/9130937,BRIGHT MLS,VAFX1068510,N,Y,38.972498,-77.363498
PAST SALE,October-22-2021,Single Family Residential,1551 Regatta Ln,Reston,VA,20194,959000,3,3.5,RESTON,2240,4338,1987,43,428,185,Sold,,,https://www.redfin.com/VA/Reston/1551-Regatta-Ln-20194/home/9227429,BRIGHT MLS,VAFX2020998,N,Y,38.9716698,-77.3447583
PAST SALE,October-28-2021,Townhouse,1537 Autumn Ridge Cir,Reston,VA,20194,530000,3,3.5,RESTON SEC 39 BLK 7,1830,2055,1987,37,290,116,Sold,,,https://www.redfin.com/VA/Reston/1537-Autumn-Ridge-Cir-20194/home/9133633,BRIGHT MLS,VAFX2025058,N,Y,38.977221,-77.3575539
PAST SALE,November-10-2020,Townhouse,1340 Sundial Dr,Reston,VA,20194,690000,3,3.0,RESTON SEC 61 BLK 3 PARK,2308,2943,1993,389,299,160,Sold,,,https://www.redfin.com/VA/Reston/1340-Sundial-Dr-20194/home/9146357,BRIGHT MLS,VAFX1156660,N,Y,38.982372,-77.3388361
PAST SALE,June-17-2021,Townhouse,1247 Wild Hawthorn Way,Reston,VA,20194,630000,3,3.0,RESTON SEC 75 BLK 4B WIL,2060,1564,1996,170,306,167,Sold,,,https://www.redfin.com/VA/Reston/1247-Wild-Hawthorn-Way-20194/home/9124838,BRIGHT MLS,VAFX1202184,N,Y,38.990285,-77.343403
PAST SALE,,Condo/Co-op,1508 Summerchase Ct Unit D,Reston,VA,20194,229400,1,1.0,,700,,1987,,328,,,,,https://www.redfin.com/VA/Reston/1508-Summerchase-Ct-20194/unit-D/home/9140899,,,N,Y,38.978933,-77.352875
PAST SALE,July-15-2020,Townhouse,11547 Hemingway Dr,Reston,VA,20194,750000,4,3.5,RESTON SEC 33 BLK 7A HEM,2844,2279,1990,507,264,110,Sold,,,https://www.redfin.com/VA/Reston/11547-Hemingway-Dr-20194/home/9136285,BRIGHT MLS,VAFX1118318,N,Y,38.977547,-77.343098
PAST SALE,June-13-2019,Townhouse,11617 Chapel Cross Way,Reston,VA,20194,645000,3,3.5,RESTON,2438,4146,1987,905,265,208,Sold,,,https://www.redfin.com/VA/Reston/11617-Chapel-Cross-Way-20194/home/9138506,BRIGHT MLS,VAFX1053166,N,Y,38.976593,-77.347743
PAST SALE,November-1-2019,Condo/Co-op,11404 Gate Hill Pl Unit K 90,Reston,VA,20194,415000,3,2.0,SUTTON RIDGE CONDO,1242,,1997,764,334,307,Sold,,,https://www.redfin.com/VA/Reston/11404-Gate-Hill-Pl-20194/unit-K-90/home/177221767,BRIGHT MLS,VAFX1091810,N,Y,38.9847641,-77.3425375
PAST SALE,October-21-2019,Single Family Residential,1641 York Mills Ln,Reston,VA,20194,650000,4,3.5,RESTON,2728,9281,1984,775,238,58,Sold,,,https://www.redfin.com/VA/Reston/1641-York-Mills-Ln-20194/home/9226966,BRIGHT MLS,VAFX1092120,N,Y,38.970428,-77.348796
PAST SALE,April-27-2020,Condo/Co-op,11707-E Summerchase Cir Unit 1707-E,Reston,VA,20194,275500,2,1.0,SUMMERRIDGE CONDO,952,,1987,586,289,364,Sold,,,https://www.redfin.com/VA/Reston/11707-Summerchase-Cir-20194/home/9141152,BRIGHT MLS,VAFX1123292,N,Y,38.9794709,-77.353396
PAST SALE,August-30-2019,Townhouse,1509 Autumn Ridge Cir,Reston,VA,20194,444990,3,2.5,RESTON,1822,1930,1986,827,244,110,Sold,,,https://www.redfin.com/VA/Reston/1509-Autumn-Ridge-Cir-20194/home/9133543,BRIGHT MLS,VAFX1081914,N,Y,38.976864,-77.356351
PAST SALE,July-21-2021,Single Family Residential,10891 Hunter Gate Way,Reston,VA,20194,960000,4,3.5,CRIPPENS CORNER,3289,9805,2000,136,292,145,Sold,,,https://www.redfin.com/VA/Reston/10891-Hunter-Gate-Way-20194/home/9160430,BRIGHT MLS,VAFX1195760,N,Y,38.9778375,-77.3247697
PAST SALE,December-7-2020,Single Family Residential,11626 Quail Ridge Ct,Reston,VA,20194,835000,5,3.5,RESTON,4470,19805,1985,362,187,65,Sold,,,https://www.redfin.com/VA/Reston/11626-Quail-Ridge-Ct-20194/home/9137657,BRIGHT MLS,VAFX1151398,N,Y,38.9849667,-77.350411
PAST SALE,August-20-2021,Townhouse,1211 Heritage Commons Ct,Reston,VA,20194,565000,2,3.5,RESTON SEC 75 BLK 4A VIN,2108,1208,1997,106,268,93,Sold,,,https://www.redfin.com/VA/Reston/1211-Heritage-Commons-Ct-20194/home/9124382,BRIGHT MLS,VAFX1209360,N,Y,38.988688,-77.343185
PAST SALE,July-13-2021,Condo/Co-op,1516 N Point Dr #301,Reston,VA,20194,300000,2,1.0,NORTH POINT VILLAS CONDO,947,,1999,144,317,370,Sold,,,https://www.redfin.com/VA/Reston/1516-N-Point-Dr-20194/unit-301/home/167114045,BRIGHT MLS,VAFX1201182,N,Y,38.9800221,-77.3519587
PAST SALE,August-12-2019,Condo/Co-op,11404 Gate Hill Pl Unit B,Reston,VA,20194,366000,2,2.0,SUTTON RIDGE,1040,,1997,845,352,365,Sold,,,https://www.redfin.com/VA/Reston/11404-Gate-Hill-Pl-20194/unit-82/home/9149612,BRIGHT MLS,VAFX1070424,N,Y,38.9847641,-77.3425375
PAST SALE,May-17-2019,Townhouse,1331 Vintage Pl,Reston,VA,20194,450000,2,3.5,RESTON,1296,1170,1996,932,347,93,Sold,,,https://www.redfin.com/VA/Reston/1331-Vintage-Pl-20194/home/9124203,BRIGHT MLS,VAFX1050902,N,Y,38.988928,-77.344527
PAST SALE,May-2-2019,Townhouse,12136 Purple Sage Ct,Reston,VA,20194,349000,2,1.5,RESTON,840,1029,1985,947,415,105,Sold,,,https://www.redfin.com/VA/Reston/12136-Purple-Sage-Ct-20194/home/9131321,BRIGHT MLS,VAFX1000704,N,Y,38.974279,-77.364032
PAST SALE,July-10-2020,Single Family Residential,11693 Stockbridge Ln,Reston,VA,20194,709900,4,3.5,RESTON,2352,8512,1985,512,302,59,Sold,,,https://www.redfin.com/VA/Reston/11693-Stockbridge-Ln-20194/home/9227202,BRIGHT MLS,VAFX1130884,N,Y,38.9690799,-77.3507699
PAST SALE,April-12-2021,Townhouse,1524 Woodcrest Dr,Reston,VA,20194,390000,2,2.0,RESTON SEC 39 BLK 6 WOOD,931,975,1987,236,419,83,Sold,,,https://www.redfin.com/VA/Reston/1524-Woodcrest-Dr-20194/home/9133236,BRIGHT MLS,VAFX2012148,N,Y,38.9795229,-77.3545382
PAST SALE,January-14-2021,Single Family Residential,1636 Stowe Rd,Reston,VA,20194,658500,3,2.5,RESTON,1728,8325,1983,324,381,59,Sold,,,https://www.redfin.com/VA/Reston/1636-Stowe-Rd-20194/home/9227265,BRIGHT MLS,VAFX1157444,N,Y,38.9690511,-77.3501418
PAST SALE,November-22-2021,Townhouse,1483 Autumn Ridge Cir,Reston,VA,20194,425000,2,2.5,RESTON SEC 39 BLK 7,1620,1500,1986,12,262,116,Sold,,,https://www.redfin.com/VA/Reston/1483-Autumn-Ridge-Cir-20194/home/9133438,BRIGHT MLS,VAFX2021416,N,Y,38.9776669,-77.355832
PAST SALE,October-2-2020,Townhouse,11909 Crosswind Ct,Reston,VA,20194,365000,2,2.0,RESTON SEC 41 BLK 1A 1B,952,1049,1986,428,383,103,Sold,,,https://www.redfin.com/VA/Reston/11909-Crosswind-Ct-20194/home/9212085,BRIGHT MLS,VAFX1150994,N,Y,38.969158,-77.356979
