SALE TYPE,SOLD DATE,PROPERTY TYPE,ADDRESS,CITY,STATE OR PROVINCE,ZIP OR POSTAL CODE,PRICE,BEDS,BATHS,LOCATION,SQUARE FEET,LOT SIZE,YEAR BUILT,DAYS ON MARKET,$/SQUARE FEET,HOA/MONTH,STATUS,NEXT OPEN HOUSE START TIME,NEXT OPEN HOUSE END TIME,URL (SEE https://www.redfin.com/buy-a-home/comparative-market-analysis FOR INFO ON PRICING),SOURCE,MLS#,FAVORITE,INTERESTED,LATITUDE,LONGITUDE
MLS Listing,,Single Family Residential,422 Gardys Mill Rd Rd,Kinsale,VA,22488,135000,3,1.0,,1140,,1950,17,118,,Active,,,https://www.redfin.com/VA/Kinsale/422-Gardy-s-Mill-Rd-22488/home/75102855,CVRMLS,2134402,N,Y,38.0152999,-76.6071752
MLS Listing,,Vacant Land,55 106C Vault Field Rd,Kinsale,VA,22488,19000,,,Kinsale,,95396,,92,,,Active,,,https://www.redfin.com/VA/Kinsale/106-Vault-Field-Rd-22488/home/176321255,BRIGHT MLS,VAWE2000644,N,Y,38.020763,-76.6380175
MLS Listing,,Single Family Residential,24 Shore Ln,Kinsale,VA,22488,249000,4,2.0,SHANNON PARK BEACH,1990,21780,1988,118,125,,Active,,,https://www.redfin.com/VA/Kinsale/24-Shore-Ln-22488/home/59888220,BRIGHT MLS,VAWE2000478,N,Y,38.0475204,-76.5480279
MLS Listing,,Vacant Land,Lot 2 Plainview,Kinsale,VA,22488,199000,,,JOHNSON,,58719,,132,,,Active,,,https://www.redfin.com/VA/Kinsale/Lot-2-Plainview-Rd-22488/home/175853887,BRIGHT MLS,VAWE2000368,N,Y,38.03184656,-76.5740757
MLS Listing,,Single Family Residential,893 Kinsale Rd,Kinsale,VA,22488,175000,5,3.5,Kinsale,2800,32670,1910,356,63,,Active,,,https://www.redfin.com/VA/Kinsale/893-Kinsale-Rd-22488/home/106409311,BRIGHT MLS,VAWE117626,N,Y,38.0286531,-76.5863657
PAST SALE,October-8-2021,Single Family Residential,976 Brook,Kinsale,VA,22488,1352000,4,3.5,HAMPTON HALL ESTATES,3881,193406,1989,58,348,13,Sold,,,https://www.redfin.com/VA/Kinsale/976-Brook-Ave-22488/home/22032484,BRIGHT MLS,VAWE2000200,N,Y,38.0196538,-76.5748432
PAST SALE,September-24-2020,Vacant Land,00 Level Green Rd,Kinsale,VA,22488,20000,,,LEVELGREEN,,99317,,437,,,Sold,,,https://www.redfin.com/VA/Kinsale/00-Level-Green-RD-22488/home/172236291,BRIGHT MLS,VAWE116590,N,Y,38.02476855,-76.59594108
PAST SALE,,Single Family Residential,84 Pleasant View Dr,Kinsale,VA,22488,60000,,1.0,,,4811,1988,,,,,,,https://www.redfin.com/VA/Kinsale/84-Pleasant-View-Dr-22488/home/75101920,,,N,Y,38.0474681,-76.5679908
PAST SALE,August-6-2021,Single Family Residential,42 Sandy Point Rd,Kinsale,VA,22488,240000,4,2.0,SANDY PT BEACH,3943,207345,1815,121,61,,Sold,,,https://www.redfin.com/VA/Kinsale/42-Sandy-Point-Rd-22488/home/174114968,BRIGHT MLS,VAWE117618,N,Y,38.0676503,-76.5367229
PAST SALE,June-19-2020,Single Family Residential,212 Shore Ln,Kinsale,VA,22488,410000,3,2.5,SHANNON PARK BEACH,2168,6150,2013,534,189,,Sold,,,https://www.redfin.com/VA/Kinsale/212-Shore-Ln-22488/home/106408270,BRIGHT MLS,VAWE115718,N,Y,38.0451859,-76.5496039
PAST SALE,November-19-2020,Single Family Residential,100 Shore Ln,Kinsale,VA,22488,290000,3,2.0,SHANNON PARK BEACH,2056,6970,1968,381,141,,Sold,,,https://www.redfin.com/VA/Kinsale/100-Shore-Ln-22488/home/16857310,BRIGHT MLS,VAWE116932,N,Y,38.0467476,-76.5494644
PAST SALE,September-11-2020,Vacant Land,Shingle Hill Rd,Kinsale,VA,22488,30000,,,SHINGLE HILL,,91520,,450,,,Sold,,,https://www.redfin.com/VA/Kinsale/Shingle-Hill-Rd-22488/home/39987087,BRIGHT MLS,VAWE115876,N,Y,38.03008,-76.58746
PAST SALE,August-28-2020,Single Family Residential,1135 Bancton Rd,Kinsale,VA,22488,375000,3,2.0,LEVELGREEN,1918,70567,2004,464,196,,Sold,,,https://www.redfin.com/VA/Kinsale/1135-Bancton-Rd-22488/home/75102374,BRIGHT MLS,VAWE116802,N,Y,38.0366266,-76.5797996
PAST SALE,July-13-2021,Vacant Land,00 Coles Pt,Hague,VA,22469,80000,,,COLES POINT,,470012,,145,,,Sold,,,https://www.redfin.com/VA/HAGUE/0-PECKATONE-RD-22469/home/21672440,BRIGHT MLS,VAWE118214,N,Y,38.094947,-76.583122
PAST SALE,February-28-2020,Single Family Residential,55 Susan Ln,Kinsale,VA,22488,230000,2,2.0,PRETTY POINT,1120,45668,1960,646,205,,Sold,,,https://www.redfin.com/VA/Kinsale/55-Susan-Ln-22488/home/106408376,BRIGHT MLS,VAWE115322,N,Y,38.0472631,-76.5698504
PAST SALE,June-30-2020,Single Family Residential,3378 Skipjack Rd,Kinsale,VA,22488,500000,4,3.0,,1571,25264,1938,523,318,,Sold,,,https://www.redfin.com/VA/Kinsale/3378-Skipjack-Rd-22488/home/106408781,CVRMLS,1910867,N,Y,38.0659688,-76.5356592
PAST SALE,July-24-2019,Single Family Residential,1132 Kinsale Rd,Kinsale,VA,22488,197000,3,2.0,Kinsale,2164,95832,1979,865,91,,Sold,,,https://www.redfin.com/VA/Kinsale/1132-Kinsale-Rd-22488/home/106409140,BRIGHT MLS,VAWE114930,N,Y,38.0272592,-76.590058
PAST SALE,,Single Family Residential,966 Brook Ave,Kinsale,VA,22488,498000,,2.5,,,103673,1986,,,,,,,https://www.redfin.com/VA/Kinsale/966-Brook-Ave-22488/home/106409379,,,N,Y,38.0197729,-76.5759876
PAST SALE,,Single Family Residential,141 Holly Way,Colonial Beach,VA,22443,250000,,1.5,,,6547,1986,,,,,,,https://www.redfin.com/VA/Colonial-Beach/141-Holly-Way-22443/home/75104862,,,N,Y,38.046424,-76.567877
PAST SALE,,Single Family Residential,55 Washington Cir,Kinsale,VA,22488,205000,3,2.0,,,15294,1995,,,,,,,https://www.redfin.com/VA/Kinsale/55-Washington-Cir-22488/home/18970496,,,N,Y,38.0430048,-76.5409596
PAST SALE,April-1-2019,Single Family Residential,518 Plainview Rd,Kinsale,VA,22488,531500,3,2.0,PLAINVIEW,2770,87120,1948,979,192,,Sold,,,https://www.redfin.com/VA/Kinsale/518-Plainview-Rd-22488/home/106409374,BRIGHT MLS,1001733586,N,Y,38.0288033,-76.5676748
PAST SALE,,Single Family Residential,159 Pier Pl,Kinsale,VA,22488,150000,,1.5,,,20283,1979,,,,,,,https://www.redfin.com/VA/Kinsale/159-Pier-Pl-22488/home/106409348,,,N,Y,38.0316753,-76.5823027
PAST SALE,July-1-2020,Single Family Residential,416 Gardys Mill Rd,Kinsale,VA,22488,199900,3,2.0,Kinsale,,87120,2013,522,,,Sold,,,https://www.redfin.com/VA/Kinsale/416-Gardy-s-Mill-Rd-22488/home/106409389,BRIGHT MLS,VAWE116078,N,Y,38.0168553,-76.6093869
PAST SALE,March-28-2019,Vacant Land,LOT 15 Kinsale Creek Rd,Kinsale,VA,22488,36500,,,KINSALE CREEK,,443223,,983,,17,Sold,,,https://www.redfin.com/VA/Kinsale/Kinsale-Creek-Rd-22488/home/148093769,BRIGHT MLS,VAWE106782,N,Y,38.0317596,-76.60584938
PAST SALE,,Single Family Residential,163 Arlington Farm Dr,Kinsale,VA,22488,129000,,2.0,,,72745,1991,,,,,,,https://www.redfin.com/VA/Kinsale/163-Arlington-Farm-Dr-22488/home/106408411,,,N,Y,38.0440819,-76.5702133
PAST SALE,June-22-2021,Vacant Land,225 Hook Rd,Kinsale,VA,22488,17100,,,Kinsale,,165528,,166,,,Sold,,,https://www.redfin.com/VA/Kinsale/225-Hook-Rd-22488/home/148523107,BRIGHT MLS,VAWE103648,N,Y,38.0669208,-76.5705135
PAST SALE,,Single Family Residential,1260 Jackson Creek Rd,Kinsale,VA,22488,286000,3,2.0,,,29621,1980,,,,,,,https://www.redfin.com/VA/Kinsale/1260-Jackson-Creek-Rd-22488/home/75098854,,,N,Y,38.1024639,-76.6036997
PAST SALE,March-26-2019,Single Family Residential,316 Gordon Rd,Kinsale,VA,22488,725000,4,3.5,FRANK GORDON ESTATE,3500,413820,2007,985,207,,Sold,,,https://www.redfin.com/VA/Kinsale/316-Gordon-Rd-22488/home/75099041,BRIGHT MLS,1009948550,N,Y,38.0855354,-76.5941173
PAST SALE,May-13-2020,Single Family Residential,62 Dinks Mill Rd,Kinsale,VA,22488,52000,3,1.0,,1056,24829,1968,571,49,,Sold,,,https://www.redfin.com/VA/Kinsale/62-Dinks-Mill-Rd-22488/home/75101109,CVRMLS,1928636,N,Y,38.042818,-76.6028109
PAST SALE,,Single Family Residential,1792 Sandy Point Rd,Kinsale,VA,22488,35000,,1.0,,,65340,1960,,,,,,,https://www.redfin.com/VA/Kinsale/1792-Sandy-Point-Rd-22488/home/75101304,,,N,Y,38.0616607,-76.5669585
PAST SALE,,Single Family Residential,427 Plainview Rd,Kinsale,VA,22488,325000,,2.0,,,49639,2006,,,,,,,https://www.redfin.com/VA/Kinsale/427-Plainview-Rd-22488/home/75102258,,,N,Y,38.0305627,-76.5691154
PAST SALE,,Single Family Residential,46 Yeocomico Ln,Kinsale,VA,22488,55000,,2.0,,,15246,1900,,,,,,,https://www.redfin.com/VA/Kinsale/46-Yeocomico-Ln-22488/home/75102590,,,N,Y,38.0301209,-76.5804517
PAST SALE,,Single Family Residential,562 Wilson Dr,Kinsale,VA,22488,249000,,2.0,,,50965,1954,,,,,,,https://www.redfin.com/VA/Kinsale/562-Wilson-Dr-22488/home/75102727,,,N,Y,38.0401957,-76.5458202
PAST SALE,July-14-2021,Single Family Residential,170 Allen Point Rd,Kinsale,VA,22488,470000,2,1.5,KINSALE CREEK,1184,207781,1969,144,397,,Sold,,,https://www.redfin.com/VA/Kinsale/170-Allen-Point-Ln-22488/home/75102781,BRIGHT MLS,VAWE118414,N,Y,38.029911,-76.5538828
PAST SALE,December-18-2020,Vacant Land,Sandy Point Rd & Cople Highway Intersection,Kinsale,VA,22488,65000,,,A T JOHNSON EST,,213444,,352,,,Sold,,,https://www.redfin.com/VA/Cople/Unknown-22488/home/173524694,BRIGHT MLS,VAWE117386,N,Y,38.04152596,-76.62408274
PAST SALE,September-27-2021,Single Family Residential,1021 White Point Rd,Kinsale,VA,22488,780000,4,2.5,SHERMAN,2214,133337,2019,69,352,,Sold,,,https://www.redfin.com/VA/Kinsale/1021-White-Point-Rd-22488/home/106409102,BRIGHT MLS,VAWE2000534,N,Y,38.0381515,-76.5586444
PAST SALE,June-5-2020,Single Family Residential,13085 Cople,Kinsale,VA,22488,110000,3,2.0,Kinsale,1539,43560,2002,548,71,,Sold,,,https://www.redfin.com/VA/Kinsale/13085-Cople-Hwy-22488/home/18997561,BRIGHT MLS,VAWE115690,N,Y,38.0213336,-76.6058655
PAST SALE,February-4-2020,Single Family Residential,89 Levelgreen Dr,Kinsale,VA,22488,151000,3,2.0,LEVELGREEN,1232,119790,1995,670,123,,Sold,,,https://www.redfin.com/VA/Kinsale/89-Levelgreen-Dr-22488/home/39872109,BRIGHT MLS,VAWE115462,N,Y,38.0390955,-76.5855237
PAST SALE,November-26-2019,Single Family Residential,141 Holly Cir,Kinsale,VA,22488,250000,3,2.0,PRETTY POINT,1512,21780,1986,740,165,,Sold,,,https://www.redfin.com/VA/Kinsale/141-Holly-Cir-22488/home/177199896,BRIGHT MLS,VAWE115356,N,Y,38.0471075,-76.5681424
PAST SALE,,Single Family Residential,2628 Skipjack Rd,Kinsale,VA,22488,397000,3,2.0,,,41774,1954,,,,,,,https://www.redfin.com/VA/Kinsale/2628-Skipjack-Rd-22488/home/106408578,,,N,Y,38.0564885,-76.5292328
PAST SALE,February-26-2021,Condo/Co-op,92 Shore Ln,Kinsale,VA,22488,148000,4,2.0,Shannon Park Beach,1288,5662,1970,282,115,,Sold,,,https://www.redfin.com/VA/Kinsale/92-Shore-Ln-22488/home/106408180,CVRMLS,2100421,N,Y,38.0471388,-76.5489359
PAST SALE,January-15-2021,Single Family Residential,257 Halbrook,Kinsale,VA,22488,370000,5,3.0,ELIJAH HALL ESTATE,1637,37462,1968,324,226,,Sold,,,https://www.redfin.com/VA/Kinsale/257-Halbrook-Ln-22488/home/75101703,BRIGHT MLS,VAWE117044,N,Y,38.0416678,-76.5364721
PAST SALE,November-12-2020,Single Family Residential,1093 Bancton Rd,Kinsale,VA,22488,515000,4,4.0,Levelgreen,3114,133293,2002,388,165,,Sold,,,https://www.redfin.com/VA/Kinsale/1093-Bancton-Rd-22488/home/75102373,CVRMLS,2025240,N,Y,38.0372842,-76.5802967
PAST SALE,,Single Family Residential,78 Great House Rd,Kinsale,VA,22488,135000,,1.0,,,23601,1895,,,,,,,https://www.redfin.com/VA/Kinsale/78-Great-House-Rd-22488/home/16858300,,,N,Y,38.0282741,-76.5792327
PAST SALE,January-31-2019,Single Family Residential,123 Gardys Mill Rd,Kinsale,VA,22488,37500,3,2.0,Kinsale,947,38856,2002,1039,40,,Sold,,,https://www.redfin.com/VA/Kinsale/123-Gardy-s-Mill-Rd-22488/home/75102397,BRIGHT MLS,VAWE100030,N,Y,38.019074,-76.60769
PAST SALE,September-24-2020,Vacant Land,0 Level Green Dr,Kinsale,VA,22488,20000,,,LEVELGREEN,,116305,,437,,,Sold,,,https://www.redfin.com/VA/Kinsale/0-Level-Green-DR-22488/home/172880184,BRIGHT MLS,VAWE116588,N,Y,38.02585034,-76.59525443
PAST SALE,August-6-2021,Moorage,553 Riverview Ln,Kinsale,VA,22488,188000,,,SHADY HARBOR SHORES,,65340,,121,,,Sold,,,https://www.redfin.com/VA/Kinsale/553-Riverview-Ln-22488/home/106408626,BRIGHT MLS,VAWE118274,N,Y,38.0434353,-76.5637515
PAST SALE,,Other,1335 Gardy's Mill Rd,Kinsale,VA,22488,179900,1,1.0,,,544500,2014,,,,,,,https://www.redfin.com/VA/Kinsale/1335-Gardy-s-Mill-Rd-22488/home/162645077,,,N,Y,38.0033104,-76.6014119
PAST SALE,,Single Family Residential,390 Kinsale Rd,Kinsale,VA,22488,130000,,2.0,,,16553,1915,,,,,,,https://www.redfin.com/VA/Kinsale/390-Kinsale-Rd-22488/home/40012990,,,N,Y,38.03041,-76.57785
PAST SALE,November-20-2020,Single Family Residential,604 Parker Dr,Kinsale,VA,22488,240000,3,2.0,GENERAL PARKER SHORES,1300,,1950,380,185,,Sold,,,https://www.redfin.com/VA/Kinsale/604-Parker-Dr-22488/home/75102067,BRIGHT MLS,VAWE117210,N,Y,38.0394177,-76.5412731
PAST SALE,July-15-2021,Single Family Residential,36 Shore Ln,Kinsale,VA,22488,132000,2,1.0,SHANNON PARK BEACH,952,24960,2006,143,139,,Sold,,,https://www.redfin.com/VA/Kinsale/36-Shore-Ln-22488/home/16857309,BRIGHT MLS,VAWE118212,N,Y,38.0473131,-76.5484861
PAST SALE,November-4-2020,Single Family Residential,437 Plainview Rd,Kinsale,VA,22488,519000,5,4.0,PLAINVIEW,4233,82764,2003,396,123,,Sold,,,https://www.redfin.com/VA/Kinsale/437-Plainview-Rd-22488/home/75102262,BRIGHT MLS,VAWE116974,N,Y,38.0302062,-76.5685396
PAST SALE,August-12-2021,Single Family Residential,184 Windsong Dr,Kinsale,VA,22488,248000,2,2.0,GENERAL PARKER SHORES,816,14374,1974,115,304,,Sold,,,https://www.redfin.com/VA/Kinsale/184-Windsong-Dr-22488/home/106409417,BRIGHT MLS,VAWE118642,N,Y,38.0444134,-76.5397258
PAST SALE,January-22-2021,Single Family Residential,800 Brook Ave,Kinsale,VA,22488,605000,4,3.5,HAMPTON HALL ESTATES,3564,219542,,317,170,,Sold,,,https://www.redfin.com/VA/Kinsale/800-Brook-Ave-22488/home/75102581,BRIGHT MLS,VAWE117404,N,Y,38.0180434,-76.5793733
PAST SALE,November-8-2019,Single Family Residential,242 Plainview Rd,Kinsale,VA,22488,435000,2,2.0,PLAINVIEW,1880,65340,1980,758,231,,Sold,,,https://www.redfin.com/VA/Kinsale/242-Plainview-Rd-22488/home/75105859,BRIGHT MLS,VAWE114820,N,Y,38.0303939,-76.5725202
PAST SALE,May-14-2020,Single Family Residential,377 Plainview Rd,Kinsale,VA,22488,325000,4,4.0,PLAINVIEW,2618,50529,1974,570,124,,Sold,,,https://www.redfin.com/VA/Kinsale/377-Plainview-Rd-22488/home/17125492,BRIGHT MLS,VAWE115996,N,Y,38.0307224,-76.5694096
PAST SALE,,Single Family Residential,906 Jackson Creek Rd,Kinsale,VA,22488,490000,,2.0,,,96965,1985,,,,,,,https://www.redfin.com/VA/Kinsale/906-Jackson-Creek-Rd-22488/home/106405841,,,N,Y,38.0992204,-76.6018149
PAST SALE,,Single Family Residential,530 Rosa Bran Rd,Kinsale,VA,22488,250000,,2.0,,,33715,1985,,,,,,,https://www.redfin.com/VA/Kinsale/530-Rosa-Bran-Rd-22488/home/106408195,,,N,Y,38.0565397,-76.5565222
PAST SALE,,Single Family Residential,604 Springfield Beach Rd,Kinsale,VA,22488,440000,,2.0,,,30680,1962,,,,,,,https://www.redfin.com/VA/Kinsale/604-Springfield-Beach-Rd-22488/home/106408971,,,N,Y,38.0444875,-76.5315451
PAST SALE,,Single Family Residential,2614 Skipjack Rd,Kinsale,VA,22488,460000,,1.5,,,29142,1955,,,,,,,https://www.redfin.com/VA/Kinsale/2614-Skipjack-Rd-22488/home/106408975,,,N,Y,38.0563417,-76.5289954
PAST SALE,,Single Family Residential,89 Yeocomico Ln,Kinsale,VA,22488,463500,,3.0,,,63162,1950,,,,,,,https://www.redfin.com/VA/Kinsale/89-Yeocomico-Ln-22488/home/106409247,,,N,Y,38.0313609,-76.5801131
PAST SALE,,Single Family Residential,6978 Oldhams Rd,Kinsale,VA,22488,530000,,2.0,,,222112,2006,,,,,,,https://www.redfin.com/VA/Kinsale/6978-Oldhams-Rd-22488/home/106409319,,,N,Y,38.0226553,-76.620738
PAST SALE,June-3-2021,Single Family Residential,1280 Skipjack Rd,Sandy Point,VA,22577,204000,4,2.0,SANDY POINT,693,121532,1955,185,294,,Sold,,,https://www.redfin.com/VA/Sandy-Point/1280-Skipjack-RD-22577/home/163600506,BRIGHT MLS,VAWE114374,N,Y,38.0471237,-76.55001312
PAST SALE,July-21-2020,Single Family Residential,40 Susan Ln,Kinsale,VA,22488,275000,2,2.0,PRETTY POINT,1079,13068,1970,502,255,,Sold,,,https://www.redfin.com/VA/Kinsale/40-Susan-Ln-22488/home/106408486,BRIGHT MLS,VAWE111938,N,Y,38.0475311,-76.57022
PAST SALE,,Single Family Residential,240 Kings Mill Rd,Hague,VA,22469,245289,,1.0,,,93218,1975,,,,,,,https://www.redfin.com/VA/Hague/240-Kings-Mill-Rd-22469/home/106409829,,,N,Y,37.9854235,-76.64133
PAST SALE,September-25-2020,Single Family Residential,1319 White Point Rd,Kinsale,VA,22488,415000,3,2.5,,1846,93654,2014,436,225,,Sold,,,https://www.redfin.com/VA/Kinsale/1319-White-Point-Rd-22488/home/106411075,CVRMLS,2014355,N,Y,38.0402329,-76.5531288
PAST SALE,,Single Family Residential,246 Shore Ln,Kinsale,VA,22488,315000,,,,,3128,,,,,,,,https://www.redfin.com/VA/Kinsale/246-Shore-Ln-22488/home/75101823,,,N,Y,38.0447805,-76.5496506
PAST SALE,September-27-2021,Single Family Residential,75 Lee Circle St,Kinsale,VA,22488,355000,2,1.5,PRETTY POINT,1712,43560,1985,69,207,8,Sold,,,https://www.redfin.com/VA/Kinsale/75-Lee-Cir-St-22488/home/75105346,BRIGHT MLS,VAWE118372,N,Y,38.0470797,-76.5677629
PAST SALE,September-19-2019,Single Family Residential,1255 Bancton Rd,Kinsale,VA,22488,459000,3,2.5,LEVELGREEN,3200,50530,2000,808,143,,Sold,,,https://www.redfin.com/VA/Kinsale/1255-Bancton-Rd-22488/home/75102362,BRIGHT MLS,VAWE106796,N,Y,38.0339189,-76.5792327
PAST SALE,June-1-2021,Vacant Land,00 Coles Point Rd,Hague,VA,22469,80000,,,,,1473634,,187,,,Sold,,,https://www.redfin.com/VA/Cople/Coles-Point-Rd-22469/home/62629480,CVRMLS,2108192,N,Y,38.05716084,-76.56403985
PAST SALE,August-14-2020,Single Family Residential,143 Pier Pl,Kinsale,VA,22488,162500,3,2.0,H C MOSS,1260,21344,1992,478,129,,Sold,,,https://www.redfin.com/VA/Kinsale/143-Pier-Pl-22488/home/106409434,BRIGHT MLS,VAWE116692,N,Y,38.0313911,-76.5823027
PAST SALE,December-18-2020,Single Family Residential,6419 Sandy Point Rd,Kinsale,VA,22488,50000,3,1.0,Kinsale,1600,87120,1949,352,31,,Sold,,,https://www.redfin.com/VA/Kinsale/6419-Sandy-Point-Rd-22488/home/75102054,BRIGHT MLS,VAWE117444,N,Y,38.0322879,-76.6277434
PAST SALE,September-1-2021,Vacant Land,6 Lots Pleasant View Dr & Heston Way,Kinsale,VA,22488,27000,,,PRETTY POINT,,37026,,95,,,Sold,,,https://www.redfin.com/VA/Cople/6-Lots-22488/home/172812136,BRIGHT MLS,VAWE116944,N,Y,38.04859335,-76.56761693
PAST SALE,August-21-2020,Single Family Residential,138 Great House,Kinsale,VA,22488,239000,2,2.0,GREAT HOUSE,1738,78408,2005,471,138,,Sold,,,https://www.redfin.com/VA/Kinsale/138-Great-House-Rd-22488/home/28480126,BRIGHT MLS,VAWE116586,N,Y,38.028593,-76.5763339
PAST SALE,May-28-2021,Single Family Residential,148 Windsong Dr,Kinsale,VA,22488,290000,3,1.5,GENERAL PARKER SHORES,1317,26000,1972,191,220,,Sold,,,https://www.redfin.com/VA/Kinsale/148-Windsong-Dr-22488/home/106409085,BRIGHT MLS,VAWE117120,N,Y,38.0440843,-76.5406961
