SALE TYPE,SOLD DATE,PROPERTY TYPE,ADDRESS,CITY,STATE OR PROVINCE,ZIP OR POSTAL CODE,PRICE,BEDS,BATHS,LOCATION,SQUARE FEET,LOT SIZE,YEAR BUILT,DAYS ON MARKET,$/SQUARE FEET,HOA/MONTH,STATUS,NEXT OPEN HOUSE START TIME,NEXT OPEN HOUSE END TIME,URL (SEE https://www.redfin.com/buy-a-home/comparative-market-analysis FOR INFO ON PRICING),SOURCE,MLS#,FAVORITE,INTERESTED,LATITUDE,LONGITUDE
MLS Listing,,Vacant Land,LOT 2 Willow Brook Rd,Bumpass,VA,23024,19000,,,Bumpass,,40075,,2,,,Active,,,https://www.redfin.com/VA/Bumpass/2-Willow-Brook-Rd-23024/home/177486447,BRIGHT MLS,VALA2000864,N,Y,37.8281308,-77.8169369
MLS Listing,,Single Family Residential,286 Moody Creek Rd,Bumpass,VA,23024,975000,3,3.0,JERDONE ISLAND,3600,37026,1987,3,271,18,Active,,,https://www.redfin.com/VA/Bumpass/286-Moody-Creek-Rd-23024/home/128275322,BRIGHT MLS,VALA2000858,N,Y,38.0033989,-77.7587755
MLS Listing,,Single Family Residential,1422 Gammon Town Rd,Bumpass,VA,23024,289900,4,2.0,Bumpass,1904,94525,2019,3,152,,Active,,,https://www.redfin.com/VA/Bumpass/1422-Gammon-Town-Rd-23024/home/167769619,BRIGHT MLS,VALA2000854,N,Y,37.807749,-77.838179
MLS Listing,,Vacant Land,3705 Morning Glory Dr,Bumpass,VA,23024,85000,,,DUKES PLANTATION,,43124,,5,,6,Active,,,https://www.redfin.com/VA/Bumpass/3705-Morning-Glory-Dr-23024/home/15565641,BRIGHT MLS,VASP2004470,N,Y,38.060971,-77.739012
MLS Listing,,Single Family Residential,259 Hawkins Farm Rd,Bumpass,VA,23024,249000,3,2.0,HAWKINS FARM,1216,86118,1995,9,205,,Active,,,https://www.redfin.com/VA/Bumpass/259-Hawkins-Farm-Rd-23024/home/128237929,BRIGHT MLS,VALA2000848,N,Y,37.9553781,-77.7839838
MLS Listing,,Single Family Residential,"Lot 1A Busbees Point,lake Anna",Bumpass,VA,23024,1999000,7,5.0,LONG ACRES,6125,75664,2022,11,326,,Active,,,https://www.redfin.com/VA/Bumpass/1-Busbees-Point-Rd-23024/home/177334285,BRIGHT MLS,VALA2000816,N,Y,38.0131392,-77.7717007
MLS Listing,,Vacant Land,Lot 63 Cuckoo's Nest,Bumpass,VA,23024,449999,,,CUCKOOS NEST,,39988,,20,,21,Active,,,https://www.redfin.com/VA/Bumpass/63-Cuckoo-s-Nest-Dr-23024/home/176649526,BRIGHT MLS,VALA2000800,N,Y,38.0015847,-77.7852776
MLS Listing,,Single Family Residential,16017 Hopeful Church Rd,Bumpass,VA,23024,255000,3,1.5,,1288,104979,1988,28,198,,Active,,,https://www.redfin.com/VA/Bumpass/16017-Hopeful-Church-Rd-23024/home/128338123,CVRMLS,2131884,N,Y,37.8402773,-77.7567193
MLS Listing,,Vacant Land,0 Cameron,Bumpass,VA,23024,45000,,,CUCKOOS NEST,,44039,,31,,21,Active,,,https://www.redfin.com/VA/Unknown/Unknown-Unknown/home/162563631,BRIGHT MLS,VALA2000762,N,Y,37.999544,-77.784683
MLS Listing,,Single Family Residential,152 Bear Ct,Bumpass,VA,23024,469000,4,3.0,BEAR CASTLE,2270,46173,2021,31,207,,Active,,,https://www.redfin.com/VA/Bumpass/152-Bear-Ct-23024/home/177063941,BRIGHT MLS,VALA2000758,N,Y,38.03686,-77.7584612
MLS Listing,,Single Family Residential,845 Elnor Rd,Bumpass,VA,23024,859000,4,3.0,Cuckoo,2957,50965,2005,32,290,17,Active,,,https://www.redfin.com/VA/Bumpass/845-Elnor-Rd-23024/home/128259794,CVRMLS,2133498,N,Y,38.002259,-77.788493
MLS Listing,,Vacant Land,Lot 13 Plum Tree Cir,Bumpass,VA,23024,69000,,,CLEAR WATER,,45302,,32,,17,Active,,,https://www.redfin.com/VA/Bumpass/13-Plum-Tree-Cir-23024/home/177052435,BRIGHT MLS,VALA2000748,N,Y,38.0106355,-77.7708443
MLS Listing,,Vacant Land,171 Plum Tree Cir,Bumpass,VA,23024,89000,,,CLEAR WATER,,45738,,32,,17,Active,,,https://www.redfin.com/VA/Bumpass/171-Plum-Tree-Cir-23024/home/162580567,BRIGHT MLS,VALA2000746,N,Y,38.0111258,-77.7675953
MLS Listing,,Single Family Residential,10911 Carlton Dr,Bumpass,VA,23024,439900,3,3.0,CARLTON'S LANDING,2257,45302,2021,33,195,,Active,,,https://www.redfin.com/VA/Bumpass/10911-Carlton-Dr-23024/home/15565123,BRIGHT MLS,VASP2003906,N,Y,38.036616,-77.712449
MLS Listing,,Vacant Land,4008 Lewiston Rd,Bumpass,VA,23024,65000,,,Bumpass,,43560,,36,,,Active,,,https://www.redfin.com/VA/Bumpass/4008-Lewiston-Rd-23024/home/177009380,BRIGHT MLS,VASP2003828,N,Y,38.069973,-77.744115
MLS Listing,,Single Family Residential,2935-A Minor Rd,Bumpass,VA,23024,5995000,4,4.5,Bumpass,4872,2598354,2020,37,1231,20,Active,,,https://www.redfin.com/VA/Bumpass/2935-Minor-Rd-23024/home/22870973,BRIGHT MLS,VASP2002168,N,Y,38.039511,-77.719566
MLS Listing,,Vacant Land,Bear Ct. Lot 11,Bumpass,VA,23024,99000,,,BEAR CASTLE,,40075,,41,,6,Active,,,https://www.redfin.com/VA/Jackson/Bear-Ct-23024/home/79032588,BRIGHT MLS,VALA2000722,N,Y,38.03802366,-77.75808056
MLS Listing,,Single Family Residential,1536 Willow Brook Rd,Bumpass,VA,23024,254250,3,2.0,Pleasant Acres,1300,50093,1993,44,196,,Active,,,https://www.redfin.com/VA/Bumpass/1536-Willow-Brook-Rd-23024/home/128280268,CVRMLS,2132337,N,Y,37.835342,-77.809669
MLS Listing,,Single Family Residential,Lot 3 Eastham Rd,Bumpass,VA,23024,329500,3,2.0,Bumpass,1476,65340,,52,223,,Active,,,https://www.redfin.com/VA/Bumpass/3-Eastham-Rd-23024/home/176719447,BRIGHT MLS,VALA2000039,N,Y,37.9680035,-77.7395617
MLS Listing,,Single Family Residential,Lot 2 Eastham Rd,Bumpass,VA,23024,344500,3,2.0,Bumpass,1560,65340,,52,221,,Active,,,https://www.redfin.com/VA/Bumpass/2-Eastham-Rd-23024/home/176718832,BRIGHT MLS,VALA2000037,N,Y,37.9679816,-77.7395847
MLS Listing,,Single Family Residential,3401 Rockland Creek Rd,Bumpass,VA,23024,395000,3,2.0,ROCKLAND CREEK ESTATES,1400,44431,2022,53,282,20,Active,,,https://www.redfin.com/VA/Bumpass/3401-Rockland-Creek-Rd-23024/home/15565426,BRIGHT MLS,VASP2000191,N,Y,38.051743,-77.725008
MLS Listing,,Single Family Residential,85 Eastham Rd,Bumpass,VA,23024,329500,3,2.0,,1400,65340,2021,53,235,,Active,,,https://www.redfin.com/VA/Bumpass/85-Eastham-Rd-23024/home/177300640,CVRMLS,2131420,N,Y,37.9689871,-77.7404417
MLS Listing,,Single Family Residential,93 Eastham Rd,Bumpass,VA,23024,344500,3,2.0,,1560,65340,2021,53,221,,Active,,,https://www.redfin.com/VA/Bumpass/93-Eastham-Rd-23024/home/177300641,CVRMLS,2131336,N,Y,37.9691376,-77.7404793
MLS Listing,,Vacant Land,Raven Rd,Bumpass,VA,23024,65000,,,NOAHS LANDING,,40249,,60,,48,Active,,,https://www.redfin.com/VA/Bumpass/Raven-Rd-23024/home/82100559,BRIGHT MLS,VALA2000660,N,Y,37.9870139,-77.73914894
MLS Listing,,Vacant Land,Ark,Bumpass,VA,23024,329000,,,NOAHS LANDING,,41556,,64,,40,Active,,,https://www.redfin.com/VA/Bumpass/Ark-Ave-23024/home/82091925,BRIGHT MLS,VALA2000672,N,Y,37.99751935,-77.73560783
MLS Listing,,Vacant Land,10 Gunnar Way,Bumpass,VA,23024,79900,,,CUCKOOS NEST SECTION III,,48787,,67,,21,Active,,,https://www.redfin.com/VA/Unknown/10-Gunnar-Way-23024/home/176565712,BRIGHT MLS,VALA2000648,N,Y,37.99917269,-77.78285076
MLS Listing,,Single Family Residential,1896 Holly Grove Dr,Bumpass,VA,23024,299950,3,1.0,,1144,62726,1989,67,262,,Active,,,https://www.redfin.com/VA/Bumpass/1896-Holly-Grove-Dr-23024/home/128372763,CVRMLS,2129997,N,Y,37.7964393,-77.8128947
MLS Listing,,Vacant Land,Lot 84 Old House Rd,Bumpass,VA,23024,99500,,,MILL RUN,,52664,,75,,38,Active,,,https://www.redfin.com/VA/Unknown/Lot-84-Old-House-Rd-23024/home/176487323,BRIGHT MLS,VALA2000622,N,Y,38.0122571,-77.7769821
MLS Listing,,Vacant Land,,Bumpass,VA,23024,360000,,,IVY CLIFF,,642074,,75,,,Active,,,https://www.redfin.com/VA/Mountain-Rd/Undisclosed-address-23024/home/174955535,BRIGHT MLS,VALA2000614,N,Y,37.77816563,-77.80535181
MLS Listing,,Vacant Land,Dove Ct,Bumpass,VA,23024,76000,,,NOAHS LANDING,,68999,,81,,,Active,,,https://www.redfin.com/VA/Jackson/Dove-Ct-23024/home/80173760,BRIGHT MLS,VALA2000592,N,Y,37.99206,-77.732
MLS Listing,,Vacant Land,3332 Viola Way,Bumpass,VA,23024,275000,,,ROCKLAND CREEK ESTATES,,91476,,87,,22,Active,,,https://www.redfin.com/VA/Bumpass/3332-Viola-Way-23024/home/15565398,BRIGHT MLS,VASP2002542,N,Y,38.052451,-77.727542
MLS Listing,,Vacant Land,Lot 2 Kentucky Springs Rd,Bumpass,VA,23024,39900,,,LONGWAY,,40511,,93,,,Active,,,https://www.redfin.com/VA/Bumpass/2-Kentucky-Springs-Rd-23024/home/176309219,BRIGHT MLS,VALA2000558,N,Y,37.9653673,-77.7365845
MLS Listing,,Vacant Land,Lot 32 Boxwood Rd,Bumpass,VA,23024,475000,,,MILL RUN,,39988,,96,,25,Active,,,https://www.redfin.com/VA/Bumpass/32-Boxwood-Rd-23024/home/176689712,BRIGHT MLS,VALA2000498,N,Y,38.0113625,-77.7781104
MLS Listing,,Single Family Residential,787 Bohannon Rd,Bumpass,VA,23024,179000,2,2.0,Bumpass,910,83417,2019,101,197,,Active,,,https://www.redfin.com/VA/Bumpass/787-Bohannon-Rd-23024/home/128337625,BRIGHT MLS,VALA2000466,N,Y,37.993325,-77.780379
MLS Listing,,Vacant Land,11511 Red Rock Ln,Bumpass,VA,23024,79900,,,ROCKLAND CREEK ESTATES,,43560,,101,,22,Active,,,https://www.redfin.com/VA/Bumpass/11511-Red-Rock-Ln-23024/home/15565454,BRIGHT MLS,VASP2002396,N,Y,38.0554119,-77.733161
MLS Listing,,Vacant Land,Lot # 11 Old House Rd,Bumpass,VA,23024,59990,,,MILL RUN,,56410,,106,,,Active,,,https://www.redfin.com/VA/Cuckoo/Lot-11-Old-House-Rd-23024/home/174777713,BRIGHT MLS,VALA2000442,N,Y,38.00796,-77.77684
MLS Listing,,Vacant Land,Lot # 12 Old House Rd,Bumpass,VA,23024,59990,,,MILL RUN,,42515,,106,,,Active,,,https://www.redfin.com/VA/Cuckoo/Lot-12-Old-House-Rd-23024/home/174777616,BRIGHT MLS,VALA2000440,N,Y,38.00796,-77.77684
MLS Listing,,Vacant Land,Lighthouse Dr Lot 32,Bumpass,VA,23024,89900,,,Bumpass,,51836,,116,,29,Active,,,https://www.redfin.com/VA/Bumpass/Unknown-23024/unit-32/home/176085195,BRIGHT MLS,VALA2000378,N,Y,38.01447178,-77.77421119
MLS Listing,,Vacant Land,11312 Piney Forest Rd,Bumpass,VA,23024,99900,,,ROCKLAND CREEK ESTATES,,51401,,122,,22,Active,,,https://www.redfin.com/VA/Bumpass/11312-Piney-Forest-Dr-23024/home/15565559,BRIGHT MLS,VASP2001762,N,Y,38.052574,-77.725984
MLS Listing,,Single Family Residential,103 Smitty Cir,Bumpass,VA,23024,545800,3,2.5,CUCKOO'S NEST,2222,317552,2021,132,246,16,Active,,,https://www.redfin.com/VA/Bumpass/103-Smitty-Cir-23024/home/174901398,BRIGHT MLS,VALA2000288,N,Y,37.9956324,-77.7891684
MLS Listing,,Single Family Residential,321 Willow Oak Ln,Bumpass,VA,23024,679000,3,2.0,Bumpass,1608,598471,1993,137,422,,Active,,,https://www.redfin.com/VA/Bumpass/321-Willow-Oak-Ln-23024/home/44656416,BRIGHT MLS,VALA2000060,N,Y,37.9056653,-77.8113628
MLS Listing,,Vacant Land,193 Riverview,Bumpass,VA,23024,59500,,,,,134164,,164,,,Active,,,https://www.redfin.com/VA/Bumpass/193-Riverview-Ln-23024/home/128384310,CVRMLS,2119304,N,Y,37.776205,-77.788734
MLS Listing,,Single Family Residential,13085 Jefferson Hwy,Bumpass,VA,23024,235000,2,1.0,Bumpass,1150,348480,,172,204,,Active,,,https://www.redfin.com/VA/Bumpass/13085-Jefferson-Hwy-23024/home/40495067,BRIGHT MLS,VALA123326,N,Y,37.884148,-77.827775
MLS Listing,,Single Family Residential,3731 Breaknock Rd,Bumpass,VA,23024,399900,5,3.0,ZUGSCHWERT PROPERTY,2800,42689,2022,180,143,,Active,,,https://www.redfin.com/VA/Bumpass/3731-Breaknock-Rd-23024/home/15562795,BRIGHT MLS,VASP232310,N,Y,38.058852,-77.753779
MLS Listing,,Vacant Land,Lot 5 Anderson Mill Dr,Bumpass,VA,23024,80900,,,Anderson Mill,,79714,,186,,,Active,,,https://www.redfin.com/VA/Mountain-Rd/Lot-5-Anderson-Mill-Dr-23024/home/174777506,CVRMLS,2116446,N,Y,37.77427936,-77.79879415
MLS Listing,,Vacant Land,Lot 14 Anderson Mill Dr,Bumpass,VA,23024,72900,,,Anderson Mill,,175111,,186,,,Active,,,https://www.redfin.com/VA/Mountain-Rd/Lot-14-Anderson-Mill-Dr-23024/home/174777518,CVRMLS,2116435,N,Y,37.7714318,-77.794739
MLS Listing,,Vacant Land,Parcel A Anderson Mill Dr,Bumpass,VA,23024,80900,,,Anderson Mill,,116740,,186,,,Active,,,https://www.redfin.com/VA/Mountain-Rd/Parcel-A-Anderson-Mill-Dr-23024/home/174777543,CVRMLS,2116427,N,Y,37.77107142,-77.79536162
MLS Listing,,Single Family Residential,183 Pleasant Landing Rd,Bumpass,VA,23024,1750000,3,2.5,PLEASANTS LANDING,2208,154246,1986,209,793,,Active,,,https://www.redfin.com/VA/Bumpass/183-Pleasant-Landing-Rd-23024/home/128241828,BRIGHT MLS,VALA123166,N,Y,38.005126,-77.715421
MLS Listing,,Vacant Land,Rainbow Rdg,Bumpass,VA,23024,89000,,,NOAHS LANDING,,40641,,215,,40,Active,,,https://www.redfin.com/VA/Bumpass/Rainbow-RDG-Unknown/home/175981841,BRIGHT MLS,VALA123176,N,Y,37.99437633,-77.73873537
MLS Listing,,Vacant Land,152 Cuckoos Nest Dr,Bumpass,VA,23024,39000,,,CUCKOOS NEST,,39988,,227,,21,Active,,,https://www.redfin.com/VA/Bumpass/152-Cuckoo-s-Nest-Dr-23024/home/174999133,BRIGHT MLS,VALA123064,N,Y,38.0010716,-77.7845636
MLS Listing,,Single Family Residential,6 Bella Woods Dr,Bumpass,VA,23024,360000,3,2.5,BELLA WOODS,1564,74923,2021,232,230,,Active,,,https://www.redfin.com/VA/Bumpass/6-Bella-Woods-DR-23024/home/174777491,BRIGHT MLS,VALA123058,N,Y,37.98760343,-77.70886977
MLS Listing,,Single Family Residential,12029 Sycamore Shoals Dr,Bumpass,VA,23024,690900,3,2.5,SYCAMORE SHOALS,6841,181645,2017,237,101,31,Active,,,https://www.redfin.com/VA/Bumpass/12029-Sycamore-Shoals-Dr-23024/home/15567714,BRIGHT MLS,VASP230450,N,Y,38.0668406,-77.758038
MLS Listing,,Vacant Land,TBD New South Rdg,Bumpass,VA,23024,42500,,,,,66211,,246,,,Active,,,https://www.redfin.com/VA/Mountain-Rd/TBD-S-New-Ridge-Rd-23024/home/174867456,CVRMLS,2108866,N,Y,37.828027,-77.792444
MLS Listing,,Vacant Land,252 New South Ridge Rd,Bumpass,VA,23024,42500,,,,,113256,,246,,,Active,,,https://www.redfin.com/VA/Bumpass/252-S-New-Ridge-Rd-23024/home/162558916,CVRMLS,2108869,N,Y,37.829527,-77.7918681
MLS Listing,,Vacant Land,LOT 3 Whispering Pine Ct,Bumpass,VA,23024,39900,,,Willowbrook Estates,,61419,,248,,,Active,,,https://www.redfin.com/VA/Bumpass/3-Whispering-Pine-Ct-23024/home/174852780,CVRMLS,2037752,N,Y,37.8619453,-77.7813034
MLS Listing,,Vacant Land,LOT 4 Whispering Pine Ct,Bumpass,VA,23024,39900,,,Willowbrook Estates,,71002,,248,,,Active,,,https://www.redfin.com/VA/Bumpass/4-Whispering-Pine-Ct-23024/home/174852751,CVRMLS,2037755,N,Y,37.8619415,-77.7813081
MLS Listing,,Vacant Land,3 Fredericks Hall Rd,Bumpass,VA,23024,79900,,,,,140698,,248,,,Active,,,https://www.redfin.com/VA/Bumpass/3-Fredericks-Hall-Rd-23024/home/174852662,CVRMLS,2105468,N,Y,37.9571055,-77.7550129
MLS Listing,,Vacant Land,0 Mill Run,Bumpass,VA,23024,77500,,,Mill Run,,48787,,248,,38,Active,,,https://www.redfin.com/VA/Cuckoo/Mill-Run-23024/home/80174135,CVRMLS,1736530,N,Y,38.00724779,-77.77545607
MLS Listing,,Vacant Land,LOT 12 Whispering Pine Ln,Bumpass,VA,23024,45000,,,Willowbrook Estates,,70131,,248,,,Active,,,https://www.redfin.com/VA/Bumpass/12-Whispering-Pine-Ln-23024/home/174852566,CVRMLS,2037748,N,Y,37.8658648,-77.7818191
MLS Listing,,Vacant Land,Lot 55 Deep Creek Cir,Bumpass,VA,23024,275500,,,MILL RUN,,53797,,255,,25,Active,,,https://www.redfin.com/VA/Bumpass/Lot-55-Deep-Creek-CIR-Unknown/home/175019440,BRIGHT MLS,1001938438,N,Y,38.00918606,-77.78047323
MLS Listing,,Vacant Land,Lot 22 Old House,Bumpass,VA,23024,264500,,,MILL RUN,,67605,,255,,25,Active,,,https://www.redfin.com/VA/Cuckoo/Lot-22-Old-House-Rd-23024/home/174777791,BRIGHT MLS,VALA121374,N,Y,38.013003,-77.7782159
MLS Listing,,Vacant Land,Eastham Rd,Bumpass,VA,23024,34900,,,ROCK CREEK ESTATE,,68259,,255,,,Active,,,https://www.redfin.com/VA/Bumpass/Eastham-Rd-23024/home/82094592,BRIGHT MLS,VALA121408,N,Y,37.98302005,-77.73324724
MLS Listing,,Vacant Land,Lot 31 Boxwood Rd,Bumpass,VA,23024,294500,,,MILL RUN,,44388,,255,,38,Active,,,https://www.redfin.com/VA/Cuckoo/Lot-31-Boxwood-Rd-23024/home/174777761,BRIGHT MLS,VALA122028,N,Y,38.01302836,-77.77878453
MLS Listing,,Vacant Land,Lot 13 Moody Town Rd,Bumpass,VA,23024,89000,,,JERDONE ISLAND,,41992,,255,,18,Active,,,https://www.redfin.com/VA/Bumpass/13-Moody-Town-Rd-23024/home/174777707,BRIGHT MLS,VALA120088,N,Y,37.9957243,-77.7716038
MLS Listing,,Vacant Land,Lot 58 Deep Crk,Bumpass,VA,23024,394500,,,MILL RUN,,41600,,255,,25,Active,,,https://www.redfin.com/VA/Bumpass/Lot-58-Deep-CRK-Unknown/home/174777698,BRIGHT MLS,VALA121378,N,Y,38.00970417,-77.78113146
MLS Listing,,Vacant Land,Lot 51 Old House,Bumpass,VA,23024,249500,,,MILL RUN,,49049,,255,,25,Active,,,https://www.redfin.com/VA/Cuckoo/Lot-51-Old-House-Rd-23024/home/174777690,BRIGHT MLS,VALA122030,N,Y,38.00836202,-77.78019
MLS Listing,,Vacant Land,lot 4 Mill Run,Bumpass,VA,23024,90500,,,MILL RUN,,40075,,255,,38,Active,,,https://www.redfin.com/VA/Cuckoo/lot-4-Mill-Run-23024/home/174777688,BRIGHT MLS,1001938160,N,Y,38.00767617,-77.77538808
MLS Listing,,Single Family Residential,138 Lake Ct,Bumpass,VA,23024,1200000,3,2.0,Bumpass,1536,43560,1974,255,781,,Active,,,https://www.redfin.com/VA/Bumpass/138-Lake-Ct-23024/home/128266481,BRIGHT MLS,VALA121868,N,Y,38.0415986,-77.7578815
MLS Listing,,Vacant Land,Lot 93 Mill Run,Bumpass,VA,23024,77500,,,MILL RUN,,48787,,255,,38,Active,,,https://www.redfin.com/VA/Cuckoo/Lot-93-Mill-Run-23024/home/174777594,BRIGHT MLS,1000091789,N,Y,38.00614397,-77.77448771
MLS Listing,,Vacant Land,Lot 1 Mill Run,Bumpass,VA,23024,94500,,,MILL RUN,,46217,,255,,38,Active,,,https://www.redfin.com/VA/Cuckoo/Lot-1-Mill-Run-23024/home/174777592,BRIGHT MLS,1001938018,N,Y,38.0064866,-77.77422905
MLS Listing,,Vacant Land,Lot 2 Mill Run,Bumpass,VA,23024,90500,,,MILL RUN,,42819,,255,,38,Active,,,https://www.redfin.com/VA/Cuckoo/Lot-2-Mill-Run-23024/home/175019531,BRIGHT MLS,1001938100,N,Y,38.00669959,-77.77475898
MLS Listing,,Vacant Land,Bumpass Rd,Bumpass,VA,23024,99900,,,Bumpass,,326700,,255,,,Active,,,https://www.redfin.com/VA/BUMPASS/BUMPASS-RD-23024/home/80174133,BRIGHT MLS,VALA121162,N,Y,37.958972,-77.746408
MLS Listing,,Vacant Land,Lot 48 Mill Run,Bumpass,VA,23024,187500,,,MILL RUN,,119529,,255,,38,Active,,,https://www.redfin.com/VA/Cuckoo/Lot-48-Mill-Run-23024/home/174777583,BRIGHT MLS,VALA122026,N,Y,38.0082692,-77.77825881
MLS Listing,,Vacant Land,Lot 88,Bumpass,VA,23024,64000,,,MILL RUN,,58414,,255,,15,Active,,,https://www.redfin.com/VA/Bumpass/88-Bumpass-Rd-23024/home/174777565,BRIGHT MLS,VALA119046,N,Y,37.9567674,-77.7530259
MLS Listing,,Vacant Land,Lot 110 Rainbow Rdg,Bumpass,VA,23024,61000,,,NOAHS LANDING,,70698,,255,,,Active,,,https://www.redfin.com/VA/Jackson/Lot-110-Rainbow-Rdg-23024/home/174777527,BRIGHT MLS,VALA122214,N,Y,37.98567876,-77.73542703
MLS Listing,,Vacant Land,LOT 56 Deep Creek Cir,Bumpass,VA,23024,324500,,,MILL RUN,,47742,,255,,,Active,,,https://www.redfin.com/VA/Bumpass/LOT-56-Deep-Creek-CIR-Unknown/home/174777521,BRIGHT MLS,VALA121768,N,Y,38.00897929,-77.78051187
MLS Listing,,Vacant Land,Lot 77 Old House Rd,Bumpass,VA,23024,297500,,,MILL RUN,,63162,,255,,25,Active,,,https://www.redfin.com/VA/Cuckoo/Lot-77-Old-House-Rd-23024/home/174777512,BRIGHT MLS,1000091795,N,Y,38.00727786,-77.78349589
MLS Listing,,Vacant Land,Micmac,Bumpass,VA,23024,325000,,,PANAMINT SHORES,,99186,,255,,17,Active,,,https://www.redfin.com/VA/Jackson/Micmac-Dr-23024/home/174777508,BRIGHT MLS,VALA122636,N,Y,38.00729639,-77.74378057
MLS Listing,,Vacant Land,Equestrian Landing Trl,Bumpass,VA,23024,54900,,,EQUESTRIAN LANDING,,232523,,255,,,Active,,,https://www.redfin.com/VA/Bumpass/Equestrian-Trail-Way-23024/home/82096568,BRIGHT MLS,VALA119302,N,Y,37.99177883,-77.70955671
MLS Listing,,Vacant Land,Lot 52 Old House Rd,Bumpass,VA,23024,99500,,,MILL RUN,,47742,,255,,38,Active,,,https://www.redfin.com/VA/Unknown/Lot-52-Old-House-Rd-23024/home/175569503,BRIGHT MLS,1001938266,N,Y,38.00729168,-77.7810499
MLS Listing,,Vacant Land,Unknown,Midland,VA,22728,150000,,,Midland,,104326,,285,,,Active,,,https://www.redfin.com/VA/Unknown/UNKNOWN-Unknown/home/68286096,BRIGHT MLS,VAFQ169238,N,Y,37.99544698,-77.71780479
MLS Listing,,Vacant Land,0 Pendleton Pl,Bumpass,VA,23024,209900,,,Bumpass,,880348,,309,,,Active,,,https://www.redfin.com/VA/Livingston/Pendleton-Pl-23024/home/174329139,BRIGHT MLS,VASP228470,N,Y,38.08823002,-77.75904738
MLS Listing,,Vacant Land,Pendleton Farm Rd,Bumpass,VA,23024,89000,,,PENDLETON FARM ESTATES,,283140,,363,,,Active,,,https://www.redfin.com/VA/BUMPASS/PENDLETON-FARM-RD-23024/home/22870974,BRIGHT MLS,VASP227208,N,Y,38.103931,-77.746084
MLS Listing,,Vacant Land,10837 Lucks Rd,Bumpass,VA,23024,69000,,,Bumpass,,74488,,363,,,Active,,,https://www.redfin.com/VA/Bumpass/10837-Lucks-Rd-23024/home/15565373,BRIGHT MLS,VASP227202,N,Y,38.03301,-77.7104389
MLS Listing,,Vacant Land,3346 Fisherman Way,Bumpass,VA,23024,225000,,,ROCKLAND CREEK ESTATES,,43560,,479,,,Active,,,https://www.redfin.com/VA/Bumpass/3346-Fisherman-Way-23024/home/15565439,BRIGHT MLS,VASP224364,N,Y,38.053286,-77.733814
MLS Listing,,Vacant Land,3600 Pauley Dr,Bumpass,VA,23024,189000,,,ANNA VISTA,,43560,,482,,4,Active,,,https://www.redfin.com/VA/Bumpass/3600-Pauley-Dr-23024/home/22875378,BRIGHT MLS,VASP224262,N,Y,38.0572474,-77.7595141
MLS Listing,,Single Family Residential,1263 Belsches Rd,Bumpass,VA,23024,264000,3,2.0,Locust Hill,1248,,1998,7306,212,,Active,,,https://www.redfin.com/VA/Bumpass/1263-Belsches-Rd-23024/home/128218489,CVRMLS,2128430,N,Y,37.9405306,-77.7370489
PAST SALE,,Single Family Residential,75 Megan Way,Bumpass,VA,23024,285000,3,2.5,,1476,42253,2017,,193,,,,,https://www.redfin.com/VA/Bumpass/75-Megan-Way-23024/home/148745391,,,N,Y,37.996888,-77.782216
PAST SALE,August-28-2020,Vacant Land,0 0,California City,CA,,2000,,,CAC - California City,,10063,,464,,,Sold,,,https://www.redfin.com/Unknown/California-City/0-Unknown/home/167022439,CRMLS,AR20095830,N,Y,38.01374714,-77.77904738
PAST SALE,August-5-2020,Single Family Residential,1795 Buckner Rd,Bumpass,VA,23024,225000,3,2.0,LONG CREEK RIDGE,1250,118919,1997,487,180,,Sold,,,https://www.redfin.com/VA/Bumpass/1795-Buckner-Rd-23024/home/128239488,BRIGHT MLS,VALA121234,N,Y,37.9092449,-77.8300053
PAST SALE,April-15-2021,Vacant Land,Lot 12 Anderson Mill Dr,Bumpass,VA,23024,82950,,,ANDERSON MILL,,147233,,234,,,Sold,,,https://www.redfin.com/VA/Mountain-Rd/Lot-12-Anderson-Mill-Dr-23024/home/174799907,BRIGHT MLS,VALA121072,N,Y,37.7722414,-77.79609014
PAST SALE,August-3-2021,Vacant Land,3332 Riverbend Ct,Bumpass,VA,23024,100000,,,ROCKLAND CREEK ESTATES,,69260,,124,,,Sold,,,https://www.redfin.com/VA/Bumpass/3332-River-Bend-Ct-23024/home/15568224,BRIGHT MLS,VASP2000690,N,Y,38.048267,-77.728182
PAST SALE,,Vacant Land,579 Folly Hill Rd,Bumpass,VA,23024,370765,,,,,177725,,,,,,,,https://www.redfin.com/VA/Bumpass/579-Folly-Hill-Rd-23024/home/162568524,,,N,Y,37.807496,-77.809162
PAST SALE,,Single Family Residential,5 Commodore Ln,Bumpass,VA,23024,495000,4,2.0,,2275,61637,1989,,218,,,,,https://www.redfin.com/VA/Bumpass/5-Commodore-Ln-23024/home/128371828,,,N,Y,38.001863,-77.72065
PAST SALE,,Vacant Land,,,VA,,46000,,,,,117612,,,,,,,,https://www.redfin.com/VA/Unknown/Unknown-Unknown/home/162585694,,,N,Y,38.001228,-77.754896
PAST SALE,March-11-2020,Single Family Residential,3615 Lakewinds Ln,Bumpass,VA,23024,440000,4,3.0,FOREST HILLS,1260,118048,1986,634,349,8,Sold,,,https://www.redfin.com/VA/BUMPASS/3615-LAKEWINDS-LN-23024/home/15565541,BRIGHT MLS,VASP219012,N,Y,38.059206,-77.73891
PAST SALE,,Single Family Residential,67 Walters Way,Bumpass,VA,23024,269000,3,2.0,,1848,71874,2005,,146,,,,,https://www.redfin.com/VA/Bumpass/67-Walters-Way-23024/home/128223606,,,N,Y,37.9060102,-77.7361995
PAST SALE,November-4-2021,Single Family Residential,3125 Blount Dr,Bumpass,VA,23024,305000,3,2.0,BLOUNTS HARBOR,1488,44431,1990,31,205,13,Sold,,,https://www.redfin.com/VA/Bumpass/3125-Blount-Dr-23024/home/15568019,BRIGHT MLS,VASP2001038,N,Y,38.046328,-77.725781
PAST SALE,,Single Family Residential,568 Ark Ave,Bumpass,VA,23024,1075000,5,5.5,,5004,33846,2010,,215,,,,,https://www.redfin.com/VA/Bumpass/568-Ark-Ave-23024/home/128295055,,,N,Y,37.9981996,-77.7351488
PAST SALE,,Single Family Residential,4145 Paynes Mill Rd,Bumpass,VA,23024,195000,3,2.0,,1264,70306,1994,,154,,,,,https://www.redfin.com/VA/Bumpass/4145-Paynes-Mill-Rd-23024/home/128274051,,,N,Y,37.8676042,-77.8444779
PAST SALE,,Single Family Residential,204 Loch Erie Way,Bumpass,VA,23024,1350000,4,3.5,,5487,54494,2001,,246,,,,,https://www.redfin.com/VA/Bumpass/204-Loch-Erie-Way-23024/home/128225507,,,N,Y,38.0045367,-77.7434645
PAST SALE,,Single Family Residential,264 Moody Creek Rd,Bumpass,VA,23024,605000,4,3.5,,2486,32670,1989,,243,,,,,https://www.redfin.com/VA/Bumpass/264-Moody-Creek-Rd-23024/home/128277751,,,N,Y,38.0036324,-77.7582838
PAST SALE,January-15-2021,Vacant Land,Lot #9 Old House,Bumpass,VA,23024,39990,,,MILL RUN,,50835,,324,,,Sold,,,https://www.redfin.com/VA/Cuckoo/Old-House-Rd-23024/home/80174136,BRIGHT MLS,VALA120978,N,Y,38.01278072,-77.77685304
PAST SALE,,Vacant Land,,,VA,,100000,,,,,940678,,,,,,,,https://www.redfin.com/VA/Unknown/Unknown-Unknown/home/162567588,,,N,Y,37.834573,-77.804261
PAST SALE,,Single Family Residential,82 Beagle Run Dr,Bumpass,VA,23024,390000,5,3.5,,3052,152460,2010,,128,,,,,https://www.redfin.com/VA/Bumpass/82-Beagle-Run-Dr-23024/home/128261252,,,N,Y,37.9123518,-77.7642736
PAST SALE,April-23-2021,Vacant Land,Burruss Mill Rd,Bumpass,VA,23024,50000,,,BEAR CASTLE,,104544,,226,,6,Sold,,,https://www.redfin.com/VA/BUMPASS/BURRUSS-MILL-RD-23024/home/79056234,BRIGHT MLS,VALA122676,N,Y,38.036139,-77.761195
PAST SALE,October-7-2021,Single Family Residential,342 New South Ridge Rd,Bumpass,VA,23024,329900,4,2.5,SOUTH RIDGE,1980,66211,2021,59,167,,Sold,,,https://www.redfin.com/VA/Bumpass/342-S-New-Ridge-Rd-23024/home/174852457,BRIGHT MLS,VALA2000402,N,Y,37.8279353,-77.7920604
PAST SALE,May-14-2021,Vacant Land,New Dawn Ct,Bumpass,VA,23024,200000,,,NOAHS LANDING,,40162,,205,,40,Sold,,,https://www.redfin.com/VA/Bumpass/New-Dawn-Ct-23024/home/82092540,BRIGHT MLS,VALA122110,N,Y,37.99235957,-77.74188911
PAST SALE,,Single Family Residential,2709 Wickham Rd,Bumpass,VA,23024,197000,3,2.0,,1118,117612,1999,,176,,,,,https://www.redfin.com/VA/Bumpass/2709-Wickham-Rd-23024/home/128221706,,,N,Y,37.908913,-77.8031326
PAST SALE,October-7-2020,Vacant Land,11137 Piney Forest Dr,Bumpass,VA,23024,46000,,,ROCKLAND CREEK ESTATES,,44431,,424,,22,Sold,,,https://www.redfin.com/VA/Bumpass/11137-Piney-Forest-Dr-23024/home/15565553,BRIGHT MLS,VASP218696,N,Y,38.046766,-77.726524
PAST SALE,February-19-2021,Single Family Residential,1761 Buckner Rd,Bumpass,VA,23024,380000,4,2.5,LONG CREEK RIDGE,3900,329314,1999,289,97,,Sold,,,https://www.redfin.com/VA/Bumpass/1761-Buckner-Rd-23024/home/128261166,BRIGHT MLS,VALA122524,N,Y,37.90902,-77.830829
PAST SALE,April-6-2021,Single Family Residential,Lot 11 Greenes Corner Rd,Bumpass,VA,23024,243970,3,2.0,GREENES CORNER,1400,151023,,243,174,,Sold,,,https://www.redfin.com/VA/Bumpass/11-Greenes-Corner-Rd-23024/home/174800310,BRIGHT MLS,VALA122052,N,Y,37.9768636,-77.7210227
PAST SALE,,Single Family Residential,859 W Chapel Dr,Bumpass,VA,23024,180700,2,2.0,,1794,217800,1975,,101,,,,,https://www.redfin.com/VA/Bumpass/859-W-Chapel-Dr-23024/home/128320545,,,N,Y,37.8070784,-77.820043
PAST SALE,,Single Family Residential,128 W Chapel Dr,Bumpass,VA,23024,225000,3,1.0,,1248,43560,1961,,180,,,,,https://www.redfin.com/VA/Bumpass/128-W-Chapel-Dr-23024/home/128247390,,,N,Y,37.7971191,-77.8170497
PAST SALE,June-21-2021,Vacant Land,Lot 85 Point Dr,Bumpass,VA,23024,25000,,,JERDONE ISLAND,,43299,,167,,17,Sold,,,https://www.redfin.com/VA/Bumpass/85-Point-Dr-23024/home/174777571,BRIGHT MLS,VALA122226,N,Y,38.0012402,-77.7571738
PAST SALE,June-23-2021,Vacant Land,Kentucky Springs Rd,Bumpass,VA,23024,450000,,,Bumpass,,120661,,165,,,Sold,,,https://www.redfin.com/VA/Bumpass/Kentucky-Springs-Rd-Unknown/home/174777684,BRIGHT MLS,VALA121366,N,Y,37.99054,-77.7673
PAST SALE,,Single Family Residential,310 Anderson Mill Dr,Bumpass,VA,23024,209000,2,2.0,,1116,69260,2017,,187,,,,,https://www.redfin.com/VA/Bumpass/310-Anderson-Mill-Dr-23024/home/148744850,,,N,Y,37.7731663,-77.7987306
PAST SALE,March-4-2021,Single Family Residential,2568 Crewsville Rd,Bumpass,VA,23024,252000,3,2.0,Cedar Hill,1620,65340,1994,276,156,,Sold,,,https://www.redfin.com/VA/Bumpass/2568-Crewsville-Rd-23024/home/128235422,CVRMLS,2037522,N,Y,37.8301495,-77.8187027
PAST SALE,December-10-2018,Condo/Co-op,391 N Holly Grove Ct,Louisa,VA,23024,115000,3,2.0,Holly Grove Estates,1200,162914,1990,1091,96,,Sold,,,https://www.redfin.com/VA/Bumpass/391-Holly-Grove-Ct-23024/home/128320480,CVRMLS,1837608,N,Y,37.8198194,-77.8121351
PAST SALE,,Vacant Land,1372 Bumpass Rd,Bumpass,VA,23024,1605000,,,,,172498,,,,,,,,https://www.redfin.com/VA/Bumpass/1372-Bumpass-Rd-23024/home/162556749,,,N,Y,37.9640151,-77.7336619
PAST SALE,September-3-2020,Single Family Residential,601 Bumpass Rd,Bumpass,VA,23024,269900,3,2.0,Bumpass,1642,485258,2003,458,164,,Sold,,,https://www.redfin.com/VA/Bumpass/601-Bumpass-Rd-23024/home/128299442,BRIGHT MLS,VALA121288,N,Y,37.961515,-77.745839
PAST SALE,,Single Family Residential,860 Carrs Bridge Rd,Bumpass,VA,23024,910000,4,2.5,,4940,50965,1990,,184,,,,,https://www.redfin.com/VA/Bumpass/860-Carrs-Bridge-Rd-23024/home/128340283,,,N,Y,38.0398453,-77.7726078
PAST SALE,,Single Family Residential,156 Westshire Ln,Bumpass,VA,23024,229950,3,2.0,,1392,65776,2014,,165,,,,,https://www.redfin.com/VA/Bumpass/156-Westshire-Ln-23024/home/128261356,,,N,Y,37.849152,-77.8222768
PAST SALE,August-3-2021,Vacant Land,90 Mill Run,Bumpass,VA,23024,90500,,,MILL RUN,,47045,,124,,38,Sold,,,https://www.redfin.com/VA/Cuckoo/90-Mill-Run-23024/home/174777535,BRIGHT MLS,1000091855,N,Y,38.00724779,-77.77545607
PAST SALE,July-26-2021,Vacant Land,Lot 62 Lane Rd,Bumpass,VA,23024,290000,,,MILL RUN,,41730,,132,,25,Sold,,,https://www.redfin.com/VA/Bumpass/62-Lane-Rd-23024/home/174777710,BRIGHT MLS,VALA121008,N,Y,38.0076014,-77.7816051
PAST SALE,,Single Family Residential,2759 Willow Brook Rd,Bumpass,VA,23024,180000,2,1.0,,1120,218976,1993,,161,,,,,https://www.redfin.com/VA/Bumpass/2759-Willow-Brook-Rd-23024/home/128314926,,,N,Y,37.8538273,-77.7913463
PAST SALE,November-5-2021,Single Family Residential,4130 Paynes Mill Rd,Bumpass,VA,23024,219800,3,2.0,,1568,70567,2020,30,140,,Sold,,,https://www.redfin.com/VA/Bumpass/4130-Paynes-Mill-Rd-23024/home/176324627,CVRMLS,2125491,N,Y,37.8673612,-77.8437186
PAST SALE,,Vacant Land,,,VA,,47500,,,,,70654,,,,,,,,https://www.redfin.com/VA/Unknown/Unknown-Unknown/home/162563586,,,N,Y,37.996806,-77.786822
PAST SALE,June-10-2020,Vacant Land,3720 Lewiston Rd,Bumpass,VA,23024,67000,,,Bumpass,,359805,,543,,,Sold,,,https://www.redfin.com/VA/Bumpass/3720-Lewiston-Rd-23024/home/15567942,BRIGHT MLS,VASP133554,N,Y,38.059154,-77.735241
PAST SALE,June-26-2020,Single Family Residential,2521 Lakeside Woods Dr,Bumpass,VA,23024,213000,3,2.0,LAKESIDE WOODS,1094,47480,2010,527,195,32,Sold,,,https://www.redfin.com/VA/Bumpass/2521-Lakeside-Woods-Dr-23024/home/15565316,BRIGHT MLS,VASP221194,N,Y,38.0300024,-77.7139765
PAST SALE,,Single Family Residential,37 Lake Anna Dr,Bumpass,VA,23024,310000,3,2.5,,2184,40075,1984,,142,,,,,https://www.redfin.com/VA/Bumpass/37-Lake-Anna-Dr-23024/home/128349555,,,N,Y,38.0334886,-77.7566746
PAST SALE,,Single Family Residential,95 Old Town Ln,Bumpass,VA,23024,775000,3,2.0,,2003,43604,2017,,387,,,,,https://www.redfin.com/VA/Bumpass/95-Old-Town-Ln-23024/home/128544051,,,N,Y,38.0117525,-77.7378984
PAST SALE,,Single Family Residential,162 Moody Creek Rd,Bumpass,VA,23024,478000,5,3.0,,3004,46609,2002,,159,,,,,https://www.redfin.com/VA/Bumpass/162-Moody-Creek-Rd-23024/home/128259811,,,N,Y,38.0055099,-77.7579262
PAST SALE,August-24-2020,Single Family Residential,79 Retriever Ct,Bumpass,VA,23024,800000,4,4.5,WOOD DUCK COVE,3888,56846,2009,468,206,20,Sold,,,https://www.redfin.com/VA/Bumpass/79-Retriever-Ct-23024/home/128355772,BRIGHT MLS,VALA120418,N,Y,38.033333,-77.760488
PAST SALE,April-9-2021,Vacant Land,1 Aeolian,Bumpass,VA,23024,126500,,,Bumpass,,401405,,240,,42,Sold,,,https://www.redfin.com/VA/Cuckoo/1-Aeolian-Way-23024/home/174799518,BRIGHT MLS,1009927664,N,Y,37.98555328,-77.7398925
PAST SALE,,Vacant Land,,,VA,,52000,,,,,40075,,,,,,,,https://www.redfin.com/VA/Unknown/Unknown-Unknown/home/162555150,,,N,Y,38.040411,-77.770367
PAST SALE,,Single Family Residential,64 Oakleigh Ln,Bumpass,VA,23024,400000,4,4.0,,3170,54319,2002,,126,,,,,https://www.redfin.com/VA/Bumpass/64-Oakleigh-Ln-23024/home/128386138,,,N,Y,37.9906015,-77.7690339
PAST SALE,,Townhouse,84 Tara Shores Ct #9,Bumpass,VA,23024,412000,2,2.0,,1176,4792,1987,,350,,,,,https://www.redfin.com/VA/Bumpass/84-Tara-Shores-Ct-23024/unit-9/home/128240044,,,N,Y,38.0459932,-77.7685615
PAST SALE,September-30-2019,Single Family Residential,10910 Carlton Dr,Bumpass,VA,23024,650000,4,3.5,CARLTONS LANDING,3633,102366,1994,797,179,,Sold,,,https://www.redfin.com/VA/Bumpass/10910-Carlton-Dr-23024/home/15564900,BRIGHT MLS,VASP213790,N,Y,38.0360362,-77.7132493
PAST SALE,,Vacant Land,13 BEAR CT,BUMPASS,VA,23024,49900,,,,,47480,,,,,,,,https://www.redfin.com/VA/BUMPASS/13-BEAR-CT-23024/home/162563472,,,N,Y,38.036737,-77.758624
PAST SALE,,Single Family Residential,665 Bent Creek Ln,Bumpass,VA,23024,240000,3,2.0,,1530,126977,2002,,157,,,,,https://www.redfin.com/VA/Bumpass/665-Bent-Creek-Ln-23024/home/128333592,,,N,Y,37.8360361,-77.8019479
PAST SALE,November-19-2021,Single Family Residential,Lot 16 Fox Run Forest Ln,Beaverdam,VA,23015,285553,3,2.5,FOX RUN FOREST,1601,85203,2021,16,178,,Sold,,,https://www.redfin.com/VA/Beaverdam/Lot-16-Fox-Run-Forest-LN-23015/home/174777680,BRIGHT MLS,VALA122594,N,Y,37.97519434,-77.71377951
PAST SALE,,Single Family Residential,165 S New Ridge Rd,Bumpass,VA,23024,239950,3,2.0,,1453,111949,2020,,165,,,,,https://www.redfin.com/VA/Bumpass/165-S-New-Ridge-Rd-23024/home/162577935,,,N,Y,37.828501,-77.789512
PAST SALE,,Single Family Residential,145 Scarlet O'Hara Ct,Bumpass,VA,23024,775000,3,3.0,,2272,50530,1986,,341,,,,,https://www.redfin.com/VA/Bumpass/145-Scarlet-O-Hara-Ct-23024/home/128237617,,,N,Y,38.0386315,-77.761614
PAST SALE,,Single Family Residential,403 Lake Anna Dr,Bumpass,VA,23024,625000,5,3.5,,2708,40032,1987,,231,,,,,https://www.redfin.com/VA/Bumpass/403-Lake-Anna-Dr-23024/home/128259651,,,N,Y,38.0293711,-77.7529233
PAST SALE,,Single Family Residential,849 Burruss Mill Rd,Bumpass,VA,23024,331000,3,2.0,,1500,40075,2004,,221,,,,,https://www.redfin.com/VA/Bumpass/849-Burruss-Mill-Rd-23024/home/128283004,,,N,Y,38.0349363,-77.757658
PAST SALE,,Single Family Residential,2594 Crewsville Rd,Bumpass,VA,23024,222500,3,2.0,,1208,78408,1996,,184,,,,,https://www.redfin.com/VA/Bumpass/2594-Crewsville-Rd-23024/home/128245166,,,N,Y,37.8305639,-77.8191495
PAST SALE,,Single Family Residential,374 Winding Ridge Way,Bumpass,VA,23024,221950,3,2.0,,1400,384635,2019,,159,,,,,https://www.redfin.com/VA/Bumpass/374-Winding-Ridge-Way-23024/home/162566471,,,N,Y,37.9545882,-77.7449581
PAST SALE,,Single Family Residential,379 Wilson St,Bumpass,VA,23024,375000,4,4.0,,2772,50355,2005,,135,,,,,https://www.redfin.com/VA/Bumpass/379-Wilson-St-23024/home/128311074,,,N,Y,38.006191,-77.785586
PAST SALE,,Single Family Residential,329 Busbees Point Rd,Bumpass,VA,23024,774900,5,3.5,,3864,76578,2004,,201,,,,,https://www.redfin.com/VA/Bumpass/329-Busbees-Point-Rd-23024/home/128275213,,,N,Y,38.0158112,-77.7675365
PAST SALE,February-26-2021,Single Family Residential,224 Fox Run Forest Ln,Beaverdam,VA,23015,560000,4,3.5,FOX RUN FOREST,2233,914891,2014,282,251,,Sold,,,https://www.redfin.com/VA/Beaverdam/224-Fox-Run-Forest-Ln-23015/home/128241170,BRIGHT MLS,VALA122420,N,Y,37.976903,-77.710999
PAST SALE,,Single Family Residential,12 FOX RUN FOREST LN,BEAVERDAM,VA,23015,257900,3,2.0,,1718,66473,2017,,150,,,,,https://www.redfin.com/VA/BEAVERDAM/12-FOX-RUN-FOREST-LN-23015/home/148745482,,,N,Y,37.973982,-77.715238
PAST SALE,May-13-2021,Single Family Residential,17 Fox Run Forest Ln,Beaverdam,VA,23015,337995,3,2.0,FOX RUN FOREST,1741,84855,2008,206,194,8,Sold,,,https://www.redfin.com/VA/BEAVERDAM/17-FOX-RUN-FOREST-LN-23015/home/128210815,BRIGHT MLS,VALA122820,N,Y,37.97482,-77.716703
PAST SALE,,Single Family Residential,1924 Moody Town Rd,Bumpass,VA,23024,549900,3,2.0,,1577,103629,2002,,349,,,,,https://www.redfin.com/VA/Bumpass/1924-Moody-Town-Rd-23024/home/128313834,,,N,Y,38.0069075,-77.7452752
PAST SALE,May-27-2021,Single Family Residential,2032 Willow Brook Rd,Louisa,VA,23024,265000,3,2.0,,1400,131115,2000,192,189,,Sold,,,https://www.redfin.com/VA/Bumpass/2032-Willow-Brook-Rd-23024/home/128284186,CVRMLS,2109691,N,Y,37.8436568,-77.7947536
PAST SALE,,Single Family Residential,1738 Gammon Town Rd,Bumpass,VA,23024,142000,3,2.0,,1280,90169,2004,,111,,,,,https://www.redfin.com/VA/Bumpass/1738-Gammon-Town-Rd-23024/home/128243252,,,N,Y,37.8115763,-77.8419766
PAST SALE,,Single Family Residential,54 Leyland Farms Dr,Bumpass,VA,23024,247000,3,2.5,,1792,153331,1999,,138,,,,,https://www.redfin.com/VA/Bumpass/54-Leyland-Farms-Dr-23024/home/128235776,,,N,Y,37.9274339,-77.733654
PAST SALE,,Single Family Residential,3515 Wickham Rd,Bumpass,VA,23024,197500,3,2.0,,1144,166443,2001,,173,,,,,https://www.redfin.com/VA/Bumpass/3515-Wickham-Rd-23024/home/128335325,,,N,Y,37.9157221,-77.7967645
PAST SALE,,Single Family Residential,5594 Buckner Rd,Bumpass,VA,23024,152500,2,1.0,,1042,82808,1960,,146,,,,,https://www.redfin.com/VA/Bumpass/5594-Buckner-Rd-23024/home/128287211,,,N,Y,37.951388,-77.7922065
PAST SALE,June-30-2021,Single Family Residential,40 Covenant Ct,Bumpass,VA,23024,439000,3,2.0,COVENANT COVE,2184,66429,2002,158,201,23,Sold,,,https://www.redfin.com/VA/Bumpass/40-Covenant-Ct-23024/home/128371881,BRIGHT MLS,VALA123190,N,Y,38.0140812,-77.7383455
PAST SALE,May-31-2019,Single Family Residential,5240 Buckner Rd,Bumpass,VA,23024,650000,4,4.0,,3577,4257990,1992,919,182,,Sold,,,https://www.redfin.com/VA/Bumpass/5240-Buckner-Rd-23024/home/128287203,CVRMLS,1828020,N,Y,37.9403617,-77.7906333
PAST SALE,December-2-2020,Single Family Residential,443 Whispering Pine Ln,Bumpass,VA,23024,221500,3,2.0,Bumpass,1278,83200,1995,368,173,,Sold,,,https://www.redfin.com/VA/Bumpass/443-Whispering-Pine-Ln-23024/home/128300069,BRIGHT MLS,VALA122160,N,Y,37.861726,-77.7781739
PAST SALE,February-28-2020,Single Family Residential,64 The Btm,Bumpass,VA,23024,309000,4,4.5,Bumpass,2128,141091,2018,646,145,,Sold,,,https://www.redfin.com/VA/Bumpass/64-The-Btm-23024/home/148745652,BRIGHT MLS,VALA120414,N,Y,37.8865662,-77.8265115
PAST SALE,,Single Family Residential,646 Louisa Farms Ln,Bumpass,VA,23024,214500,3,2.0,,1324,217800,2005,,162,,,,,https://www.redfin.com/VA/Bumpass/646-Louisa-Farms-Ln-23024/home/128362864,,,N,Y,37.939548,-77.780832
PAST SALE,,Single Family Residential,266 Wilson St,Bumpass,VA,23024,407000,3,2.0,,1300,39988,2002,,313,,,,,https://www.redfin.com/VA/Bumpass/266-Wilson-St-23024/home/128325983,,,N,Y,38.0056124,-77.7833134
PAST SALE,,Single Family Residential,670 Ark Ave,Bumpass,VA,23024,500000,7,6.0,,5780,32757,2010,,87,,,,,https://www.redfin.com/VA/Bumpass/670-Ark-Ave-23024/home/128314337,,,N,Y,37.999864,-77.7347017
PAST SALE,March-10-2021,Single Family Residential,2795 Factory Mill Rd,Bumpass,VA,23024,335000,3,2.5,Anderson Mill,1768,169448,2016,270,189,,Sold,,,https://www.redfin.com/VA/Bumpass/2795-Factory-Mill-Rd-23024/home/128584909,CVRMLS,2101553,N,Y,37.7708631,-77.7943068
PAST SALE,June-29-2021,Single Family Residential,341 Anderson Mill Dr,Bumpass,VA,23024,555000,5,3.5,Anderson Mill,4169,81457,2009,159,133,,Sold,,,https://www.redfin.com/VA/Bumpass/341-Anderson-Mill-Dr-23024/home/128309965,CVRMLS,2110980,N,Y,37.7735421,-77.7997807
PAST SALE,May-12-2021,Single Family Residential,2359 Belle Meade Rd,Bumpass,VA,23024,290000,3,2.0,,1423,218235,1998,207,204,,Sold,,,https://www.redfin.com/VA/Bumpass/2359-Belle-Meade-Rd-23024/home/128265118,CVRMLS,2107627,N,Y,37.9243151,-77.7606282
PAST SALE,May-14-2019,Single Family Residential,3602 Pauley Dr,Bumpass,VA,23024,600000,3,2.0,ANNA VISTA,1690,43560,1988,936,355,,Sold,,,https://www.redfin.com/VA/Bumpass/3602-Pauley-Dr-23024/home/22871635,BRIGHT MLS,VASP211084,N,Y,38.058059,-77.759143
PAST SALE,November-19-2021,Single Family Residential,Lot 15 Fox Run Forest Ln,Beaverdam,VA,23015,290197,3,2.5,FOX RUN FOREST,1601,83984,,16,181,,Sold,,,https://www.redfin.com/VA/Beaverdam/Lot-15-Fox-Run-Forest-LN-23015/home/174907967,BRIGHT MLS,VALA123004,N,Y,37.97517742,-77.71380632
PAST SALE,September-29-2021,Single Family Residential,731 Factory Mill Rd,Bumpass,VA,23024,523000,3,2.5,,2486,217800,1996,67,210,,Sold,,,https://www.redfin.com/VA/Bumpass/731-Factory-Mill-Rd-23024/home/128233430,CVRMLS,2120465,N,Y,37.7865415,-77.8081586
PAST SALE,November-19-2021,Vacant Land,99 Smitty Cir,Bumpass,VA,23024,420000,,,CUCKOOS NEST,,43212,,16,,21,Sold,,,https://www.redfin.com/VA/Bumpass/99-Smitty-Cir-23024/home/174777564,BRIGHT MLS,VALA122772,N,Y,37.9955841,-77.7891207
PAST SALE,,Other,780 Copper Line Rd Unit B,Bumpass,VA,23024,35000,,,,,155509,,,,,,,,https://www.redfin.com/VA/Bumpass/780-Copper-Line-Rd-23024/unit-B/home/162558424,,,N,Y,37.8526638,-77.8185072
PAST SALE,August-31-2020,Single Family Residential,10912 Laken Woods Dr,Bumpass,VA,23024,759500,3,3.0,LAKESIDE WOODS,2886,43560,1985,461,263,32,Sold,,,https://www.redfin.com/VA/Bumpass/10912-Laken-Woods-Dr-23024/home/15565301,BRIGHT MLS,VASP223880,N,Y,38.0268222,-77.7132101
PAST SALE,October-15-2021,Single Family Residential,15045 Jefferson Hwy,Bumpass,VA,23024,259950,3,2.0,,1400,106286,2021,51,186,,Sold,,,https://www.redfin.com/VA/Bumpass/15045-Jefferson-Hwy-23024/home/174785959,CVRMLS,2108281,N,Y,37.8723256,-77.7989593
PAST SALE,August-14-2020,Single Family Residential,200 Anderson Mill Dr,Bumpass,VA,23024,299900,3,2.0,ANDERSON MILL,1455,104108,2020,478,206,,Sold,,,https://www.redfin.com/VA/Bumpass/200-Anderson-Mill-Dr-23024/home/162568799,BRIGHT MLS,VALA121210,N,Y,37.7727732,-77.7976508
PAST SALE,July-1-2021,Vacant Land,11 Bella Woods,Bumpass,VA,23024,250000,,,BELLA WOODS,,110642,,157,,,Sold,,,https://www.redfin.com/VA/Bumpass/11-Bella-Woods-23024/home/174800022,BRIGHT MLS,VALA122356,N,Y,37.98717312,-77.7085659
PAST SALE,November-5-2021,Vacant Land,Lot 45 Mill Run,Bumpass,VA,23024,374500,,,MILL RUN,,44213,,30,,25,Sold,,,https://www.redfin.com/VA/Cuckoo/Lot-45-Mill-Run-23024/home/175019444,BRIGHT MLS,1001938366,N,Y,38.0098205,-77.77974043
PAST SALE,,Single Family Residential,493 Twin Lakes Ln,Bumpass,VA,23024,920000,7,7.5,,5484,105633,2006,,168,,,,,https://www.redfin.com/VA/Bumpass/493-Twin-Lakes-Ln-23024/home/128292642,,,N,Y,38.01619,-77.7490751
PAST SALE,November-24-2021,Single Family Residential,5676 Buckner Rd,Bumpass,VA,23024,278000,3,2.0,,1396,43560,2021,11,199,,Sold,,,https://www.redfin.com/VA/Bumpass/5676-Buckner-Rd-23024/home/177344722,CVRMLS,2122671,N,Y,37.9525565,-77.7916295
PAST SALE,,Single Family Residential,5 Walters Way,Bumpass,VA,23024,240500,3,2.0,,1512,98881,2005,,159,,,,,https://www.redfin.com/VA/Bumpass/5-Walters-Way-23024/home/128283741,,,N,Y,37.9053637,-77.7366466
PAST SALE,,Single Family Residential,415 Plum Tree Rd,Bumpass,VA,23024,234000,3,2.0,,1400,53013,2020,,167,,,,,https://www.redfin.com/VA/Bumpass/415-Plum-Tree-Rd-23024/home/162573672,,,N,Y,38.009101,-77.767855
PAST SALE,,Other,1471 Crewsville Rd,Bumpass,VA,23024,120000,,,,,70654,,,,,,,,https://www.redfin.com/VA/Bumpass/1471-Crewsville-Rd-23024/home/162552640,,,N,Y,37.817292,-77.806144
PAST SALE,,Single Family Residential,351 Bent Creek Ln,Bumpass,VA,23024,249000,3,2.0,,1440,113038,2004,,173,,,,,https://www.redfin.com/VA/Bumpass/351-Bent-Creek-Ln-23024/home/128333623,,,N,Y,37.8384452,-77.797256
PAST SALE,,Single Family Residential,25 Hopeful Church Ct,Bumpass,VA,23024,255000,3,2.0,,1524,65340,2015,,167,,,,,https://www.redfin.com/VA/Bumpass/25-Hopeful-Church-Ct-23024/home/128479226,,,N,Y,37.8431089,-77.7541266
PAST SALE,July-24-2019,Single Family Residential,11209 Piney Forest Rd,Bumpass,VA,23024,310000,4,2.5,ROCKLAND CREEK ESTATES,2571,43560,2008,865,121,20,Sold,,,https://www.redfin.com/VA/Bumpass/11209-Piney-Forest-Dr-23024/home/15565567,BRIGHT MLS,VASP204054,N,Y,38.049115,-77.725123
PAST SALE,December-1-2020,Single Family Residential,90 Pleasants View Pt,Bumpass,VA,23024,785000,3,2.5,PLEASANT VIEW,3392,183997,2004,369,231,,Sold,,,https://www.redfin.com/VA/Bumpass/90-Pleasants-View-Pt-23024/home/49702358,BRIGHT MLS,VALA120834,N,Y,38.0037767,-77.7159889
PAST SALE,,Single Family Residential,544 Plum Tree Rd,Bumpass,VA,23024,345000,1,1.5,,876,58240,1995,,394,,,,,https://www.redfin.com/VA/Bumpass/544-Plum-Tree-Rd-23024/home/128371650,,,N,Y,38.0097363,-77.7642065
PAST SALE,May-31-2019,Single Family Residential,3411 Holly Grove Dr,Bumpass,VA,23024,235000,3,2.0,,1872,78408,1988,919,126,,Sold,,,https://www.redfin.com/VA/Bumpass/3411-Holly-Grove-Dr-23024/home/128219560,CVRMLS,1909238,N,Y,37.8058835,-77.7885198
PAST SALE,,Single Family Residential,768 Noah's Landing Dr,Bumpass,VA,23024,1274000,4,4.5,,5759,40162,2007,,221,,,,,https://www.redfin.com/VA/Bumpass/768-Noah-s-Landing-Dr-23024/home/128314314,,,N,Y,37.9896461,-77.7406033
PAST SALE,,Single Family Residential,1014 Carrs Bridge Rd,Bumpass,VA,23024,595000,5,4.0,,3192,40075,1995,,186,,,,,https://www.redfin.com/VA/Bumpass/1014-Carrs-Bridge-Rd-23024/home/128325958,,,N,Y,38.0416721,-77.7705759
PAST SALE,April-14-2021,Single Family Residential,2740 Belsches Rd,Bumpass,VA,23024,40000,3,1.0,Bumpass,1632,96703,1947,235,25,,Sold,,,https://www.redfin.com/VA/Bumpass/2740-Belsches-Rd-23024/home/128237963,BRIGHT MLS,VALA122616,N,Y,37.9563752,-77.7539031
PAST SALE,,Single Family Residential,119 Commodore Ln,Bumpass,VA,23024,927000,5,3.5,,3876,85290,2007,,239,,,,,https://www.redfin.com/VA/Bumpass/119-Commodore-Ln-23024/home/128299135,,,N,Y,38.0033499,-77.7198569
PAST SALE,September-10-2021,Vacant Land,Lot 69 Point Dr,Bumpass,VA,23024,450000,,,Jerdone Castle,,50529,,86,,17,Sold,,,https://www.redfin.com/VA/Bumpass/69-Point-Dr-23024/home/175779488,CVRMLS,2122134,N,Y,38.0014792,-77.7579926
PAST SALE,April-25-2019,Single Family Residential,90 South Anna Dr,Bumpass,VA,23024,215500,4,2.0,,1568,73180,2005,955,137,,Sold,,,https://www.redfin.com/VA/Bumpass/90-S-Anna-Dr-23024/home/128255092,CVRMLS,1905516,N,Y,37.8153695,-77.8325069
PAST SALE,,Single Family Residential,131 Buckner Rd,Bumpass,VA,23024,75000,3,1.5,,1144,65340,1991,,66,,,,,https://www.redfin.com/VA/Bumpass/131-Buckner-Rd-23024/home/128221570,,,N,Y,37.8852091,-77.8292905
PAST SALE,,Single Family Residential,186 Oakleigh Ln,Bumpass,VA,23024,325000,3,1.5,,1560,174763,2000,,208,,,,,https://www.redfin.com/VA/Bumpass/186-Oakleigh-Ln-23024/home/128290872,,,N,Y,37.9897979,-77.7708887
PAST SALE,January-3-2020,Single Family Residential,11836 Belfonte Rd,Bumpass,VA,23024,199000,3,2.0,Bumpass,1269,225641,1993,702,157,,Sold,,,https://www.redfin.com/VA/Bumpass/11836-Belfonte-Rd-23024/home/15568568,BRIGHT MLS,VASP217080,N,Y,38.096365,-77.7456322
PAST SALE,,Single Family Residential,99 Sunrise Ct,Bumpass,VA,23024,575000,3,2.0,,2016,59677,1988,,285,,,,,https://www.redfin.com/VA/Bumpass/99-Sunrise-Ct-23024/home/128242243,,,N,Y,37.9925055,-77.7660168
PAST SALE,,Vacant Land,BUSBEES POINT RD,BUMPASS,VA,23024,499900,,,,,65427,,,,,,,,https://www.redfin.com/VA/BUMPASS/BUSBEES-POINT-RD-23024/home/172269928,,,N,Y,38.015938,-77.764562
PAST SALE,,Single Family Residential,1261 Pottiesville Rd,Bumpass,VA,23024,430000,2,2.0,,1012,988594,1955,,425,,,,,https://www.redfin.com/VA/Bumpass/1261-Pottiesville-Rd-23024/home/128283360,,,N,Y,37.977872,-77.771675
PAST SALE,November-24-2020,Single Family Residential,2412 Horseshoe Bend Dr,Bumpass,VA,23024,315000,3,2.5,HORSESHOE COVE,1766,43560,2003,376,178,8,Sold,,,https://www.redfin.com/VA/Bumpass/2412-Horseshoe-Bend-Dr-23024/home/15563300,BRIGHT MLS,VASP226108,N,Y,38.0265077,-77.7067319
PAST SALE,May-14-2021,Single Family Residential,152 Hickory Ln,Bumpass,VA,23024,509789,5,4.0,HICKORY LANDING,3320,40075,,205,154,33,Sold,,,https://www.redfin.com/VA/Bumpass/152-Hickory-Ln-23024/home/162556775,BRIGHT MLS,VALA121364,N,Y,37.996267,-77.725906
PAST SALE,,Mobile/Manufactured Home,4035 Belle Meade Rd,Bumpass,VA,23024,198900,4,2.0,,1976,356974,2004,,101,,,,,https://www.redfin.com/VA/Bumpass/4035-Belle-Meade-Rd-23024/home/128374957,,,N,Y,37.940042,-77.74333
PAST SALE,,Single Family Residential,181 Whispering Pine Ln,Bumpass,VA,23024,196950,3,2.0,,1144,85378,1999,,172,,,,,https://www.redfin.com/VA/Bumpass/181-Whispering-Pine-Ln-23024/home/128338203,,,N,Y,37.8636032,-77.7805444
PAST SALE,,Single Family Residential,,,VA,,233500,3,2.0,,1400,263538,2020,,167,,,,,https://www.redfin.com/VA/Unknown/Unknown-Unknown/home/162566212,,,N,Y,37.955473,-77.793564
PAST SALE,August-18-2021,Vacant Land,Lot 15 Bella Woods Dr,Bumpass,VA,23024,38500,,,BELLA WOODS,,82328,,109,,,Sold,,,https://www.redfin.com/VA/Bumpass/Lot-15-Bella-Woods-DR-23024/home/174777515,BRIGHT MLS,VALA121020,N,Y,37.98661573,-77.7119609
PAST SALE,July-8-2019,Single Family Residential,457 Louisa Farms Ln,Louisa,VA,23024,196000,3,2.0,Little River Farms,1680,82328,1989,881,117,,Sold,,,https://www.redfin.com/VA/Bumpass/457-Louisa-Farms-Ln-23024/home/128257256,CVRMLS,1915284,N,Y,37.9423006,-77.7779057
PAST SALE,,Single Family Residential,2532 Bagby Rd,Bumpass,VA,23024,252800,3,2.0,,1864,117612,1998,,136,,,,,https://www.redfin.com/VA/Bumpass/2532-Bagby-Rd-23024/home/128265210,,,N,Y,37.9391234,-77.7364677
PAST SALE,,Single Family Residential,3635 Belle Meade Rd,Bumpass,VA,23024,130000,2,1.0,,1696,1740880,1930,,77,,,,,https://www.redfin.com/VA/Bumpass/3635-Belle-Meade-Rd-23024/home/128218532,,,N,Y,37.934334,-77.747407
PAST SALE,September-27-2021,Single Family Residential,3909 Hatteras Ct,Bumpass,VA,23024,599000,5,2.5,SYCAMORE SHOALS,3535,109771,2005,69,169,29,Sold,,,https://www.redfin.com/VA/Bumpass/3909-Hatteras-Ct-23024/home/15563340,BRIGHT MLS,VASP2000668,N,Y,38.062838,-77.7538584
PAST SALE,,Single Family Residential,1191 Signboard Rd,Bumpass,VA,23024,205000,3,2.0,,1408,71874,1999,,146,,,,,https://www.redfin.com/VA/Bumpass/1191-Signboard-Rd-23024/home/128254871,,,N,Y,37.9076066,-77.7420563
PAST SALE,,Single Family Residential,1238 Bethany Church Rd,Bumpass,VA,23024,27550,1,1.0,,896,87120,1938,,31,,,,,https://www.redfin.com/VA/Bumpass/1238-Bethany-Church-Rd-23024/home/128335711,,,N,Y,37.8843698,-77.7826878
PAST SALE,,Single Family Residential,2857 Willow Brook Rd,Bumpass,VA,23024,241000,3,2.0,,1344,219237,1994,,179,,,,,https://www.redfin.com/VA/Bumpass/2857-Willow-Brook-Rd-23024/home/128253855,,,N,Y,37.855014,-77.790532
PAST SALE,,Single Family Residential,725 Rivers Bend Ln,Bumpass,VA,23024,289000,3,2.5,,2068,125017,2001,,140,,,,,https://www.redfin.com/VA/Bumpass/725-Rivers-Bend-Ln-23024/home/128298794,,,N,Y,37.8260691,-77.8316581
PAST SALE,June-25-2019,Single Family Residential,37 Trice Rd,Bumpass,VA,23024,199950,3,2.0,,1654,70567,1986,894,121,,Sold,,,https://www.redfin.com/VA/Bumpass/37-Trice-Rd-23024/home/128235997,CVRMLS,1916700,N,Y,37.8715191,-77.8301359
PAST SALE,April-6-2021,Vacant Land,780B Copper Line Rd,Bumpass,VA,23024,35000,,,TAYLOR CREEK & WEST,,155509,,243,,,Sold,,,https://www.redfin.com/VA/Bumpass/780-Copper-Line-Rd-23024/home/128280288,BRIGHT MLS,VALA120832,N,Y,37.8526638,-77.8185072
PAST SALE,,Single Family Residential,14043 Jefferson Hwy,Bumpass,VA,23024,82500,3,1.5,,2064,261360,1930,,40,,,,,https://www.redfin.com/VA/Bumpass/14043-Jefferson-Hwy-23024/home/128236051,,,N,Y,37.873829,-77.816671
PAST SALE,,Vacant Land,526 Curley Ln,Bumpass,VA,23024,80000,,,,,290423,,,,,,,,https://www.redfin.com/VA/Bumpass/526-Curley-Ln-23024/home/162582911,,,N,Y,37.8579339,-77.7763286
PAST SALE,,Single Family Residential,229 HOPEFUL CHURCH LN,BUMPASS,VA,23024,268170,3,2.0,,1512,87381,2021,,177,,,,,https://www.redfin.com/VA/BUMPASS/229-HOPEFUL-CHURCH-LN-23024/home/162582928,,,N,Y,37.845802,-77.757327
PAST SALE,,Single Family Residential,136 HOPEFUL CHURCH CT,BUMPASS,VA,23024,254900,3,2.0,,1534,81588,2020,,166,,,,,https://www.redfin.com/VA/BUMPASS/136-HOPEFUL-CHURCH-CT-23024/home/162558579,,,N,Y,37.843574,-77.75695
PAST SALE,November-17-2021,Single Family Residential,4055 Moss Ln,Bumpass,VA,23024,489900,4,2.5,Bumpass,2200,148104,2021,18,223,,Sold,,,https://www.redfin.com/VA/Bumpass/4055-Moss-Ln-23024/home/176082941,BRIGHT MLS,VASP2003122,N,Y,38.0717688,-77.7513575
PAST SALE,November-15-2021,Vacant Land,3267 Paynes Mill Rd,Bumpass,VA,23024,225000,,,CUB CREEK & WINSTON,,1015819,,20,,,Sold,,,https://www.redfin.com/VA/Bumpass/3267-Paynes-Mill-Rd-23024/home/128261695,BRIGHT MLS,VALA2000650,N,Y,37.85776,-77.856005
PAST SALE,August-22-2019,Vacant Land,0 Willow Brook Rd,Louisa,VA,23024,27000,,,,,143748,,836,,,Sold,,,https://www.redfin.com/VA/BUMPASS/WILLOW-BROOK-RD-23024/home/82090438,CVRMLS,1916773,N,Y,37.847198,-77.793111
PAST SALE,,Single Family Residential,656 W Chapel Dr,Bumpass,VA,23024,120000,3,1.5,,1537,217800,1987,,78,,,,,https://www.redfin.com/VA/Bumpass/656-W-Chapel-Dr-23024/home/128377806,,,N,Y,37.804218,-77.816825
PAST SALE,August-20-2021,Vacant Land,Lot 17 Olive Br,Bumpass,VA,23024,625000,,,NOAHS LANDING,,41121,,107,,42,Sold,,,https://www.redfin.com/VA/Bumpass/17-Olive-Branch-Ct-23024/home/175595434,BRIGHT MLS,VALA2000142,N,Y,37.9960227,-77.7400588
PAST SALE,,Single Family Residential,275 Folly Hill Rd,Bumpass,VA,23024,312978,3,2.0,,1620,156816,2021,,193,,,,,https://www.redfin.com/VA/Bumpass/275-Folly-Hill-Rd-23024/home/162577930,,,N,Y,37.803208,-77.809023
PAST SALE,March-15-2019,Single Family Residential,464 Belsches Rd,Bumpass,VA,23024,160000,3,1.0,Bumpass,1106,108900,1945,996,145,,Sold,,,https://www.redfin.com/VA/Bumpass/464-Belsches-Rd-23024/home/128254154,BRIGHT MLS,VALA108566,N,Y,37.9354348,-77.7238254
PAST SALE,,Single Family Residential,1461 Buckner Rd,Bumpass,VA,23024,205000,3,2.0,,1144,84071,1997,,179,,,,,https://www.redfin.com/VA/Bumpass/1461-Buckner-Rd-23024/home/128239482,,,N,Y,37.9042946,-77.8291118
PAST SALE,,Single Family Residential,2182 Gammon Town Rd,Bumpass,VA,23024,290000,3,2.5,,1776,130680,1998,,163,,,,,https://www.redfin.com/VA/Bumpass/2182-Gammon-Town-Rd-23024/home/128336124,,,N,Y,37.8157754,-77.8465772
PAST SALE,June-14-2019,Single Family Residential,235 Kelly Ln,Louisa,VA,23024,270000,4,2.5,Kirby Ridge,2052,117176,2004,905,132,,Sold,,,https://www.redfin.com/VA/Bumpass/235-Kelly-Ln-23024/home/128335374,CVRMLS,1909624,N,Y,37.8921852,-77.8101246
PAST SALE,March-15-2019,Single Family Residential,1702 Willow Brook Rd,Bumpass,VA,23024,149000,3,2.0,Pleasant Acres,1136,62290,1991,996,131,,Sold,,,https://www.redfin.com/VA/Bumpass/1702-Willow-Brook-Rd-23024/home/128241748,CVRMLS,1831706,N,Y,37.8431752,-77.8002946
PAST SALE,October-8-2021,Single Family Residential,Lot 7 Fox Run Forest Ln,Beaverdam,VA,23015,286000,3,2.5,FOX RUN FOREST,,83374,2020,58,,,Sold,,,https://www.redfin.com/VA/Beaverdam/Lot-7-Fox-Run-Forest-LN-23015/home/174800211,BRIGHT MLS,VALA122458,N,Y,37.97651084,-77.71395886
PAST SALE,May-4-2020,Single Family Residential,1885 Wickham Rd,Bumpass,VA,23024,305000,3,2.5,HENSON CREEK,1876,140263,2006,580,163,,Sold,,,https://www.redfin.com/VA/Bumpass/1885-Wickham-Rd-23024/home/128335516,BRIGHT MLS,VALA120878,N,Y,37.8974729,-77.8071198
PAST SALE,,Single Family Residential,116 Ashley Taylor Way,Bumpass,VA,23024,317000,3,2.5,,1544,40511,2017,,205,,,,,https://www.redfin.com/VA/Bumpass/116-Ashley-Taylor-Way-23024/home/148745393,,,N,Y,37.9981512,-77.7848329
PAST SALE,June-7-2021,Single Family Residential,498 Winding Ridge Way,Bumpass,VA,23024,260000,3,2.0,WINDING RIDGE,1400,145926,2017,181,186,,Sold,,,https://www.redfin.com/VA/Bumpass/498-Winding-Ridge-Way-23024/home/148745637,BRIGHT MLS,VALA123210,N,Y,37.9504537,-77.7414304
PAST SALE,,Single Family Residential,101 Winding Ridge Way,Bumpass,VA,23024,235000,3,2.0,,1576,135907,2017,,149,,,,,https://www.redfin.com/VA/Bumpass/101-Winding-Ridge-Way-23024/home/148745636,,,N,Y,37.95481,-77.740037
PAST SALE,October-14-2021,Single Family Residential,2271 Wickham Rd,Bumpass,VA,23024,101700,3,2.0,,1514,226512,2001,52,67,,Sold,,,https://www.redfin.com/VA/Bumpass/2271-Wickham-Rd-23024/home/128212445,CVRMLS,2127704,N,Y,37.9031135,-77.8077512
PAST SALE,October-11-2021,Single Family Residential,466 Shelton Bend Dr,Bumpass,VA,23024,85000,2,2.0,,982,218671,1995,55,87,,Sold,,,https://www.redfin.com/VA/Bumpass/466-Shelton-Bend-Dr-23024/home/128363325,CVRMLS,2121641,N,Y,37.854054,-77.871857
PAST SALE,,Single Family Residential,185 Sir Walter Dr,Bumpass,VA,23024,999900,3,2.0,,3484,40119,1991,,287,,,,,https://www.redfin.com/VA/Bumpass/185-Sir-Walter-Dr-23024/home/128372846,,,N,Y,38.0025244,-77.7473763
PAST SALE,June-25-2021,Single Family Residential,4161 Holly Grove Rd,Bumpass,VA,23024,285000,3,2.0,NEIGHBORHOOD,1400,222156,2021,163,204,,Sold,,,https://www.redfin.com/VA/Bumpass/4161-Holly-Grove-Dr-23024/home/162558948,BRIGHT MLS,VALA122896,N,Y,37.805699,-77.774257
PAST SALE,October-14-2021,Single Family Residential,1030 Rock Spring Rd,Bumpass,VA,23024,238000,3,2.0,ROCK SPRINGS,1284,152460,1996,52,185,,Sold,,,https://www.redfin.com/VA/Bumpass/1030-Rock-Spring-Rd-23024/home/128211362,BRIGHT MLS,VALA2000328,N,Y,37.843659,-77.7632455
PAST SALE,,Single Family Residential,65 Hopeful Church Ln,Bumpass,VA,23024,260000,3,2.5,,2150,65776,2019,,121,,,,,https://www.redfin.com/VA/Bumpass/65-Hopeful-Church-Ln-23024/home/162567948,,,N,Y,37.8438701,-77.7547
PAST SALE,,Single Family Residential,47 Phillips Ct,Bumpass,VA,23024,264950,4,2.5,,2104,120095,2001,,126,,,,,https://www.redfin.com/VA/Bumpass/47-Phillips-Ct-23024/home/128222006,,,N,Y,37.816816,-77.8538127
PAST SALE,,Single Family Residential,204 Blue Sky Way,Bumpass,VA,23024,1141800,5,4.0,,5796,40119,2012,,197,,,,,https://www.redfin.com/VA/Bumpass/204-Blue-Sky-Way-23024/home/128295036,,,N,Y,37.991561,-77.742588
PAST SALE,August-13-2021,Vacant Land,Lot 4 Quarry Harbour,Bumpass,VA,23024,156250,,,QUARRY HARBOUR,,68955,,114,,,Sold,,,https://www.redfin.com/VA/Bumpass/Lot-4-Quarry-Harbour-Unknown/home/174777640,BRIGHT MLS,VALA121500,N,Y,38.00592899,-77.72609119
PAST SALE,,Vacant Land,139 WOLFTRAP CT,BUMPASS,VA,23024,406768,,,,,50922,,,,,,,,https://www.redfin.com/VA/BUMPASS/139-WOLFTRAP-CT-23024/home/162554892,,,N,Y,38.013422,-77.775026
PAST SALE,,Single Family Residential,12710 Jefferson Hwy,Bumpass,VA,23024,115000,2,1.5,,920,65601,,,125,,,,,https://www.redfin.com/VA/Bumpass/12710-Jefferson-Hwy-23024/home/128314641,,,N,Y,37.8838749,-77.835065
PAST SALE,September-3-2021,Single Family Residential,143 Bella Woods Dr,Bumpass,VA,23024,285000,3,2.0,BELLA WOODS,1500,100624,2021,93,190,,Sold,,,https://www.redfin.com/VA/Bumpass/143-Bella-Woods-DR-23024/home/175977445,BRIGHT MLS,VALA2000368,N,Y,37.9869423,-77.710251
PAST SALE,,Vacant Land,,,VA,,31000,,,,,52359,,,,,,,,https://www.redfin.com/VA/Unknown/Unknown-Unknown/home/162555215,,,N,Y,37.999822,-77.783683
PAST SALE,,Vacant Land,,,VA,,33500,,,,,85857,,,,,,,,https://www.redfin.com/VA/Unknown/Unknown-Unknown/home/162556714,,,N,Y,37.975287,-77.713056
PAST SALE,,Single Family Residential,470 Louisa Farms Ln,Bumpass,VA,23024,35000,2,2.0,,1500,269201,2021,,23,,,,,https://www.redfin.com/VA/Bumpass/470-Louisa-Farms-Ln-23024/home/162557618,,,N,Y,37.942587,-77.779711
PAST SALE,,Other,,,VA,,110000,,,,,805860,,,,,,,,https://www.redfin.com/VA/Unknown/Unknown-Unknown/home/162557679,,,N,Y,37.951978,-77.747584
PAST SALE,October-14-2021,Single Family Residential,Lot 2 Fox Run Forest Ln,Beaverdam,VA,23015,255985,3,2.5,FOX RUN FOREST,1601,66647,,52,160,,Sold,,,https://www.redfin.com/VA/Beaverdam/Lot-2-Fox-Run-Forest-LN-23015/home/174800839,BRIGHT MLS,VALA122464,N,Y,37.97528314,-77.7157858
PAST SALE,May-14-2019,Single Family Residential,3604 Pauley Dr,Bumpass,VA,23024,400000,1,2.0,ANNA VISTA,720,87120,2004,936,556,20,Sold,,,https://www.redfin.com/VA/Bumpass/3604-Pauley-Dr-23024/home/22884465,BRIGHT MLS,VASP211076,N,Y,38.057888,-77.758486
PAST SALE,,Vacant Land,,,VA,,285000,,,,,100624,,,,,,,,https://www.redfin.com/VA/Unknown/Unknown-Unknown/home/162556728,,,N,Y,37.987908,-77.710304
PAST SALE,October-29-2021,Single Family Residential,3935 Kentucky Springs Rd,Bumpass,VA,23024,298690,3,2.0,Bumpass,1500,89298,2021,37,199,,Sold,,,https://www.redfin.com/VA/Bumpass/3935-Kentucky-Springs-Rd-23024/home/176502005,BRIGHT MLS,VALA2000634,N,Y,38.0100709,-77.7731533
PAST SALE,July-1-2021,Vacant Land,700 Wickham Rd,Bumpass,VA,23024,12500,,,,,220849,,157,,,Sold,,,https://www.redfin.com/VA/Bumpass/700-Wickham-Rd-23024/home/175192544,CVRMLS,2115520,N,Y,37.8802582,-77.808657
PAST SALE,August-14-2020,Single Family Residential,4401 Lewiston Rd,Bumpass,VA,23024,274900,3,2.0,Bumpass,1318,133294,1970,478,209,,Sold,,,https://www.redfin.com/VA/Bumpass/4401-Lewiston-Rd-23024/home/15568358,BRIGHT MLS,VASP223212,N,Y,38.0809316,-77.7551994
PAST SALE,July-20-2021,Vacant Land,1301 Eastham Rd,Bumpass,VA,23024,39000,,,Bumpass,,184363,,138,,,Sold,,,https://www.redfin.com/VA/Bumpass/1301-Eastham-Rd-23024/home/162556674,BRIGHT MLS,VALA120934,N,Y,37.986766,-77.7346612
PAST SALE,October-22-2021,Single Family Residential,Lot 13 Fox Run Forest Ln,Beaverdam,VA,23015,273340,3,2.5,FOX RUN FOREST,1601,92913,2020,44,171,,Sold,,,https://www.redfin.com/VA/Beaverdam/Lot-13-Fox-Run-Forest-LN-23015/home/174799530,BRIGHT MLS,VALA122460,N,Y,37.97612041,-77.71303922
PAST SALE,,Vacant Land,,,VA,,45000,,,,,233917,,,,,,,,https://www.redfin.com/VA/Unknown/Unknown-Unknown/home/162581826,,,N,Y,37.9911,-77.710498
PAST SALE,May-14-2021,Vacant Land,19 Aeolian,Bumpass,VA,23024,118000,,,SUMMER ESTATES ON LAKE ANNA,,437517,,205,,42,Sold,,,https://www.redfin.com/VA/Cuckoo/19-Aeolian-Way-23024/home/174800544,BRIGHT MLS,1009927702,N,Y,37.97906702,-77.78304212
PAST SALE,December-19-2018,Single Family Residential,70 Cuckoos Nest Dr,Mineral,VA,23024,244000,3,2.0,Cuckoo,1550,47480,2003,1082,157,17,Sold,,,https://www.redfin.com/VA/Bumpass/70-Cuckoo-s-Nest-Dr-23024/home/128337321,CVRMLS,1837873,N,Y,38.0005159,-77.7853373
PAST SALE,,Mobile/Manufactured Home,438 Shelton Hill Rd,Bumpass,VA,23024,110680,3,2.0,,1080,108377,2003,,102,,,,,https://www.redfin.com/VA/Bumpass/438-Shelton-Hill-Rd-23024/home/128299956,,,N,Y,37.8596464,-77.7750901
PAST SALE,August-2-2021,Single Family Residential,219 Chase Ln,Bumpass,VA,23024,315300,3,2.5,,1697,139827,2021,125,186,,Sold,,,https://www.redfin.com/VA/Bumpass/219-Chase-Ln-23024/home/162567175,CVRMLS,2103000,N,Y,37.91116,-77.769575
PAST SALE,November-29-2021,Single Family Residential,Lot 18 Fox Run Forest Ln,Beaverdam,VA,23015,282734,3,2.0,FOX RUN FOREST,1612,76491,2021,6,175,,Sold,,,https://www.redfin.com/VA/Beaverdam/Lot-18-Fox-Run-Forest-LN-23015/home/174777501,BRIGHT MLS,VALA122600,N,Y,37.97471625,-77.71492181
PAST SALE,August-22-2019,Single Family Residential,171 Holly Trail Rd,Bumpass,VA,23024,229900,3,2.0,,1505,113691,2002,836,153,,Sold,,,https://www.redfin.com/VA/Bumpass/171-Holly-Trail-Rd-23024/home/128224037,CVRMLS,1922782,N,Y,37.7986898,-77.8215173
PAST SALE,,Vacant Land,,,VA,,25000,,,,,78234,,,,,,,,https://www.redfin.com/VA/Unknown/Unknown-Unknown/home/162574654,,,N,Y,37.981932,-77.734046
PAST SALE,September-8-2021,Single Family Residential,3901 Hatteras Ct,Bumpass,VA,23024,1175000,4,4.5,SYCAMORE SHOALS,3522,52708,2006,88,334,23,Sold,,,https://www.redfin.com/VA/Bumpass/3901-Hatteras-Ct-23024/home/15563338,BRIGHT MLS,VASP2000078,N,Y,38.0625632,-77.7553988
PAST SALE,,Single Family Residential,1607 Eastham Rd,Bumpass,VA,23024,261000,3,2.0,,1288,105459,1992,,203,,,,,https://www.redfin.com/VA/Bumpass/1607-Eastham-Rd-23024/home/128232572,,,N,Y,37.9885398,-77.728375
PAST SALE,November-13-2020,Single Family Residential,16072 Hopeful Church Rd,Montpelier,VA,23024,295000,3,2.5,,1812,87120,1989,387,163,,Sold,,,https://www.redfin.com/VA/Bumpass/16072-Hopeful-Church-Rd-23024/home/56176987,CVRMLS,2025223,N,Y,37.8430059,-77.7532977
PAST SALE,,Single Family Residential,1158 Fredericks Hall Rd,Bumpass,VA,23024,124900,3,2.0,,2094,28750,1945,,60,,,,,https://www.redfin.com/VA/Bumpass/1158-Fredericks-Hall-Rd-23024/home/128386101,,,N,Y,37.9604245,-77.7737939
PAST SALE,October-28-2021,Single Family Residential,1195 Belsches Rd,Bumpass,VA,23024,270000,3,2.0,,1248,74487,1999,38,216,,Sold,,,https://www.redfin.com/VA/Bumpass/1195-Belsches-Rd-23024/home/128245321,CVRMLS,2126857,N,Y,37.93979,-77.735927
PAST SALE,November-1-2021,Single Family Residential,77 Lake Anna Dr,Bumpass,VA,23024,306000,4,2.0,BOTH WATERS ESTATES,2336,40075,1983,34,131,13,Sold,,,https://www.redfin.com/VA/Bumpass/77-Lake-Anna-Dr-23024/home/128368701,BRIGHT MLS,VALA2000664,N,Y,38.0331173,-77.7566299
PAST SALE,February-15-2021,Single Family Residential,190 Ashley Taylor Way,Bumpass,VA,23024,405000,4,2.5,CUCKOOS NEST,2355,41818,2008,293,172,21,Sold,,,https://www.redfin.com/VA/Bumpass/190-Ashley-Taylor-Way-23024/home/128250541,BRIGHT MLS,VALA122558,N,Y,37.9982455,-77.7834028
PAST SALE,,Vacant Land,,,VA,,72500,,,,,435600,,,,,,,,https://www.redfin.com/VA/Unknown/Unknown-Unknown/home/162586624,,,N,Y,37.950707,-77.746817
PAST SALE,,Vacant Land,,,VA,,23900,,,,,81022,,,,,,,,https://www.redfin.com/VA/Unknown/Unknown-Unknown/home/162558485,,,N,Y,37.857935,-77.790452
PAST SALE,January-13-2021,Single Family Residential,11917 Belfonte Rd,Bumpass,VA,23024,230000,3,2.0,PENDLETON RIDGE,1836,217800,2001,326,125,,Sold,,,https://www.redfin.com/VA/Bumpass/11917-Belfonte-Rd-23024/home/15568701,BRIGHT MLS,VASP224310,N,Y,38.0979559,-77.7470564
PAST SALE,,Single Family Residential,15861 Jefferson Hwy,Bumpass,VA,23024,195000,3,2.0,,1404,46609,1986,,139,,,,,https://www.redfin.com/VA/Bumpass/15861-Jefferson-Hwy-23024/home/128323402,,,N,Y,37.86705,-77.784815
PAST SALE,,Single Family Residential,467 Colemans Ln,Bumpass,VA,23024,40000,3,1.0,,1200,107593,1955,,33,,,,,https://www.redfin.com/VA/Bumpass/467-Colemans-Ln-23024/home/128241022,,,N,Y,37.962957,-77.751872
PAST SALE,March-8-2021,Vacant Land,0 Bent Creek Ln,Louisa,VA,23024,100000,,,Willowbrook Estates,,940896,,272,,25,Sold,,,https://www.redfin.com/VA/Mountain-Rd/Bent-Creek-Ln-23024/home/174946117,CVRMLS,2103051,N,Y,37.838117,-77.7989313
PAST SALE,June-17-2021,Vacant Land,Lot 19 Jerdone Island Dr,Bumpass,VA,23024,370000,,,JERDONE ISLAND,,21344,,171,,8,Sold,,,https://www.redfin.com/VA/Bumpass/19-Jerdone-Island-Dr-23024/home/174777533,BRIGHT MLS,VALA121138,N,Y,38.0041659,-77.7560963
PAST SALE,,Single Family Residential,130 Oakleigh Ln,Bumpass,VA,23024,339000,4,3.0,,2821,86467,1995,,120,,,,,https://www.redfin.com/VA/Bumpass/130-Oakleigh-Ln-23024/home/128374625,,,N,Y,37.990552,-77.7703077
PAST SALE,,Single Family Residential,63 Jerdone Island Dr,Bumpass,VA,23024,315000,3,3.0,,2244,31363,1989,,140,,,,,https://www.redfin.com/VA/Bumpass/63-Jerdone-Island-Dr-23024/home/128371821,,,N,Y,38.004278,-77.7566746
PAST SALE,,Single Family Residential,1505 Buckner Rd,Bumpass,VA,23024,192000,3,2.0,,1196,91912,1997,,161,,,,,https://www.redfin.com/VA/Bumpass/1505-Buckner-Rd-23024/home/128249350,,,N,Y,37.9052748,-77.8295599
PAST SALE,August-31-2021,Vacant Land,Lot 75 Old House Rd,Bumpass,VA,23024,99500,,,MILL RUN,,40990,,96,,38,Sold,,,https://www.redfin.com/VA/Cuckoo/Lot-75-Old-House-Rd-23024/home/174777746,BRIGHT MLS,1001939560,N,Y,38.00681774,-77.78234313
PAST SALE,May-26-2021,Single Family Residential,144 Buckner Rd,Bumpass,VA,23024,225000,3,2.0,Bumpass,1144,65340,1988,193,197,,Sold,,,https://www.redfin.com/VA/Bumpass/144-Buckner-Rd-23024/home/128335301,BRIGHT MLS,VALA123002,N,Y,37.8851612,-77.8284417
PAST SALE,,Vacant Land,,,VA,,375000,,,,,282704,,,,,,,,https://www.redfin.com/VA/Unknown/Unknown-Unknown/home/162568531,,,N,Y,37.802061,-77.806566
PAST SALE,,Single Family Residential,27 Eagle Ln,Bumpass,VA,23024,346500,3,2.0,,1794,42253,2004,,193,,,,,https://www.redfin.com/VA/Bumpass/27-Eagle-Ln-23024/home/128356131,,,N,Y,38.0022747,-77.7539031
PAST SALE,May-10-2019,Vacant Land,0 Signboard Rd,Bumpass,VA,23024,35500,,,,,122403,,940,,,Sold,,,https://www.redfin.com/VA/Jackson/Signboard-Rd-23024/home/174948414,CVRMLS,1911711,N,Y,37.9067394,-77.7462381
PAST SALE,September-28-2021,Single Family Residential,71 Rhett Butler Dr,Bumpass,VA,23024,565000,3,3.0,TARA WOODS,3356,40075,1989,68,168,27,Sold,,,https://www.redfin.com/VA/Bumpass/71-Rhett-Butler-Dr-23024/home/128301224,BRIGHT MLS,VALA2000234,N,Y,38.0401291,-77.7694585
PAST SALE,January-4-2021,Single Family Residential,86 Phillips Ct,Bumpass,VA,23024,390000,4,2.5,PHILLIPS ESTATES,2582,289935,2005,335,151,,Sold,,,https://www.redfin.com/VA/Bumpass/86-Phillips-Ct-23024/home/128282423,BRIGHT MLS,VALA122120,N,Y,37.819038,-77.853688
PAST SALE,October-2-2020,Single Family Residential,2581 Bumpass Rd,Beaverdam,VA,23015,222200,3,2.0,Beaverdam,1404,73180,2020,429,158,,Sold,,,https://www.redfin.com/VA/BEAVERDAM/2581-BUMPASS-RD-23015/home/162581811,BRIGHT MLS,VALA120968,N,Y,37.976181,-77.718601
PAST SALE,December-4-2020,Single Family Residential,5833 Buckner Rd,Bumpass,VA,23024,250950,3,2.0,Bumpass,1400,527947,2020,366,179,,Sold,,,https://www.redfin.com/VA/Bumpass/5833-Buckner-Rd-23024/home/162582309,BRIGHT MLS,VALA121674,N,Y,37.956474,-77.79163
PAST SALE,January-6-2021,Single Family Residential,2559 Bumpass Rd,Bumpass,VA,23024,202500,3,2.0,GREENES CORNER,1219,90039,2020,333,166,,Sold,,,https://www.redfin.com/VA/Bumpass/2559-Bumpass-Rd-23024/home/162565385,BRIGHT MLS,VALA121454,N,Y,37.976425,-77.719336
PAST SALE,November-6-2020,Single Family Residential,5805 Buckner Rd,Bumpass,VA,23024,230000,3,2.0,Bumpass,1400,302742,2020,394,164,,Sold,,,https://www.redfin.com/VA/Bumpass/5805-Buckner-Rd-23024/home/162566273,BRIGHT MLS,VALA121698,N,Y,37.954081,-77.791985
PAST SALE,June-15-2021,Vacant Land,11221 Piney Forest Dr,Bumpass,VA,23024,49900,,,ROCKLAND CREEK ESTATES,,43560,,173,,21,Sold,,,https://www.redfin.com/VA/Bumpass/11221-Piney-Forest-Dr-23024/home/15565569,BRIGHT MLS,VASP220156,N,Y,38.05016,-77.724512
PAST SALE,May-31-2019,Single Family Residential,1262 Robertson Town Rd,Bumpass,VA,23024,330000,4,3.0,,3157,343688,2006,919,105,,Sold,,,https://www.redfin.com/VA/Bumpass/1262-Robertson-Town-Rd-23024/home/128377698,CVRMLS,1902928,N,Y,37.820009,-77.838931
PAST SALE,August-6-2021,Single Family Residential,Lot 21 Hopeful Church Ln,Bumpass,VA,23024,333266,3,2.0,Hopeful Church Estates,1826,92347,2020,121,183,,Sold,,,https://www.redfin.com/VA/Bumpass/Lot-21-Hopeful-Church-LN-23024/home/175016314,CVRMLS,2014673,N,Y,37.9635374,-77.7373582
PAST SALE,October-27-2021,Single Family Residential,3442 Crewsville Rd,Bumpass,VA,23024,289900,3,1.5,,960,435600,1995,39,302,,Sold,,,https://www.redfin.com/VA/Bumpass/3442-Crewsville-Rd-23024/home/128341484,CVRMLS,2127106,N,Y,37.840739,-77.823389
PAST SALE,December-24-2020,Single Family Residential,160 Greenes Corner Rd,Bumpass,VA,23024,206341,3,2.0,GREENES CORNER,1200,160824,2020,346,172,,Sold,,,https://www.redfin.com/VA/BUMPASS/160-GREENES-CORNER-RD-23024/home/162574582,BRIGHT MLS,VALA121464,N,Y,37.977036,-77.717143
PAST SALE,December-28-2018,Single Family Residential,1017 Holly Grove Dr,Bumpass,VA,23024,162000,3,2.0,,1350,74487,1984,1073,120,,Sold,,,https://www.redfin.com/VA/Bumpass/1017-Holly-Grove-Dr-23024/home/128351422,CVRMLS,1840332,N,Y,37.793934,-77.829543
PAST SALE,November-30-2020,Single Family Residential,297 Moody Creek Rd,Bumpass,VA,23024,330000,4,4.0,JERDONE ISLAND,3360,21344,2006,370,98,35,Sold,,,https://www.redfin.com/VA/Bumpass/297-Moody-Creek-Rd-23024/home/128336363,BRIGHT MLS,VALA121966,N,Y,38.0023722,-77.7579262
PAST SALE,September-1-2021,Single Family Residential,251 Bent Creek Ln,Bumpass,VA,23024,266000,3,2.0,BENT CREEK,1440,95876,2002,95,185,25,Sold,,,https://www.redfin.com/VA/Bumpass/251-Bent-Creek-Ln-23024/home/128382229,BRIGHT MLS,VALA2000302,N,Y,37.8385451,-77.7958708
PAST SALE,,Single Family Residential,9 Scarlet O'Hara Ct,Bumpass,VA,23024,853000,5,5.0,,5840,40075,1986,,146,,,,,https://www.redfin.com/VA/Bumpass/9-Scarlet-O-Hara-Ct-23024/home/128214493,,,N,Y,38.0383552,-77.7626644
PAST SALE,June-30-2021,Single Family Residential,483 Carrs Bridge Rd,Bumpass,VA,23024,430000,3,2.0,ASPEN HILL,1842,40075,2006,158,233,8,Sold,,,https://www.redfin.com/VA/Bumpass/483-Carrs-Bridge-Rd-23024/home/128356145,BRIGHT MLS,VALA123168,N,Y,38.0409218,-77.7789337
PAST SALE,October-9-2020,Single Family Residential,465 Pottiesville Rd,Bumpass,VA,23024,185000,4,2.0,Bumpass,1768,78408,1950,422,105,,Sold,,,https://www.redfin.com/VA/Bumpass/465-Pottiesville-Rd-23024/home/128242219,BRIGHT MLS,VALA121866,N,Y,37.96657,-77.773169
PAST SALE,,Single Family Residential,415 Johnsons Mill Farm,Bumpass,VA,23024,215000,3,2.0,,1144,164221,1985,,188,,,,,https://www.redfin.com/VA/Bumpass/415-Johnsons-Mill-Farm-23024/home/128280886,,,N,Y,37.8339984,-77.7638266
PAST SALE,,Single Family Residential,742 Eastham Rd,Bumpass,VA,23024,213250,3,2.0,,1266,150064,2002,,168,,,,,https://www.redfin.com/VA/Bumpass/742-Eastham-Rd-23024/home/128265033,,,N,Y,37.9765051,-77.7344558
PAST SALE,,Mobile/Manufactured Home,740 Louisa Farms Ln,Bumpass,VA,23024,250000,3,2.0,,1620,217800,2004,,154,,,,,https://www.redfin.com/VA/Bumpass/740-Louisa-Farms-Ln-23024/home/128245205,,,N,Y,37.9386086,-77.7771361
PAST SALE,December-8-2020,Single Family Residential,47 Hillside Ln,Bumpass,VA,23024,242000,3,2.0,LOCUST HILL,1498,107157,2001,362,162,,Sold,,,https://www.redfin.com/VA/Bumpass/47-Hillside-Ln-23024/home/128287318,BRIGHT MLS,VALA122090,N,Y,37.9389474,-77.7344111
PAST SALE,,Single Family Residential,826 Jackson Rd,Bumpass,VA,23024,227000,3,2.0,,1372,87120,1999,,165,,,,,https://www.redfin.com/VA/Bumpass/826-Jackson-Rd-23024/home/128377270,,,N,Y,37.8758275,-77.8434506
PAST SALE,,Single Family Residential,15415 Hopeful Church Rd,Bumpass,VA,23024,220000,3,2.5,,1670,87120,1986,,132,,,,,https://www.redfin.com/VA/Bumpass/15415-Hopeful-Church-Rd-23024/home/128320671,,,N,Y,37.8339412,-77.7566746
PAST SALE,May-26-2020,Single Family Residential,17422 Belsches Rd,Hanover,VA,23024,262000,3,2.5,,1440,133729,2011,558,182,,Sold,,,https://www.redfin.com/VA/Bumpass/17422-Belsches-Rd-23024/home/56185525,CVRMLS,2007389,N,Y,37.9261202,-77.7053343
PAST SALE,January-25-2021,Single Family Residential,1195 Moody Town Rd,Bumpass,VA,23024,389000,4,3.0,JERDONE ISLAND,2576,38159,2005,314,151,21,Sold,,,https://www.redfin.com/VA/Bumpass/1195-Moody-Town-Rd-23024/home/128316100,BRIGHT MLS,VALA122130,N,Y,37.9981887,-77.7545736
PAST SALE,,Single Family Residential,2723 Wickham Rd,Bumpass,VA,23024,45000,2,1.0,,840,87120,1950,,54,,,,,https://www.redfin.com/VA/Bumpass/2723-Wickham-Rd-23024/home/128212460,,,N,Y,37.9090757,-77.8033549
PAST SALE,,Single Family Residential,46 Long Creek Ridge Ln,Bumpass,VA,23024,229000,3,2.0,,1860,458251,1998,,123,,,,,https://www.redfin.com/VA/Bumpass/46-Long-Creek-Ridge-Ln-23024/home/128253716,,,N,Y,37.908181,-77.825718
PAST SALE,,Single Family Residential,501 Bent Creek Ln,Bumpass,VA,23024,290000,3,2.5,,1509,164221,2005,,192,,,,,https://www.redfin.com/VA/Bumpass/501-Bent-Creek-Ln-23024/home/128226311,,,N,Y,37.8373452,-77.7996243
PAST SALE,,Single Family Residential,23 Pine Ct,Bumpass,VA,23024,248000,3,2.0,,1832,84506,2004,,135,,,,,https://www.redfin.com/VA/Bumpass/23-Pine-Ct-23024/home/128257488,,,N,Y,37.8735295,-77.8347404
PAST SALE,,Single Family Residential,2550 Bethany Church Rd,Bumpass,VA,23024,211000,3,2.0,,1144,205473,1989,,184,,,,,https://www.redfin.com/VA/Bumpass/2550-Bethany-Church-Rd-23024/home/128320375,,,N,Y,37.9020059,-77.7745537
PAST SALE,,Single Family Residential,2490 Crewsville Rd,Bumpass,VA,23024,229999,3,2.0,,1280,88427,1998,,180,,,,,https://www.redfin.com/VA/Bumpass/2490-Crewsville-Rd-23024/home/128247342,,,N,Y,37.8290299,-77.8177645
PAST SALE,June-17-2021,Single Family Residential,3805 Holly Grove Dr,Bumpass,VA,23024,350000,3,2.0,,1641,138520,2021,171,213,,Sold,,,https://www.redfin.com/VA/Bumpass/3805-Holly-Grove-Dr-23024/home/175691737,CVRMLS,2106818,N,Y,37.8062192,-77.7812474
PAST SALE,June-4-2021,Vacant Land,14 Bear Ct,Bumpass,VA,23024,49900,,,BEAR CASTLE,,47480,,184,,,Sold,,,https://www.redfin.com/VA/Bumpass/14-Bear-Ct-23024/home/175000056,BRIGHT MLS,VALA123084,N,Y,38.0353877,-77.7597106
PAST SALE,,Single Family Residential,16 Bent Creek Ln,Bumpass,VA,23024,240000,3,2.0,,1658,106766,2004,,145,,,,,https://www.redfin.com/VA/Bumpass/16-Bent-Creek-Ln-23024/home/128351102,,,N,Y,37.8399036,-77.7920725
PAST SALE,March-31-2021,Single Family Residential,101 Andy Dr,Bumpass,VA,23024,365000,3,2.0,MOOREFIELD'S LANDING,1946,96268,1996,249,188,,Sold,,,https://www.redfin.com/VA/Bumpass/101-Andy-Dr-23024/home/128240662,BRIGHT MLS,VALA122708,N,Y,38.002587,-77.726041
PAST SALE,,Single Family Residential,46 Oakleigh Ln,Bumpass,VA,23024,300000,3,2.0,,1512,39988,2015,,198,,,,,https://www.redfin.com/VA/Bumpass/46-Oakleigh-Ln-23024/home/128456541,,,N,Y,37.9910115,-77.7684751
PAST SALE,February-26-2021,Vacant Land,0 Paynes Mill Rd,Bumpass,VA,23024,25000,,,,,70567,,282,,,Sold,,,https://www.redfin.com/VA/Bumpass/Paynes-Mill-Rd-23024/home/82092039,CVRMLS,2101144,N,Y,37.86691906,-77.84155757
PAST SALE,April-1-2021,Vacant Land,11319 Piney Forest Dr,Bumpass,VA,23024,54000,,,ROCKLAND CREEK ESTATES,,149846,,248,,22,Sold,,,https://www.redfin.com/VA/Bumpass/11319-Piney-Forest-Dr-23024/home/15565575,BRIGHT MLS,VASP228696,N,Y,38.054369,-77.72479
PAST SALE,,Vacant Land,,,VA,,60000,,,,,230432,,,,,,,,https://www.redfin.com/VA/Unknown/Unknown-Unknown/home/162586204,,,N,Y,37.986806,-77.770477
PAST SALE,,Single Family Residential,84 Wilson St,Bumpass,VA,23024,206000,2,2.0,,864,62901,2003,,238,,,,,https://www.redfin.com/VA/Bumpass/84-Wilson-St-23024/home/79726422,,,N,Y,38.003424,-77.781105
PAST SALE,August-13-2021,Vacant Land,Lot 21 Turf Ln,Bumpass,VA,23024,35000,,,JERDONE ISLAND,,29621,,114,,18,Sold,,,https://www.redfin.com/VA/Jackson/Lot-21-Chase-Ln-23024/home/174777689,BRIGHT MLS,VALA119884,N,Y,38.00261132,-77.75613699
PAST SALE,,Single Family Residential,15217 Jefferson Hwy,Bumpass,VA,23024,384700,4,4.0,,2960,479160,1989,,130,,,,,https://www.redfin.com/VA/Bumpass/15217-Jefferson-Hwy-23024/home/128253796,,,N,Y,37.8717968,-77.7959732
PAST SALE,,Single Family Residential,417 Longway Dr,Bumpass,VA,23024,660000,5,3.5,,2581,59285,1983,,256,,,,,https://www.redfin.com/VA/Bumpass/417-Longway-Dr-23024/home/128371773,,,N,Y,38.024882,-77.767782
PAST SALE,July-29-2019,Single Family Residential,2816 Blount Dr,Bumpass,VA,23024,715000,4,3.0,BLOUNTS HARBOUR,3135,43560,1997,860,228,13,Sold,,,https://www.redfin.com/VA/Bumpass/2816-Blount-Dr-23024/home/15564909,BRIGHT MLS,VASP204338,N,Y,38.0364863,-77.7312142
PAST SALE,,Single Family Residential,1840 Copper Line Rd,Bumpass,VA,23024,200000,3,2.0,,1512,109989,2003,,132,,,,,https://www.redfin.com/VA/Bumpass/1840-Copper-Line-Rd-23024/home/128281426,,,N,Y,37.868013,-77.816737
PAST SALE,May-2-2019,Single Family Residential,800 Factory Mill Rd,Louisa,VA,23024,579950,4,4.0,Ivy Cliff,3570,1001880,1997,948,162,,Sold,,,https://www.redfin.com/VA/Bumpass/800-Factory-Mill-Rd-23024/home/128305071,CVRMLS,1907213,N,Y,37.7836577,-77.8128525
PAST SALE,,Single Family Residential,317 S Ridge Rd,Bumpass,VA,23024,205000,3,2.0,,1264,121837,2001,,162,,,,,https://www.redfin.com/VA/Bumpass/317-S-Ridge-Rd-23024/home/128372662,,,N,Y,37.8304355,-77.7894359
PAST SALE,March-1-2019,Single Family Residential,539 Factory Mill Rd,Gum Spring,VA,23024,225000,3,2.0,Folly Creek,1600,222155,1988,1010,141,,Sold,,,https://www.redfin.com/VA/Bumpass/539-Factory-Mill-Rd-23024/home/128270746,CVRMLS,1901908,N,Y,37.789709,-77.807711
PAST SALE,September-11-2020,Single Family Residential,668 Factory Mill Rd,Bumpass,VA,23024,379900,3,2.5,IVY CLIFF,1992,489614,1996,450,191,,Sold,,,https://www.redfin.com/VA/Bumpass/668-Factory-Mill-Rd-23024/home/128218085,BRIGHT MLS,VALA121616,N,Y,37.787216,-77.813609
PAST SALE,July-17-2019,Single Family Residential,111 Anderson Mill Dr,Bumpass,VA,23024,390000,4,3.5,Anderson Mill,2878,121096,2016,872,136,,Sold,,,https://www.redfin.com/VA/Bumpass/111-Anderson-Mill-Dr-23024/home/128490805,CVRMLS,1918189,N,Y,37.771666,-77.7968986
PAST SALE,February-3-2020,Vacant Land,2805 Blount Dr,Bumpass,VA,23024,430000,,,BLOUNTS HARBOUR,,43560,,671,,,Sold,,,https://www.redfin.com/VA/Bumpass/2805-Blount-Dr-23024/home/15564906,BRIGHT MLS,VASP204262,N,Y,38.036259,-77.729663
PAST SALE,,Single Family Residential,361 Anderson Mill Dr,Bumpass,VA,23024,424000,3,2.5,,2923,75794,2009,,145,,,,,https://www.redfin.com/VA/Bumpass/361-Anderson-Mill-Dr-23024/home/128384262,,,N,Y,37.7741845,-77.798887
PAST SALE,June-11-2021,Single Family Residential,207 Moody Creek Rd,Bumpass,VA,23024,360000,3,2.0,JERDONE ISLAND,1704,35719,1989,177,211,29,Sold,,,https://www.redfin.com/VA/Bumpass/207-Moody-Creek-Rd-23024/home/128356175,BRIGHT MLS,VALA123192,N,Y,38.0042662,-77.757144
PAST SALE,May-25-2021,Single Family Residential,121 Riverview Ln,Bumpass,VA,23024,345000,4,2.0,Bumpass,2803,131116,2008,194,123,,Sold,,,https://www.redfin.com/VA/Bumpass/121-Riverview-Ln-23024/home/128324369,BRIGHT MLS,VALA122632,N,Y,37.77886,-77.7820349
PAST SALE,August-28-2019,Single Family Residential,1039 River Bend Dr,Bumpass,VA,23024,181500,3,2.0,,1092,74052,1997,830,166,,Sold,,,https://www.redfin.com/VA/Bumpass/1039-River-Bend-Dr-23024/home/128276245,CVRMLS,1923301,N,Y,37.7803824,-77.8265793
PAST SALE,November-23-2021,Single Family Residential,292 Moody Creek Rd,Bumpass,VA,23024,387500,3,2.0,JERDONE ISLAND,1440,31363,1979,12,269,18,Sold,,,https://www.redfin.com/VA/Bumpass/292-Moody-Creek-Rd-23024/home/128262831,BRIGHT MLS,VALA2000636,N,Y,38.0030416,-77.7588649
PAST SALE,June-10-2021,Single Family Residential,2578 Bagby Rd,Louisa,VA,23024,250000,3,2.0,,1248,69696,1997,178,200,,Sold,,,https://www.redfin.com/VA/Bumpass/2578-Bagby-Rd-23024/home/128280011,CVRMLS,2113201,N,Y,37.9403299,-77.7378537
PAST SALE,March-8-2019,Vacant Land,Wolftrap Ct,Bumpass,VA,23024,300000,,,LIGHTHOUSE POINT,,62465,,1003,,38,Sold,,,https://www.redfin.com/VA/BUMPASS/WOLFTRAP-Ct-23024/home/81551701,BRIGHT MLS,VALA101104,N,Y,38.01553039,-77.77676751
