SALE TYPE,SOLD DATE,PROPERTY TYPE,ADDRESS,CITY,STATE OR PROVINCE,ZIP OR POSTAL CODE,PRICE,BEDS,BATHS,LOCATION,SQUARE FEET,LOT SIZE,YEAR BUILT,DAYS ON MARKET,$/SQUARE FEET,HOA/MONTH,STATUS,NEXT OPEN HOUSE START TIME,NEXT OPEN HOUSE END TIME,URL (SEE https://www.redfin.com/buy-a-home/comparative-market-analysis FOR INFO ON PRICING),SOURCE,MLS#,FAVORITE,INTERESTED,LATITUDE,LONGITUDE
MLS Listing,,Single Family Residential,103 Ash Tree Ln,Washington,VA,22747,1385000,2,1.0,Washington,1440,2411656,1967,23,962,,Active,,,https://www.redfin.com/VA/Washington/103-Ashtree-Ln-22747/home/143291703,BRIGHT MLS,VARP2000274,N,Y,38.7147591,-78.1337841
MLS Listing,,Single Family Residential,332 Hunters Rd,Washington,VA,22747,2200000,4,3.5,WASHINGTON VIRGINIA,5663,2962080,1994,63,388,,Active,,,https://www.redfin.com/VA/Washington/332-Hunters-Rd-22747/home/143269636,BRIGHT MLS,VARP2000224,N,Y,38.6870989,-78.1456379
MLS Listing,,Single Family Residential,16 Pointer Ridge Ln,Washington,VA,22747,1015000,2,2.0,Washington,4598,3345334,2016,65,221,,Active,,,https://www.redfin.com/VA/WASHINGTON/16-POINTER-RIDGE-LN-22747/home/162485811,BRIGHT MLS,VARP2000220,N,Y,38.740758,-78.238914
MLS Listing,,Vacant Land,Lee Hwy,Washington,VA,22747,399900,,,Washington,,1092049,,76,,,Active,,,https://www.redfin.com/VA/Washington/Lee-Hwy-Unknown/home/145933078,BRIGHT MLS,VARP2000194,N,Y,38.72592392,-78.09818492
MLS Listing,,Single Family Residential,604 Mount Salem Ave,Washington,VA,22747,695000,3,3.5,Washington,2977,60984,1989,127,233,,Active,,,https://www.redfin.com/VA/Washington/604-Mount-Salem-Ave-22747/home/175925985,BRIGHT MLS,VARP2000066,N,Y,38.71039,-78.1588795
MLS Listing,,Vacant Land,Gid Brown Hollow Rd,Washington,VA,22747,360000,,,METES & BOUNDS,,1213146,,160,,,Active,,,https://www.redfin.com/VA/Washington/Gid-Brown-Hollow-Rd-23294/home/160274523,BRIGHT MLS,VARP2000024,N,Y,38.73603899,-78.23263852
MLS Listing,,Vacant Land,Pointer Ridge Rd,Washington,VA,22747,1100000,,,METES & BOUNDS,,4486680,,160,,,Active,,,https://www.redfin.com/VA/Washington/GARDNER-Ln-22747/home/147480015,BRIGHT MLS,VARP2000022,N,Y,38.73797143,-78.23811023
PAST SALE,November-6-2020,Single Family Residential,40 Pullens Bluff Rd,Washington,VA,22747,128500,3,1.0,GID BROWN HOLLOW,840,21780,1978,394,153,,Sold,,,https://www.redfin.com/VA/WASHINGTON/40-PULLENS-BLUFF-RD-22747/home/15561060,BRIGHT MLS,VARP107502,N,Y,38.714004,-78.232071
PAST SALE,October-15-2020,Single Family Residential,740 Harris Hollow Rd,Washington,VA,22747,299900,2,2.0,Washington,1056,59677,2002,416,284,,Sold,,,https://www.redfin.com/VA/Washington/740-Harris-Hollow-Rd-22747/home/15561056,BRIGHT MLS,VARP107536,N,Y,38.7421116,-78.213886
PAST SALE,July-31-2020,Single Family Residential,14 Old Ski Lodge Ln,Washington,VA,22747,329500,3,2.0,HARRIS MANOR ESTATES,1804,231713,1982,492,183,17,Sold,,,https://www.redfin.com/VA/Washington/14-Old-Ski-Lodge-Ln-22747/home/15561543,BRIGHT MLS,VARP106948,N,Y,38.7385019,-78.2158471
PAST SALE,,Single Family Residential,282 Keyser Run Rd,Washington,VA,22747,299900,3,3.0,,1937,45302,2007,,155,,,,,https://www.redfin.com/VA/Washington/282-Keyser-Run-Rd-22747/home/17354605,,,N,Y,38.7184247,-78.237955
PAST SALE,August-6-2020,Single Family Residential,339 Piedmont Ave,Washington,VA,22747,315500,3,2.0,Washington,3252,43560,2002,486,97,,Sold,,,https://www.redfin.com/VA/Washington/339-Piedmont-Ave-22747/home/15561496,BRIGHT MLS,VARP106956,N,Y,38.7130679,-78.1639397
PAST SALE,November-15-2019,Single Family Residential,14 Peach Orchard Ln,Washington,VA,22747,181000,3,3.0,METES & BOUNDS,2318,,1952,751,78,,Sold,,,https://www.redfin.com/VA/Washington/14-Peach-Orchard-Ln-22747/home/15561447,BRIGHT MLS,VARP102828,N,Y,38.7284674,-78.1519633
PAST SALE,September-20-2019,Single Family Residential,23 Peach Orchard Ln,Washington,VA,22747,415000,3,2.0,Washington,1598,273404,2004,807,260,,Sold,,,https://www.redfin.com/VA/Washington/23-Peach-Orchard-Ln-22747/home/15561460,BRIGHT MLS,VARP106158,N,Y,38.7284727,-78.1519347
PAST SALE,,Single Family Residential,667 Main St,Washington,VA,22747,417050,2,1.0,,960,27573,1975,,434,,,,,https://www.redfin.com/VA/Washington/667-Main-St-22747/home/15561352,,,N,Y,38.7158837,-78.1592654
PAST SALE,March-15-2019,Single Family Residential,41 Harris Hollow Rd,Washington,VA,22747,345000,2,1.0,HARRIS HOLLOW,1152,34848,1951,996,299,,Sold,,,https://www.redfin.com/VA/Washington/41-Harris-Hollow-Rd-22747/home/15561807,BRIGHT MLS,1001181514,N,Y,38.716786,-78.1619498
PAST SALE,July-17-2019,Single Family Residential,639 Main St,Washington,VA,22747,700000,3,2.5,WASHINGTON,2978,29620,1909,872,235,,Sold,,,https://www.redfin.com/VA/Washington/639-Main-St-22747/home/15561353,BRIGHT MLS,VARP106658,N,Y,38.716618,-78.15937
PAST SALE,November-12-2020,Single Family Residential,293 Piedmont Ave,Washington,VA,22747,307000,3,2.0,Washington,1456,115434,1880,388,211,,Sold,,,https://www.redfin.com/VA/Washington/293-Piedmont-Ave-22747/home/15561783,BRIGHT MLS,VARP107524,N,Y,38.7135697,-78.1644913
PAST SALE,April-27-2021,Single Family Residential,509 Main St,Washington,VA,22747,750000,4,4.0,LITTLE WASHINGTON,3200,10546,1890,222,234,,Sold,,,https://www.redfin.com/VA/Washington/509-Main-St-22747/home/15561345,BRIGHT MLS,VARP107382,N,Y,38.7148354,-78.1595905
PAST SALE,April-22-2019,Single Family Residential,13 Googe Mountain Rd,Washington,VA,22747,309900,3,2.0,Washington,1508,261360,1986,958,206,,Sold,,,https://www.redfin.com/VA/Washington/13-Co-Rd-679-22747/home/15559527,BRIGHT MLS,1000175222,N,Y,38.7217918,-78.0883159
PAST SALE,,Single Family Residential,13583 Lee Hwy,Washington,VA,22747,315000,5,2.0,,2887,7923682,1700,,109,,,,,https://www.redfin.com/VA/Washington/13583-Lee-Hwy-22747/home/162488024,,,N,Y,38.7246539,-78.0919559
PAST SALE,January-11-2019,Single Family Residential,46 Beckwith Ln,Washington,VA,22747,435000,5,5.0,Washington,4556,382413,2007,1059,95,,Sold,,,https://www.redfin.com/VA/Washington/46-Beckwith-Ln-22747/home/15559466,BRIGHT MLS,1002162176,N,Y,38.684096,-78.1921897
PAST SALE,October-7-2019,Single Family Residential,263 Tiger Valley Rd,Washington,VA,22747,392500,3,3.0,TIGER VALLEY,1944,580655,1989,790,202,,Sold,,,https://www.redfin.com/VA/Washington/263-Tiger-Valley-Rd-22747/home/15560393,BRIGHT MLS,VARP106774,N,Y,38.7013684,-78.1449739
PAST SALE,December-20-2019,Single Family Residential,372 Tiger Valley Rd,Washington,VA,22747,430000,3,2.0,TIGER VALLEY,2580,192970,1996,716,167,,Sold,,,https://www.redfin.com/VA/Washington/372-Tiger-Valley-Rd-22747/home/15560381,BRIGHT MLS,VARP106546,N,Y,38.7040458,-78.1508802
PAST SALE,May-10-2019,Single Family Residential,157 Tiger Valley Rd,Washington,VA,22747,455000,5,3.0,Washington,3720,679100,1979,940,122,,Sold,,,https://www.redfin.com/VA/Washington/157-Tiger-Valley-Rd-22747/home/15560331,BRIGHT MLS,1009942122,N,Y,38.6905196,-78.141277
PAST SALE,June-15-2020,Single Family Residential,37 Ladybrook Ln,Washington,VA,22747,710000,6,5.5,Washington,4803,356395,2002,538,148,,Sold,,,https://www.redfin.com/VA/Washington/443-Tiger-Valley-Rd-22747/home/15560644,BRIGHT MLS,VARP107124,N,Y,38.705653,-78.154826
PAST SALE,February-5-2020,Single Family Residential,290 Hunters Rd,Washington,VA,22747,350000,4,3.0,PEYTON FARM ESTATES,2544,298926,1982,669,138,,Sold,,,https://www.redfin.com/VA/Washington/290-Hunters-Rd-22747/home/15558809,BRIGHT MLS,VARP107022,N,Y,38.683778,-78.1470807
PAST SALE,September-15-2020,Single Family Residential,108 Grand View Rd,Washington,VA,22747,813050,4,3.0,GRANDVIEW ESTATES,3108,779759,1974,446,262,,Sold,,,https://www.redfin.com/VA/Washington/108-Grandview-Rd-22747/home/15558734,BRIGHT MLS,VARP106694,N,Y,38.6645422,-78.1325876
PAST SALE,June-5-2019,Single Family Residential,177 Grand View Rd,Washington,VA,22747,385000,3,1.5,Washington,1584,433422,1973,914,243,,Sold,,,https://www.redfin.com/VA/Washington/177-Grandview-Rd-22747/home/15558798,BRIGHT MLS,VARP106550,N,Y,38.6728449,-78.1405944
PAST SALE,June-25-2020,Single Family Residential,207 Grand View Rd,Washington,VA,22747,555000,3,2.5,PEYTON FARM ESTATES,1381,324522,2001,528,402,,Sold,,,https://www.redfin.com/VA/Washington/207-Grandview-Rd-22747/home/15558796,BRIGHT MLS,VARP107290,N,Y,38.668782197901756,-78.13803938680773
PAST SALE,March-11-2021,Single Family Residential,96 Grand View Rd,Washington,VA,22747,532000,3,3.0,PEYTON FARMS,4305,435600,1978,269,124,,Sold,,,https://www.redfin.com/VA/Washington/96-Grandview-Rd-22747/home/15558733,BRIGHT MLS,VARP107590,N,Y,38.6752564,-78.145937
PAST SALE,October-29-2019,Single Family Residential,866 Harris Hollow Rd,Washington,VA,22747,506000,4,3.5,HARRIS HOLLOW,3906,324949,1992,768,130,,Sold,,,https://www.redfin.com/VA/Washington/866-Harris-Hollow-Rd-22747/home/15561553,BRIGHT MLS,VARP106580,N,Y,38.7438505,-78.229808
PAST SALE,April-30-2019,Single Family Residential,902 Harris Hollow Rd,Washington,VA,22747,550000,3,3.0,WASHINGTON VIRGINIA,2656,1573418,1986,950,207,,Sold,,,https://www.redfin.com/VA/Washington/902-Harris-Hollow-Rd-22747/home/16850821,BRIGHT MLS,VARP106102,N,Y,38.7250131,-78.1669521
PAST SALE,November-11-2020,Vacant Land,Gid Brown Hollow & Pointer Ridge Ln,Washington,VA,22747,160000,,,Washington,,241758,,389,,,Sold,,,https://www.redfin.com/VA/Washington/R-o-w-From-Gid-Brown-Hollow-Rd-22747/home/143773809,BRIGHT MLS,VARP107336,N,Y,38.73185158,-78.2319869
PAST SALE,November-16-2020,Single Family Residential,307 Main St,Washington,VA,22747,490000,1,1.5,Washington,2592,3920,1930,384,189,,Sold,,,https://www.redfin.com/VA/Washington/307-Main-St-22747/home/15561422,BRIGHT MLS,VARP106996,N,Y,38.7125363,-78.1602955
PAST SALE,November-15-2019,Vacant Land,0 Tiger Vly,Washington,VA,22747,300000,,,Washington,,511874,,751,,,Sold,,,https://www.redfin.com/VA/Washington/Tiger-Valley-Rd-22747/home/17583258,BRIGHT MLS,VARP106866,N,Y,38.69383,-78.14604
PAST SALE,January-2-2019,Vacant Land,Main St./va.route 628 Rte NE,Washington,VA,22747,202500,,,Washington,,87120,,1068,,,Sold,,,https://www.redfin.com/VA/Washington/Unknown-22747/home/147993725,BRIGHT MLS,1001407632,N,Y,38.71389,-78.16101
PAST SALE,May-31-2019,Ranch,12567 Lee Hwy,Washington,VA,22747,1350000,5,3.0,RAPPAHANNOCK/ WASHINGTON VIRGINIA,4000,3484800,1850,919,338,,Sold,,,https://www.redfin.com/VA/Washington/12567-Lee-Hwy-22747/home/17485350,BRIGHT MLS,1001248742,N,Y,38.6880072,-78.1850822
PAST SALE,July-31-2020,Vacant Land,Keyser Run,Sperryville,VA,22740,175000,,,Sperryville,,1655280,,492,,,Sold,,,https://www.redfin.com/VA/Sperryville/Keyser-RUN-22740/home/171172798,BRIGHT MLS,VARP107186,N,Y,38.73081871,-78.25108719
PAST SALE,June-15-2021,Single Family Residential,742 Main St,Washington,VA,22747,240000,0,1.0,Washington,1470,87120,1978,173,163,,Sold,,,https://www.redfin.com/VA/Washington/742-Main-St-22747/home/175037034,BRIGHT MLS,VARP107906,N,Y,38.7164206,-78.1590797
PAST SALE,July-23-2021,Single Family Residential,421 Keyser Run Rd,Washington,VA,22747,545000,2,2.0,Washington,1672,1577743,1993,135,326,,Sold,,,https://www.redfin.com/VA/Washington/421-Keyser-Run-Rd-22747/home/162487571,BRIGHT MLS,VARP107928,N,Y,38.7242362,-78.245174
PAST SALE,October-15-2021,Vacant Land,Walnut Grove Ln,Washington,VA,22747,380000,,,WALNUT GROVE,,1219680,,51,,,Sold,,,https://www.redfin.com/VA/Unknown/Walnut-Grove-Ln-22747/home/147104770,BRIGHT MLS,VARP107980,N,Y,38.67987216,-78.11720713
PAST SALE,May-8-2019,Vacant Land,218 Rediviva Ln,Washington,VA,22747,425000,,,Washington,,2338300,,942,,,Sold,,,https://www.redfin.com/VA/Washington/218-Rediviva-Ln-22747/home/162490760,BRIGHT MLS,VARP106114,N,Y,38.697158,-78.197442
PAST SALE,June-21-2019,Single Family Residential,8 Rush River Ln,Washington,VA,22747,359000,2,2.0,Washington,1545,1420056,1968,898,232,,Sold,,,https://www.redfin.com/VA/Washington/8-Rush-River-Ln-22747/home/162489327,BRIGHT MLS,VARP106680,N,Y,38.7312113,-78.1795959
PAST SALE,July-19-2021,Single Family Residential,27 Charity Hill Ln,Washington,VA,22747,450000,3,2.0,Washington,2536,87120,1983,139,177,,Sold,,,https://www.redfin.com/VA/WASHINGTON/27-CHARITY-HILL-LN-22747/home/15560672,BRIGHT MLS,VARP107958,N,Y,38.682199,-78.194974
PAST SALE,December-11-2020,Single Family Residential,38 & 50 Black Bear Trl,Washington,VA,22747,872500,3,2.5,Washington,2464,784080,1997,359,354,,Sold,,,https://www.redfin.com/VA/Piedmont/38-50-Black-Bear-Trl-22747/home/173538354,BRIGHT MLS,VARP107370,N,Y,38.72070542,-78.22529788
PAST SALE,June-9-2021,Vacant Land,0 Grandview,Washington,VA,22747,185000,,,PEYTON FARMS,,241322,,179,,,Sold,,,https://www.redfin.com/VA/Hampton/Grandview-Rd-22747/home/143773082,BRIGHT MLS,VARP107888,N,Y,38.67650337,-78.14543925
PAST SALE,July-22-2021,Single Family Residential,340 Persimmon Ln,Washington,VA,22747,3175019,4,2.0,Washington,2384,23130360,1938,136,1332,,Sold,,,https://www.redfin.com/VA/Washington/340-Persimmon-Ln-22747/home/162485832,BRIGHT MLS,VARP107858,N,Y,38.7271993,-78.20644
PAST SALE,June-8-2020,Single Family Residential,309 Wheeler St,Washington,VA,22747,226100,2,2.0,Washington,1210,6534,1926,545,187,,Sold,,,https://www.redfin.com/VA/Washington/309-Wheeler-St-22747/home/15559569,BRIGHT MLS,VARP107042,N,Y,38.7159738,-78.1589281
PAST SALE,May-21-2021,Single Family Residential,106 Piedmont Ave,Washington,VA,22747,590000,3,3.0,WASHINGTON VIRGINIA,2349,21344,1860,198,251,,Sold,,,https://www.redfin.com/VA/Washington/106-Piedmont-Ave-22747/home/15561423,BRIGHT MLS,VARP107814,N,Y,38.712956,-78.161497
PAST SALE,June-11-2021,Vacant Land,Lot 27 Gid Brown Hollow Rd,Washington,VA,22747,25000,,,WASHINGTON,,87120,,177,,,Sold,,,https://www.redfin.com/VA/Piedmont/Lot-27-Gid-Brown-Hollow-Rd-22747/home/175048435,BRIGHT MLS,VARP107934,N,Y,38.70821329,-78.21919269
PAST SALE,February-14-2020,Single Family Residential,55 Mount Marshall Rd,Washington,VA,22747,225000,2,2.0,MOUNT MARSHALL ESTATES,1189,300564,1978,660,189,,Sold,,,https://www.redfin.com/VA/Washington/55-Mt-Marshall-Rd-22747/home/15561532,BRIGHT MLS,VARP106646,N,Y,38.7388343,-78.1944407
PAST SALE,March-9-2021,Single Family Residential,132 Gay St,Washington,VA,22747,625000,2,2.0,Washington,1140,43560,1814,271,548,,Sold,,,https://www.redfin.com/VA/Washington/132-Gay-St-22747/home/15561772,BRIGHT MLS,VARP107764,N,Y,38.7103294,-78.1598258
PAST SALE,April-9-2020,Vacant Land,Fodderstack Rd,Washington,VA,22747,253000,,,Washington,,742476,,605,,,Sold,,,https://www.redfin.com/VA/WASHINGTON/FODDERSTACK-RD-22747/home/15561455,BRIGHT MLS,VARP106990,N,Y,38.728474,-78.143858
PAST SALE,June-26-2019,Single Family Residential,577 Main St,Washington,VA,22747,455000,4,2.0,HISTORIC DISTRICT,2096,22712,1900,893,217,,Sold,,,https://www.redfin.com/VA/Washington/577-Main-St-22747/home/15561428,BRIGHT MLS,VARP106624,N,Y,38.7155213,-78.159263
PAST SALE,May-28-2021,Single Family Residential,712 Gid Brown Hollow Rd,Washington,VA,22747,275000,2,2.0,Washington,957,522720,1933,191,287,,Sold,,,https://www.redfin.com/VA/Washington/712-Gid-Brown-Hollow-Rd-22747/home/15561055,BRIGHT MLS,VARP107852,N,Y,38.724038,-78.2286039
PAST SALE,June-1-2020,Single Family Residential,211 Main St,Washington,VA,22747,450000,0,3.0,Washington,4047,,1955,552,111,,Sold,,,https://www.redfin.com/VA/Washington/211-Main-St-22747/home/143375391,BRIGHT MLS,VARP107194,N,Y,38.7114056,-78.1606402
PAST SALE,November-8-2019,Vacant Land,0 Reality Farm,Washington,VA,22747,199000,,,Washington,,1718412,,758,,,Sold,,,https://www.redfin.com/VA/Washington/Unknown-22747/home/160698418,BRIGHT MLS,VARP106106,N,Y,38.69987701,-78.20610454
PAST SALE,July-27-2020,Vacant Land,Old Ski Lodge Ln,Washington,VA,22747,165000,,,Washington,,2726856,,496,,17,Sold,,,https://www.redfin.com/VA/WASHINGTON/64-OLD-SKI-LODGE-LN-22747/home/40323445,BRIGHT MLS,VARP106168,N,Y,38.736613,-78.210271
PAST SALE,August-27-2021,Vacant Land,Old Ski Lodge Ln,Washington,VA,22747,200000,,,Washington,,1132560,,100,,25,Sold,,,https://www.redfin.com/VA/Hampton/Old-Ski-Lodge-Rd-22747/home/162490254,BRIGHT MLS,VARP107716,N,Y,38.739291,-78.215514
PAST SALE,May-17-2019,Vacant Land,Harris Hollow Rd,Washington,VA,22747,145000,,,Washington,,147198,,933,,,Sold,,,https://www.redfin.com/VA/Washington/507-Harris-Hollow-Rd-22747/home/162489323,BRIGHT MLS,VARP106164,N,Y,38.7358249,-78.1969663
PAST SALE,July-6-2021,Vacant Land,Harris Hollow Rd,Washington,VA,22747,160000,,,Washington,,428630,,152,,,Sold,,,https://www.redfin.com/VA/Washington/Harris-Hollow-Rd-22747/home/143290444,BRIGHT MLS,VARP107798,N,Y,38.71486,-78.16001
PAST SALE,June-7-2021,Vacant Land,00 Ridgeview Ln,Washington,VA,22747,249000,,,Washington,,1101196,,181,,,Sold,,,https://www.redfin.com/VA/Washington/Ridgeview-Ln-22747/home/143387064,BRIGHT MLS,VARP107372,N,Y,38.66975,-78.10658
PAST SALE,August-31-2020,Single Family Residential,60 Long Mountain Rd,Washington,VA,22747,675000,2,3.0,Washington,2224,1698840,1986,461,304,,Sold,,,https://www.redfin.com/VA/Washington/60-Long-Mountain-Rd-22747/home/143717864,BRIGHT MLS,VARP107100,N,Y,38.6552711,-78.1274187
PAST SALE,August-7-2020,Single Family Residential,335 Fodderstack Rd,Washington,VA,22747,1100000,4,4.0,RURAL,3635,1308978,1989,485,303,,Sold,,,https://www.redfin.com/VA/Washington/335-Fodderstack-Rd-22747/home/51540439,BRIGHT MLS,VARP107094,N,Y,38.735367,-78.1382044
PAST SALE,June-14-2021,Single Family Residential,199 Main St,Washington,VA,22747,949000,3,1.5,Washington,2272,24393,1900,174,418,,Sold,,,https://www.redfin.com/VA/Washington/199-Main-St-22747/home/15561776,BRIGHT MLS,VARP107880,N,Y,38.7111325,-78.1606711
PAST SALE,October-4-2021,Single Family Residential,515 Mount Salem Ave,Washington,VA,22747,432000,4,2.0,WASHINGTON VIRGINIA,2496,43560,1938,62,173,,Sold,,,https://www.redfin.com/VA/Washington/515-Mount-Salem-Ave-22747/home/175161134,BRIGHT MLS,VARP107942,N,Y,38.7108955,-78.158784
PAST SALE,November-1-2021,Single Family Residential,486 Tiger Valley Rd,Washington,VA,22747,440000,4,2.5,Washington,2717,47480,2004,34,162,,Sold,,,https://www.redfin.com/VA/Washington/486-Tiger-Valley-Rd-22747/home/15560252,BRIGHT MLS,VARP107952,N,Y,38.707574,-78.155453
PAST SALE,November-30-2021,Single Family Residential,262 Main St,Washington,VA,22747,575000,3,1.5,WASHINGTON VIRGINIA,2054,19602,1850,5,280,,Sold,,,https://www.redfin.com/VA/Washington/262-Main-St-22747/home/15559558,BRIGHT MLS,VARP107860,N,Y,38.7119202,-78.1602107
PAST SALE,October-27-2021,Single Family Residential,114 Maple Hill Ln,Washington,VA,22747,299000,3,2.0,RAPPAHANNOCK,1260,116758,1999,39,237,,Sold,,,https://www.redfin.com/VA/Washington/114-Maple-Hill-Rd-22747/home/15561503,BRIGHT MLS,VARP2000176,N,Y,38.7217339,-78.1675637
PAST SALE,May-11-2021,Single Family Residential,481 Mount Salem Ave,Washington,VA,22747,730000,3,3.0,TOWN OF WASHINGTON,4000,23958,1905,208,183,,Sold,,,https://www.redfin.com/VA/Washington/481-Mt-Salem-Ave-22747/home/15561412,BRIGHT MLS,VARP107700,N,Y,38.7103419,-78.1584603
PAST SALE,July-15-2019,Single Family Residential,6 El Charro Ln,Washington,VA,22747,262550,3,2.0,Washington,1664,142450,1986,874,158,,Sold,,,https://www.redfin.com/VA/WASHINGTON/6-EL-CHARRO-LN-22747/home/15558819,BRIGHT MLS,VARP106676,N,Y,38.690787,-78.139379
PAST SALE,September-27-2021,Single Family Residential,30 Stonewall Ln,Washington,VA,22747,650000,3,3.5,WASHINGTON VIRGINIA,3052,87120,1964,69,213,,Sold,,,https://www.redfin.com/VA/Washington/30-Stonewall-Ln-22747/home/15561476,BRIGHT MLS,VARP107886,N,Y,38.7172843,-78.1576503
PAST SALE,December-23-2019,Single Family Residential,651 Gid Brown Hollow Rd,Washington,VA,22747,130000,2,,Washington,560,392040,1938,713,232,,Sold,,,https://www.redfin.com/VA/Unknown/651-Gid-Brown-Hollow-Rd-22747/home/15561562,BRIGHT MLS,VARP106946,N,Y,38.7200495,-78.2295615
PAST SALE,September-21-2020,Single Family Residential,396 Keyser Run Rd,Washington,VA,22747,1180000,3,2.0,KEYSER RUN,3170,2308680,2001,440,372,,Sold,,,https://www.redfin.com/VA/Washington/396-Keyser-Run-Rd-22747/home/16857424,BRIGHT MLS,VARP107448,N,Y,38.7338248,-78.2567512
