SALE TYPE,SOLD DATE,PROPERTY TYPE,ADDRESS,CITY,STATE OR PROVINCE,ZIP OR POSTAL CODE,PRICE,BEDS,BATHS,LOCATION,SQUARE FEET,LOT SIZE,YEAR BUILT,DAYS ON MARKET,$/SQUARE FEET,HOA/MONTH,STATUS,NEXT OPEN HOUSE START TIME,NEXT OPEN HOUSE END TIME,URL (SEE https://www.redfin.com/buy-a-home/comparative-market-analysis FOR INFO ON PRICING),SOURCE,MLS#,FAVORITE,INTERESTED,LATITUDE,LONGITUDE
MLS Listing,,Single Family Residential,2656 S Nc 39 Hwy,Henderson,NC,27537,185000,3,2.0,Willow Oak,1737,43560,1968,2,107,,Active,,,https://www.redfin.com/NC/Henderson/2656-NC-39-27537/home/65382233,TMLS,2421833,N,Y,36.3037593,-78.3796231
MLS Listing,,Single Family Residential,551 E Waycliff Rd,Henderson,NC,27537,294240,5,2.5,Huntstone,2710,10890,2021,2,109,25,Active,,,https://www.redfin.com/NC/Unknown/551-E-Waycliff-Rd-27537/home/177366499,TMLS,2421755,N,Y,36.311278,-78.497232
MLS Listing,,Single Family Residential,604 E Waycliff Rd,Henderson,NC,27537,292990,5,2.5,Huntstone,2710,14026,2021,2,108,25,Active,,,https://www.redfin.com/NC/Unknown/604-E-Waycliff-Rd-27537/home/177366500,TMLS,2421754,N,Y,36.311278,-78.497232
MLS Listing,,Single Family Residential,420 E Waycliff Rd,Henderson,NC,27537,293990,5,2.5,Huntstone,2710,14026,2021,2,108,25,Active,,,https://www.redfin.com/NC/Unknown/420-E-Waycliff-Rd-27537/home/177366501,TMLS,2421751,N,Y,36.311278,-78.497232
MLS Listing,,Single Family Residential,350 E Waycliff Rd,Henderson,NC,27537,289990,5,2.5,Huntstone,2710,14069,2021,2,107,25,Active,,,https://www.redfin.com/NC/Henderson/350-E-Waycliff-Rd-27537/home/177366502,TMLS,2421747,N,Y,36.311829,-78.495453
MLS Listing,,Single Family Residential,565 E Waycliff Rd,Henderson,NC,27537,279240,4,2.5,Huntstone,2405,10890,2021,2,116,25,Active,,,https://www.redfin.com/NC/Unknown/565-E-Waycliff-Rd-27537/home/177366503,TMLS,2421744,N,Y,36.311278,-78.497232
MLS Listing,,Single Family Residential,434 E Waycliff Rd,Henderson,NC,27537,256990,4,2.5,Huntstone,2009,14069,2022,2,128,25,Active,,,https://www.redfin.com/NC/Unknown/434-E-Waycliff-Rd-27537/home/177366509,TMLS,2421741,N,Y,36.311278,-78.497232
MLS Listing,,Single Family Residential,362 E Waycliff Rd,Henderson,NC,27537,256990,4,2.5,Huntstone,2009,14069,2022,2,128,25,Active,,,https://www.redfin.com/NC/Unknown/362-E-Waycliff-Rd-27537/home/177366510,TMLS,2421736,N,Y,36.311278,-78.497232
MLS Listing,,Single Family Residential,378 E Waycliff Rd,Henderson,NC,27537,276990,4,2.5,Huntstone,2405,14069,2021,2,115,25,Active,,,https://www.redfin.com/NC/Unknown/378-E-Waycliff-Rd-27537/home/177485839,TMLS,2421732,N,Y,36.3144968889969,-78.4953647592468
MLS Listing,,Single Family Residential,601 E Waycliff Rd,Henderson,NC,27537,272490,5,3.0,Huntstone,2217,10890,2022,2,123,25,Active,,,https://www.redfin.com/NC/Unknown/601-E-Waycliff-Rd-27537/home/177366505,TMLS,2421722,N,Y,36.311278,-78.497232
MLS Listing,,Single Family Residential,394 E Waycliff Rd,Henderson,NC,27537,266990,5,3.0,Huntstone,2217,10890,2022,2,120,25,Active,,,https://www.redfin.com/NC/Unknown/394-E-Waycliff-Rd-27537/home/177485694,TMLS,2421721,N,Y,36.3142877802532,-78.4953277116394
MLS Listing,,Single Family Residential,1675 Spring Valley Lake Rd,Henderson,NC,27537,169900,3,3.0,Vance,2414,43124,1973,3,70,,Active,,,https://www.redfin.com/NC/Henderson/1675-Spring-Valley-Lake-Rd-27537/home/65392659,TMLS,2421535,N,Y,36.3807917,-78.3958555
MLS Listing,,Single Family Residential,322 E Waycliff Rd,Henderson,NC,27537,264990,5,3.0,Huntstone,2217,10890,2022,4,120,25,Active,,,https://www.redfin.com/NC/Henderson/322-E-Waycliff-Rd-27537/home/177366506,TMLS,2421393,N,Y,36.311829,-78.495453
MLS Listing,,Single Family Residential,59 Pool Rock Shores Ln,Henderson,NC,27537,250000,1,1.5,Pool Rock Plantation,830,28749,1994,4,301,,Active,,,https://www.redfin.com/NC/Henderson/59-Pool-Rock-Shores-Ln-27537/home/65394415,TMLS,2421355,N,Y,36.4545545,-78.4046526
MLS Listing,,Mobile/Manufactured Home,173 Fawn Dr,Henderson,NC,27537,34000,3,2.0,Deer Trails,1028,43560,1993,4,33,,Active,,,https://www.redfin.com/NC/Henderson/173-Fawn-Dr-27537/home/65395612,TMLS,2421310,N,Y,36.297209,-78.353382
MLS Listing,,Single Family Residential,71 Hedrick Dr,Henderson,NC,27537,595000,4,4.0,Ru Lon Estates,5565,105415,2006,5,107,,Active,,,https://www.redfin.com/NC/Henderson/71-Hedrick-Dr-27537/home/44516339,TMLS,2421156,N,Y,36.4010728,-78.3693566
MLS Listing,,Single Family Residential,1275 Spring Valley Lake Rd,Henderson,NC,27537,419900,3,2.0,Vance,1904,214315,1972,6,221,,Active,,,https://www.redfin.com/NC/Henderson/1275-Spring-Valley-Lake-Rd-27537/home/44535754,TMLS,2421099,N,Y,36.3756057,-78.3930436
MLS Listing,,Vacant Land,62a Stonewood Loop Ln,Henderson,NC,23927-0000,53000,,,The Peninsula at Kerr Lake,,39469,,19,,42,Active,,,https://www.redfin.com/NC/Henderson/62-Stonewood-Loop-Ln-27537/unit-62/home/172479624,TMLS,2419323,N,Y,36.5152208,-78.3974256
MLS Listing,,Vacant Land,Lot 5 S Cobble Crk,Henderson,NC,27537,35000,,,Cobblestone,,37897,,22,,,Active,,,https://www.redfin.com/NC/Henderson/5-S-Cobble-Creek-Dr-27537/home/177185387,TMLS,2419030,N,Y,36.2645491,-78.4167191
MLS Listing,,Single Family Residential,169 Eileen Ct,Henderson,NC,27537,259900,4,3.0,Meadow Wood,1902,33541,1987,24,137,,Pre On-Market,,,https://www.redfin.com/NC/Henderson/169-Eileen-Ct-27537/home/65383815,TMLS,2418680,N,Y,36.3270198,-78.4799119
MLS Listing,,Single Family Residential,623 Townsville Landing Rd,Henderson,NC,27537,138500,3,1.0,Vance,1617,119790,1955,24,86,,Active,,,https://www.redfin.com/NC/Henderson/623-Townsville-Landing-Rd-27537/home/44520853,TMLS,2418561,N,Y,36.490028,-78.410653
MLS Listing,,Single Family Residential,395 New Bethel Church Rd,Henderson,NC,27537,750000,2,1.0,Franklin,1104,2225916,1951,55,679,,Active,,,https://www.redfin.com/NC/Henderson/395-New-Bethel-Church-Rd-27537/home/44277510,TMLS,2412865,N,Y,36.262019,-78.3098331
MLS Listing,,Single Family Residential,220 Evans Rd,Henderson,NC,27538,295000,3,2.0,Vance,1520,33976,1977,67,194,,Active,,,https://www.redfin.com/NC/Henderson/220-Evans-Rd-27537/home/65388807,TMLS,2410597,N,Y,36.3185693,-78.4498115
MLS Listing,,Vacant Land,00 Satterwhite Point Rd,Henderson,NC,27537,85000,,,Vance,,29620,,72,,,Active,,,https://www.redfin.com/NC/HENDERSON/SATTERWHITE-POINT-RD-27537/home/65392400,TMLS,2409847,N,Y,36.376789,-78.374352
MLS Listing,,Mobile/Manufactured Home,4522 Thomas Rd,Henderson,NC,27537,219000,3,2.0,Dockside Cove,1323,93654,1998,75,166,17,Active,,,https://www.redfin.com/NC/Henderson/4522-Thomas-Rd-27537/home/65394717,TMLS,2409030,N,Y,36.4665457,-78.388108
MLS Listing,,Mobile/Manufactured Home,149 Waters Edge Loop,Henderson,NC,27537,262500,3,2.0,Killian Greene,1875,51836,2000,84,140,,Active,,,https://www.redfin.com/NC/Henderson/149-Waters-Edge-Loop-27537/home/176366392,TMLS,2407306,N,Y,36.4432638,-78.3889701
MLS Listing,,Vacant Land,00 Will Jefferson Rd,Henderson,NC,27537,50000,,,Vance,,87555,,86,,,Active,,,https://www.redfin.com/NC/HENDERSON/WILL-JEFFERSON-RD-27537/home/65396278,TMLS,2407136,N,Y,36.417935,-78.411763
MLS Listing,,Multi-Family (5+ Unit),59/81 Dalton Ln,Henderson,NC,27537,99500,6,3.0,Vance,,108028,1999,89,,,Active,,,https://www.redfin.com/NC/Henderson/81-Dawlton-Cir-27537/home/65402465,TMLS,2406329,N,Y,36.421677,-78.3728122
MLS Listing,,Vacant Land,Pool Rock Rd,Henderson,NC,27537,49000,,,Vance,,49658,,105,,,Active,,,https://www.redfin.com/NC/HENDERSON/POOL-ROCK-RD-27537/home/65394739,TMLS,2403288,N,Y,36.45683,-78.404305
MLS Listing,,Single Family Residential,150 Griffith Ln,Henderson,NC,27537-6621,229000,2,2.0,Wtr Edge,1647,54014,1974,107,139,,Active,,,https://www.redfin.com/NC/Henderson/150-Griffith-Ln-27537/home/65383211,TMLS,2403149,N,Y,36.444809,-78.391637
MLS Listing,,Vacant Land,lot 12 Waterstone Ln,Henderson,NC,27537,89900,,,The Peninsula at Kerr Lake,,42688,,109,,42,Active,,,https://www.redfin.com/NC/Henderson/Lot-12-Waterstone-LN-Unknown/unit-12/home/168842189,TMLS,2402624,N,Y,36.5157259069508,-78.39641466922
MLS Listing,,Vacant Land,8 Ruin Creek Rd,Henderson,NC,27537,80000,,,Vance,,231303,,112,,,Active,,,https://www.redfin.com/NC/Henderson/8-Ruin-Creek-Rd-Unknown/home/176127702,TMLS,2401897,N,Y,36.338453,-78.445388
MLS Listing,,Single Family Residential,309 Fox Pond Rd,Henderson,NC,27537,630000,3,2.0,Vance,1824,1302444,2020,118,345,,Active,,,https://www.redfin.com/NC/Henderson/309-Fox-Pond-Rd-27537/home/65388088,TMLS,2400716,N,Y,36.322649,-78.372179
MLS Listing,,Vacant Land,00 Outrigger Ln,Henderson,NC,27537,69000,,,Taylors Pointe,,30927,,123,,,Active,,,https://www.redfin.com/NC/HENDERSON/OUTRIGGER-LN-27537/home/65394009,TMLS,2399825,N,Y,36.491108,-78.395829
MLS Listing,,Vacant Land,29 And J Ln,Middleburg,NC,27556,45000,,,Vance,,76230,,131,,,Active,,,https://www.redfin.com/NC/Middleburg/29-And-J-LN-27556/home/175864649,TMLS,2398216,N,Y,36.3987,-78.3246
MLS Listing,,Vacant Land,0 Cheeks Quarter Rd,Henderson,NC,27537,196855,,,Franklin,,612497,,135,,,Active,,,https://www.redfin.com/NC/Henderson/900-Cheeks-Quarter-Rd-27537/home/65345978,TMLS,2397569,N,Y,36.2625145,-78.2838231
MLS Listing,,Vacant Land,4450 Thomas Rd,Henderson,NC,27537,59900,,,Dockside Cove,,39204,,144,,17,Active,,,https://www.redfin.com/NC/Henderson/4450-Thomas-Rd-27537/home/65394722,TMLS,2395737,N,Y,36.465713,-78.388727
MLS Listing,,Vacant Land,0 Puddle Stone Ln,Henderson,NC,27537,19000,,,Pool Rock Plantation,,33976,,144,,,Active,,,https://www.redfin.com/NC/Henderson/1305-Pool-Rock-Rd-27537/home/44514277,TMLS,2395696,N,Y,36.454596,-78.417926
MLS Listing,,Vacant Land,136 Anchor Dr,Henderson,NC,27537,82000,,,Lakeshores Plantation,,32670,,146,,42,Active,,,https://www.redfin.com/NC/Henderson/136-Anchor-Dr-27537/home/65396330,TMLS,2395184,N,Y,36.417827,-78.406741
MLS Listing,,Vacant Land,0 Mindy Ln Lot 21,Henderson,NC,27536,20000,,,Vance,,43124,,150,,,Active,,,https://www.redfin.com/NC/Henderson/21-Mindy-Ln-27537/unit-21/home/175620488,TMLS,2394575,N,Y,36.3455467,-78.47396
MLS Listing,,Vacant Land,0 Mindy Ln Lot 16,Henderson,NC,27536,20000,,,Vance,,43603,,150,,,Active,,,https://www.redfin.com/NC/Henderson/16-Mindy-Ln-27537/unit-16/home/175620487,TMLS,2394573,N,Y,36.3458625,-78.4750264
MLS Listing,,Single Family Residential,3160 Glebe Rd,Henderson,NC,27537,525000,3,1.0,Vance,1952,5336100,1840,165,269,,Active,,,https://www.redfin.com/NC/Henderson/3160-Glebe-Rd-27537/home/65389195,TMLS,2391709,N,Y,36.390416,-78.451063
MLS Listing,,Vacant Land,23 Waterstone Ln,Henderson,NC,23927-0000,107000,,,The Peninsula at Kerr Lake,,30056,,165,,42,Active,,,https://www.redfin.com/NC/Henderson/23-Waterstone-LN-Unknown/home/175534873,TMLS,2387908,N,Y,36.5143371808048,-78.3916991870197
MLS Listing,,Vacant Land,46 Stonewood Loop Ln,Henderson,NC,23927-0000,75000,,,The Peninsula at Kerr Lake,,61855,,165,,42,Active,,,https://www.redfin.com/NC/Henderson/46-Stonewood-Loop-Ln-27537/unit-46/home/172471592,TMLS,2387892,N,Y,36.5152208,-78.3974256
MLS Listing,,Vacant Land,36 Waterstone Ln,Henderson,NC,23927-0000,129000,,,The Peninsula at Kerr Lake,,30056,,165,,42,Active,,,https://www.redfin.com/NC/Henderson/36-Waterstone-LN-Unknown/home/175534854,TMLS,2386057,N,Y,36.513372793057,-78.3904355219991
MLS Listing,,Vacant Land,22 Waterstone Ln,Henderson,NC,27537-0000,99000,,,The Peninsula at Kerr Lake,,30050,,184,,42,Active,,,https://www.redfin.com/NC/Henderson/22-Waterstone-LN-Unknown/home/175273012,TMLS,2387902,N,Y,36.5146121934776,-78.3919413041077
MLS Listing,,Single Family Residential,28 Tyler Ct,Henderson,NC,27537,799000,4,3.0,Somerset Plantation,3400,36154,2021,190,235,21,Active,,,https://www.redfin.com/NC/Henderson/28-Tyler-Ct-27537/home/175232261,TMLS,2386688,N,Y,36.4636312,-78.3954327
MLS Listing,,Vacant Land,24 Waterstone Ln,Henderson,NC,27537-0000,114000,,,The Peninsula at Kerr Lake,,30050,,192,,42,Active,,,https://www.redfin.com/NC/Henderson/24-Waterstone-LN-Unknown/home/175215384,TMLS,2386367,N,Y,36.5142524434185,-78.3913255325691
MLS Listing,,Vacant Land,34 Waterstone Ln,Henderson,NC,27537,200000,,,The Peninsula at Kerr Lake,,30004,,192,,42,Active,,,https://www.redfin.com/NC/Henderson/34-Waterstone-LN-27536/home/175226896,TMLS,2386291,N,Y,36.513726820269,-78.3895742054291
MLS Listing,,Vacant Land,33 Waterstone Ln,Henderson,NC,27537,200000,,,The Peninsula at Kerr Lake,,30000,,192,,42,Active,,,https://www.redfin.com/NC/Henderson/33-Waterstone-LN-Unknown/home/175227148,TMLS,2386278,N,Y,36.5139340911171,-78.3891323677063
MLS Listing,,Vacant Land,32 Waterstone Ln,Henderson,NC,27537,200000,,,The Peninsula at Kerr Lake,,30810,,192,,42,Active,,,https://www.redfin.com/NC/Henderson/32-Waterstone-LN-Unknown/home/175227076,TMLS,2386276,N,Y,36.5139340911172,-78.3891967407227
MLS Listing,,Vacant Land,26 Waterstone Ln,Henderson,NC,27537-0000,119000,,,The Peninsula at Kerr Lake,,30050,,193,,42,Active,,,https://www.redfin.com/NC/Henderson/26-Waterstone-LN-Unknown/home/175201986,TMLS,2386087,N,Y,36.5140872253304,-78.39052673823
MLS Listing,,Vacant Land,Lot 47 Sb Harrison Ln,Henderson,NC,27537,249000,,,Somerset Plantation,,174240,,200,,,Active,,,https://www.redfin.com/NC/Henderson/47-S-B-Harrison-Ln-27537/home/175160339,TMLS,2384815,N,Y,36.4647444,-78.3932932
MLS Listing,,Vacant Land,00 Spring Valley Rd,Henderson,NC,27536,21500,,,Vance,,58806,,204,,,Active,,,https://www.redfin.com/NC/Henderson/955-Spring-Valley-Rd-27537/home/65392756,TMLS,2384097,N,Y,36.3609842,-78.3922337
MLS Listing,,Vacant Land,57.7 Acres Spring Valley Rd,Henderson,NC,27537,369900,,,Vance,,2482920,,206,,,Active,,,https://www.redfin.com/NC/Henderson/57-7-Acres-Spring-Valley-Rd-27537/home/175119821,TMLS,2383695,N,Y,36.3630764440031,-78.3920720687866
MLS Listing,,Vacant Land,Lot 22 Willow Creek Run,Henderson,NC,27537,14000,,,Willow Creek Run,,68389,,216,,,Active,,,https://www.redfin.com/NC/Henderson/22-Willow-Creek-Run-27537/unit-22/home/59403577,TMLS,2381572,N,Y,36.3688737,-78.4500083
MLS Listing,,Vacant Land,LOT 83 Pheasant Ln Key Estates,Henderson,NC,27537,14000,,,Key Estates,,66211,,216,,,Active,,,https://www.redfin.com/NC/Henderson/LOT-83-Pheasant-LN-Unknown/unit-Estates/home/171439904,TMLS,2381486,N,Y,36.4351857369627,-78.4264797592469
MLS Listing,,Vacant Land,00 Canoe Dr,Mill Spring,NC,28756,127900,,,Lake Adger,,48351,,227,,83,Active,,,https://www.redfin.com/NC/Unknown/CANOE-DR-Unknown/home/65394339,CANOPYMLS,3732082,N,Y,36.45618,-78.41161
MLS Listing,,Vacant Land,000 Dabney Rd,Henderson,NC,27537,175000,,,Vance,,1089000,,254,,,Active,,,https://www.redfin.com/NC/HENDERSON/DABNEY-RD-27537/home/65397134,TMLS,2374374,N,Y,36.354326,-78.495252
MLS Listing,,Vacant Land,000 Fred Royster Rd,Henderson,NC,27537,32500,,,Vance,,333234,,265,,,Active,,,https://www.redfin.com/NC/Henderson/700-Fred-Royster-Rd-27537/home/65389833,TMLS,2372250,N,Y,36.375952,-78.4853727
MLS Listing,,Vacant Land,Lot 9 Waterstone Ln,Henderson,NC,27537,49000,,,The Peninsula at Kerr Lake,,42253,,271,,,Active,,,https://www.redfin.com/NC/Henderson/Lot-9-Waterstone-LN-Unknown/unit-9/home/168838359,TMLS,2371115,N,Y,36.5156953192198,-78.3968464178597
MLS Listing,,Vacant Land,000 Hicksboro Rd,Henderson,NC,27537,28000,,,Nottingham,,230432,,274,,,Active,,,https://www.redfin.com/NC/Henderson/739-Hicksboro-Rd-27537/home/65397615,TMLS,2370669,N,Y,36.360384,-78.462202
MLS Listing,,Vacant Land,5429 Us 158 Business Hwy,Henderson,NC,27537,400000,,,Fuller Farms,,1524600,,289,,,Active,,,https://www.redfin.com/NC/Henderson/5429-U-S-158-Business-27537/home/174465982,TMLS,2367726,N,Y,36.306649,-78.4780582
MLS Listing,,Vacant Land,0 Burnside Rd,Henderson,NC,27537,549000,,,Vance,,9565776,,296,,,Active,,,https://www.redfin.com/NC/HENDERSON/BURNSIDE-RD-27537/home/65383568,TMLS,2366525,N,Y,36.430854,-78.462768
MLS Listing,,Vacant Land,Lot 1 Waterstone Ln,Henderson,NC,27537,24900,,,The Peninsula at Kerr Lake,,80150,,305,,,Active,,,https://www.redfin.com/NC/Henderson/Lot-1-Waterstone-LN-Unknown/unit-1/home/168838395,TMLS,2364730,N,Y,36.5164745379754,-78.3983344866944
MLS Listing,,Vacant Land,Lot #2 Waterstone Ln,Henderson,NC,27537,39900,,,The Peninsula at Kerr Lake,,64207,,317,,,Active,,,https://www.redfin.com/NC/Henderson/Lot-2-Waterstone-LN-Unknown/home/174264348,TMLS,2362907,N,Y,36.516356738833,-78.3990162168579
MLS Listing,,Vacant Land,0000 Old County Home Rd,Henderson,NC,27537,11000,,,Vance,,67518,,380,,,Active,,,https://www.redfin.com/NC/HENDERSON/OLD-COUNTY-HOME-RD-27537/home/65398490,TMLS,2354762,N,Y,36.284082,-78.434222
MLS Listing,,Vacant Land,Lot 5 Waterstone Ln,Henderson,NC,27537,55000,,,The Peninsula at Kerr Lake,,48700,,431,,500,Active,,,https://www.redfin.com/NC/Henderson/Lot-5-Waterstone-LN-Unknown/unit-5/home/168838363,TMLS,2345592,N,Y,36.4469755935661,-78.4025256481018
MLS Listing,,Vacant Land,40 Anchor Dr,Henderson,NC,27537,32900,,,Lakeshores Plantation,,30491,,478,,850,Active,,,https://www.redfin.com/NC/Henderson/40-Anchor-Dr-27537/home/65396328,TMLS,2337228,N,Y,36.418926,-78.406303
MLS Listing,,Vacant Land,1873 Cheatham Mabry Rd,Henderson,NC,27537,15000,,,Vance,,32670,,500,,,Active,,,https://www.redfin.com/NC/Henderson/1873-Cheatham-Mabry-Rd-27537/home/65400468,TMLS,2332754,N,Y,36.320209,-78.280705
MLS Listing,,Vacant Land,60 White Deer Ln,Henderson,NC,27537,49000,,,Taylor Pointe,,21780,,508,,,Active,,,https://www.redfin.com/NC/Henderson/60-White-Deer-Ln-27537/home/166902815,TMLS,2331009,N,Y,36.4902058,-78.3939003
MLS Listing,,Vacant Land,0 Hacienda Ln,Henderson,NC,27537,17500,,,Mettrey Estates,,49222,,605,,,Active,,,https://www.redfin.com/NC/Sandy-Creek/N-Hacienda-Ln-27537/home/171299579,TMLS,2312870,N,Y,36.2457046440731,-78.3479695208597
MLS Listing,,Vacant Land,27 & 28 Friendly Ln,Henderson,NC,27537,15000,,,South Ashland Hills,,20157,,614,,,Active,,,https://www.redfin.com/NC/Henderson/28-Friendly-Ln-27537/unit-28/home/59398897,TMLS,2311212,N,Y,36.420371,-78.3749402
MLS Listing,,Vacant Land,848 Parrott Rd,Henderson,NC,27537,790000,,,Vance,,7470540,,645,,,Active,,,https://www.redfin.com/NC/Henderson/462-Boyd-Ln-27537/home/65397397,TMLS,2304778,N,Y,36.327875,-78.467402
MLS Listing,,Vacant Land,Lot 7 Plum Nutty Rd,Henderson,NC,27537,21900,,,Vance,,52315,,769,,,Active,,,https://www.redfin.com/NC/Henderson/7-Plum-Nutty-Rd-27537/home/147840980,TMLS,2286118,N,Y,36.4733909,-78.4137753
MLS Listing,,Vacant Land,Lot 2 Plum Nutty Rd,Henderson,NC,27537,21000,,,Vance,,49397,,769,,,Active,,,https://www.redfin.com/NC/Henderson/2-Plum-Nutty-Rd-27537/home/147840067,TMLS,2286107,N,Y,36.473292,-78.4135295
MLS Listing,,Vacant Land,Lot 1 Plum Nutty Rd,Henderson,NC,27537,21000,,,Vance,,48351,,769,,,Active,,,https://www.redfin.com/NC/Henderson/1-Plum-Nutty-Rd-27537/unit-PB-Y-Page-865/home/144801659,TMLS,2286105,N,Y,36.47697,-78.4257
MLS Listing,,Vacant Land,Lot 3 Kings Rd,Henderson,NC,27537,5000,,,Vance,,16335,,870,,,Active,,,https://www.redfin.com/NC/Henderson/3-Kings-Rd-27537/home/167694782,TMLS,2268259,N,Y,36.3618973,-78.4169557
MLS Listing,,Vacant Land,Lot 1 Kings Rd,Henderson,NC,26537,7500,,,Vance,,13939,,870,,,Active,,,https://www.redfin.com/NC/Henderson/1-Kings-Rd-27537/home/167693693,TMLS,2268240,N,Y,36.3618899,-78.4169555
MLS Listing,,Vacant Land,Lot 53 Stonewood Loop Ln,Henderson,NC,27537,65000,,,The Peninsula at Kerr Lake,,67518,,920,,,Active,,,https://www.redfin.com/NC/Henderson/53-Stonewood-Loop-Ln-27537/unit-53/home/172471602,TMLS,2243585,N,Y,36.5152208,-78.3974256
MLS Listing,,Vacant Land,Lot 37 Waterstone Ln,Henderson,NC,27537,119000,,,The Peninsula at Kerr Lake,,35283,,920,,,Active,,,https://www.redfin.com/NC/Henderson/Lot-37-Waterstone-LN-Unknown/home/166902804,TMLS,2243583,N,Y,36.518305,-78.408398
MLS Listing,,Vacant Land,Lot 73 Waterstone Ln,Henderson,NC,27537,38000,,,The Peninsula at Kerr Lake,,53143,,920,,58,Active,,,https://www.redfin.com/NC/Henderson/Lot-73-Waterstone-LN-Unknown/home/166902684,TMLS,2199983,N,Y,36.5183127344672,-78.4079477116394
MLS Listing,,Vacant Land,00 Strawberry Ln #26,Henderson,NC,27537,28500,,,Ru Lon Estates,,62290,,3042,,,Active,,,https://www.redfin.com/NC/Henderson/26-Strawberry-Ln-27537/unit-26/home/85195030,TMLS,1905163,N,Y,36.4007373,-78.3734542
