SALE TYPE,SOLD DATE,PROPERTY TYPE,ADDRESS,CITY,STATE OR PROVINCE,ZIP OR POSTAL CODE,PRICE,BEDS,BATHS,LOCATION,SQUARE FEET,LOT SIZE,YEAR BUILT,DAYS ON MARKET,$/SQUARE FEET,HOA/MONTH,STATUS,NEXT OPEN HOUSE START TIME,NEXT OPEN HOUSE END TIME,URL (SEE https://www.redfin.com/buy-a-home/comparative-market-analysis FOR INFO ON PRICING),SOURCE,MLS#,FAVORITE,INTERESTED,LATITUDE,LONGITUDE
MLS Listing,,Vacant Land,000 Pulliam St,Marion,NC,28752,128000,,,Marion,,27442,,3,,,Active,,,https://www.redfin.com/NC/MARION/PULLIUM-ST-28752/home/112566197,CANOPYMLS,3810476,N,Y,35.682385,-82.013088
MLS Listing,,Vacant Land,601 Hill Top Dr,Marion,NC,28752,125000,,,Marion,,357627,,16,,,Active,,,https://www.redfin.com/NC/Marion/601-Hilltop-Dr-28752/home/112552332,CANOPYMLS,3807784,N,Y,35.6745831,-82.0257825
MLS Listing,,Single Family Residential,150 Forest Rd,Marion,NC,28752,699900,4,3.5,Marion,4205,200375,1954,16,166,,Active,,,https://www.redfin.com/NC/Marion/150-Forest-Rd-28752/home/176742399,CANOPYMLS,3807447,N,Y,35.6862977,-82.0158283
MLS Listing,,Vacant Land,0 Devin Ridge Ln Unit 5.69 ac,Marion,NC,28752,699000,,,Queens Gap,,247856,,19,,50,Active,,,https://www.redfin.com/NC/Marion/569-Yancey-Ridge-Ln-28752/unit-569-ac/home/177207202,CANOPYMLS,3806490,N,Y,35.7002757,-82.0128053
MLS Listing,,Single Family Residential,188 Miller Ave,Marion,NC,28752,139900,2,1.0,Marion,1016,4356,1930,24,138,,Active,,,https://www.redfin.com/NC/Marion/188-Miller-Ave-28752/home/112552914,CANOPYMLS,3803226,N,Y,35.6825221,-81.9994744
MLS Listing,,Vacant Land,"0 Cheyenne Dr Unit 18, 19",Marion,NC,28752,23000,,,Idlewood,,50965,,47,,,Active,,,https://www.redfin.com/NC/Marion/1500-N-Main-St-28752/unit-18-19/home/171852019,CANOPYMLS,3797558,N,Y,35.6993921,-82.0258188
MLS Listing,,Vacant Land,129 West Lake Rd #31,Marion,NC,28752,34900,,,Lakewood,,43560,,60,,38,Active,,,https://www.redfin.com/NC/Marion/129-W-Lake-Rd-28752/unit-31/home/176656558,CANOPYMLS,3793758,N,Y,35.700883,-82.006384
MLS Listing,,Single Family Residential,54 Washington St,Marion,NC,28752,85500,2,1.0,Marion,920,7840,1900,62,93,,Active,,,https://www.redfin.com/NC/Marion/54-Washington-St-28752/home/176620315,CANOPYMLS,3792357,N,Y,35.6805029,-81.9991719
MLS Listing,,Single Family Residential,0 E View St,Marion,NC,28752,90000,,,Marion,,56628,,72,,,Active,,,https://www.redfin.com/NC/MARION/VIEW-DR-28752/home/112614181,CANOPYMLS,3789262,N,Y,35.701798,-82.029987
MLS Listing,,Single Family Residential,80 Carolina Ave,Marion,NC,28752,198000,3,2.0,Marion,1696,8712,1965,72,117,,Active,,,https://www.redfin.com/NC/Marion/80-Carolina-Ave-28752/home/112572861,CANOPYMLS,3787473,N,Y,35.692723,-81.9885658
MLS Listing,,Vacant Land,800 N Main St,Marion,NC,28752,499000,,,Marion,,575427,,76,,,Active,,,https://www.redfin.com/NC/Marion/800-N-Main-St-28752/home/172261846,CANOPYMLS,3787160,N,Y,35.6908792,-82.0196158
MLS Listing,,Single Family Residential,564 Maple Ave,Marion,NC,28762,39000,3,1.0,Marion,,6098,1950,82,,,Active,,,https://www.redfin.com/NC/Old-Fort/564-Maple-Dr-28762/home/112572976,CANOPYMLS,3786198,N,Y,35.688746,-82.002658
MLS Listing,,Single Family Residential,456 Reservoir Rd,Marion,NC,28752,139000,2,1.0,Marion,940,871,1932,90,148,,Active,,,https://www.redfin.com/NC/Marion/456-Reservoir-Rd-28752/home/176324836,CANOPYMLS,3783014,N,Y,35.6851469,-82.0227621
MLS Listing,,Single Family Residential,74 W Henderson Cir,Marion,NC,28752,174900,3,1.0,Marion,1134,7840,1961,102,154,,Active,,,https://www.redfin.com/NC/Marion/74-W-Henderson-St-28752/home/112549200,CANOPYMLS,3779278,N,Y,35.671128,-82.018854
MLS Listing,,Vacant Land,882 N Main St,Marion,NC,28752,462000,,,Marion,,479160,,107,,,Active,,,https://www.redfin.com/NC/Marion/882-N-Main-St-28752/home/176166151,CANOPYMLS,3777592,N,Y,35.6922984,-82.021827
MLS Listing,,Vacant Land,Lot #38 Cove Forest Rd #38,Marion,NC,28752,28000,,,Lakewood,,108900,,112,,38,Active,,,https://www.redfin.com/NC/Marion/Lot-38-Cove-Forest-Rd-28752/unit-38/home/176127799,CANOPYMLS,3774423,N,Y,35.701921,-82.007411
MLS Listing,,Vacant Land,Lot #4 Miller Ave #4,Marion,NC,28752,28000,,,Marion,,16552,,159,,,Active,,,https://www.redfin.com/NC/Marion/600-Miller-Ave-28752/home/112586112,CANOPYMLS,3756576,N,Y,35.6822231,-81.9953857
MLS Listing,,Vacant Land,N/A Seagle St,Marion,NC,28752,12000,,,Marion,,13939,,167,,,Active,,,https://www.redfin.com/NC/Marion/N-A-Seagle-St-28752/home/175518911,CANOPYMLS,3753810,N,Y,35.692303,-81.984351
MLS Listing,,Vacant Land,0000 Forest Country Dr #34,Marion,NC,28752,28000,,,Forest Heights,,77101,,195,,38,Active,,,https://www.redfin.com/NC/Marion/34-Forest-Heights-Dr-28752/unit-34/home/161240582,CANOPYMLS,3743393,N,Y,35.6761571,-82.00935
MLS Listing,,Vacant Land,13 James View Rd #13,Marion,NC,28752,48000,,,Lakewood,,174240,,244,,38,Active,,,https://www.redfin.com/NC/Marion/13-Hill-Rd-28752/unit-13/home/145307560,CANOPYMLS,3725648,N,Y,35.6978619,-81.9975117
MLS Listing,,Vacant Land,V/L Cove Forest Rd #35,Marion,NC,28752,22900,,,Lakewood,,87991,,246,,33,Active,,,https://www.redfin.com/NC/Marion/V-L-Cove-Forest-Rd-28752/unit-35/home/174867284,CANOPYMLS,3725306,N,Y,35.701028,-82.008246
