SALE TYPE,SOLD DATE,PROPERTY TYPE,ADDRESS,CITY,STATE OR PROVINCE,ZIP OR POSTAL CODE,PRICE,BEDS,BATHS,LOCATION,SQUARE FEET,LOT SIZE,YEAR BUILT,DAYS ON MARKET,$/SQUARE FEET,HOA/MONTH,STATUS,NEXT OPEN HOUSE START TIME,NEXT OPEN HOUSE END TIME,URL (SEE https://www.redfin.com/buy-a-home/comparative-market-analysis FOR INFO ON PRICING),SOURCE,MLS#,FAVORITE,INTERESTED,LATITUDE,LONGITUDE
PAST SALE,February-16-2021,Townhouse,5601 Gosling Dr,Clifton,VA,20124,484000,3,2.5,CENTREVILLE GREEN BGAR,1352,2400,1991,291,358,100,Sold,,,https://www.redfin.com/VA/Clifton/5601-Gosling-Dr-20124/home/9603563,BRIGHT MLS,VAFX1174326,N,Y,38.8376231,-77.413122
PAST SALE,March-29-2021,Condo/Co-op,5869 Orchard Hill Ln,Clifton,VA,20124,225000,1,1.0,THE PONDS AT CENTREVILLE,831,,1989,250,271,300,Sold,,,https://www.redfin.com/VA/Clifton/5869-Orchard-Hill-Ln-20124/home/9684136,BRIGHT MLS,VAFX1183780,N,Y,38.83212,-77.415781
PAST SALE,July-9-2019,Single Family Residential,6525 Rockland Dr,Clifton,VA,20124,686000,4,3.5,LITTLE ROCKY RUN,3836,12451,1989,879,179,81,Sold,,,https://www.redfin.com/VA/Clifton/6525-Rockland-Dr-20124/home/9680326,BRIGHT MLS,VAFX1063796,N,Y,38.814425,-77.4265613
PAST SALE,June-2-2021,Single Family Residential,13310 Sturno Dr,Clifton,VA,20124,950000,5,4.5,CLIFTON PINES,5505,12505,1997,185,173,100,Sold,,,https://www.redfin.com/VA/Clifton/13310-Sturno-Dr-20124/home/9684709,BRIGHT MLS,VAFX1196830,N,Y,38.8324463,-77.4092547
PAST SALE,May-14-2021,Single Family Residential,12908 Yates Ford Rd,Clifton,VA,20124,790000,4,2.5,PROPERTY OF A FRANK KRAU,2750,91128,1978,204,287,,Sold,,,https://www.redfin.com/VA/Clifton/12908-Yates-Ford-Rd-20124/home/9764296,BRIGHT MLS,VAFX1184368,N,Y,38.7690294,-77.3936497
PAST SALE,November-4-2021,Single Family Residential,13745 Balmoral Greens Ave,Clifton,VA,20124,1200000,4,4.5,BALMORAL GREENS,5200,64129,1997,30,231,48,Sold,,,https://www.redfin.com/VA/Clifton/13745-Balmoral-Greens-Ave-20124/home/9725146,BRIGHT MLS,VAFX2022004,N,Y,38.7854277,-77.4292512
PAST SALE,June-30-2021,Single Family Residential,12604 Harper Dr,Fairfax,VA,22030,560000,3,2.0,THIRD ADDITION TO VANNOY,1900,21782,1964,157,295,,Sold,,,https://www.redfin.com/VA/Fairfax/12604-Harper-Dr-22030/home/9686057,BRIGHT MLS,VAFX1201294,N,Y,38.8184144,-77.3820342
PAST SALE,February-26-2021,Townhouse,13532 Canada Goose Ct,Clifton,VA,20124,475000,4,3.5,CENTREVILLE GREEN,2201,1650,1993,281,216,,Sold,,,https://www.redfin.com/VA/Clifton/13532-Canada-Goose-Ct-20124/home/9602990,BRIGHT MLS,VAFX1173826,N,Y,38.8371615,-77.4153414
PAST SALE,November-4-2020,Townhouse,5716 Harrier Dr,Clifton,VA,20124,379000,2,2.0,PT CENTREVILLE GREEN,1488,1200,1991,395,255,100,Sold,,,https://www.redfin.com/VA/Clifton/5716-Harrier-Dr-20124/home/9603403,BRIGHT MLS,VAFX1158632,N,Y,38.8344591,-77.4151733
PAST SALE,September-29-2021,Single Family Residential,12715 Yates Ford Rd,Clifton,VA,20124,1370000,5,6.5,MILL BRANCH,7900,217844,1995,66,173,75,Sold,,,https://www.redfin.com/VA/Clifton/12715-Yates-Ford-Rd-20124/home/9764324,BRIGHT MLS,VAFX2009904,N,Y,38.7686735,-77.3821015
PAST SALE,August-3-2021,Single Family Residential,6455 Springhouse Cir,Clifton,VA,20124,735000,4,2.5,LITTLE ROCKY RUN,2852,9200,1989,123,258,98,Sold,,,https://www.redfin.com/VA/Clifton/6455-Springhouse-Cir-20124/home/9682574,BRIGHT MLS,VAFX2005226,N,Y,38.8183339,-77.4258888
PAST SALE,January-15-2021,Single Family Residential,6732 Rock Brook Dr,Clifton,VA,20124,710000,4,2.5,LITTLE ROCKY RUN,2833,10440,1994,323,251,95,Sold,,,https://www.redfin.com/VA/Clifton/6732-Rock-Brook-Dr-20124/home/9683239,BRIGHT MLS,VAFX1166216,N,Y,38.8086384,-77.4262474
PAST SALE,September-26-2019,Townhouse,5676 Gosling Dr,Clifton,VA,20124,415000,3,3.5,CENTREVILLE GREEN,2065,2250,1992,800,201,100,Sold,,,https://www.redfin.com/VA/Clifton/5676-Gosling-Dr-20124/home/9603089,BRIGHT MLS,VAFX1073596,N,Y,38.8362823,-77.4151201
PAST SALE,April-25-2019,Condo/Co-op,13513 Orchard Dr #3513,Clifton,VA,20124,220000,2,1.0,PONDS AT CENTREVILLE,889,,1989,954,247,296,Sold,,,https://www.redfin.com/VA/Clifton/13513-Orchard-Dr-20124/unit-3513/home/9684152,BRIGHT MLS,VAFX996726,N,Y,38.8322239,-77.414979
PAST SALE,April-11-2019,Single Family Residential,5912 Pocol Dr,Clifton,VA,20124,715000,4,3.5,VANNOY PARK,4789,21781,1989,968,149,,Sold,,,https://www.redfin.com/VA/Clifton/5912-Pocol-Dr-20124/home/9686039,BRIGHT MLS,VAFX747214,N,Y,38.8168095,-77.3824379
PAST SALE,January-7-2021,Single Family Residential,6303 Oak Stone Ct,Clifton,VA,20124,920000,4,3.5,LITTLE ROCKY RUN,4364,41162,1993,331,211,95,Sold,,,https://www.redfin.com/VA/Clifton/6303-Oak-Stone-Ct-20124/home/9685891,BRIGHT MLS,VAFX1166744,N,Y,38.8156071,-77.415263
PAST SALE,July-7-2021,Condo/Co-op,5818 Orchard Hill Ln,Clifton,VA,20124,293111,2,2.0,THE PONDS AT CENTREVILLE,1012,,1989,150,290,365,Sold,,,https://www.redfin.com/VA/Clifton/5818-Orchard-Hill-Ln-20124/home/9675490,BRIGHT MLS,VAFX1207020,N,Y,38.831508,-77.41722
PAST SALE,May-29-2020,Townhouse,13679 Wildflower Ln,Clifton,VA,20124,411000,3,3.0,SEQOIA LEA,1288,1279,1987,554,319,91,Sold,,,https://www.redfin.com/VA/Clifton/13679-Wildflower-Ln-20124/home/9672706,BRIGHT MLS,VAFX1123804,N,Y,38.828542,-77.4176729
PAST SALE,November-2-2020,Single Family Residential,5500 Hampton Forest Way,Fairfax,VA,22030,710000,4,2.5,HAMPTON FOREST,2385,14250,1984,397,298,32,Sold,,,https://www.redfin.com/VA/Fairfax/5500-Hampton-Forest-Way-22030/home/9606810,BRIGHT MLS,VAFX1158008,N,Y,38.8347293,-77.3951744
MLS Listing,,Single Family Residential,6511 Rockland Dr,Clifton,VA,20124,950000,5,4.5,LITTLE ROCKY RUN,4930,9675,1989,2,193,98,Active,December-5-2021 01:00 PM,December-5-2021 03:00 PM,https://www.redfin.com/VA/Clifton/6511-Rockland-Dr-20124/home/9680341,BRIGHT MLS,VAFX2032486,N,Y,38.8137469,-77.4247679
MLS Listing,,Single Family Residential,13648 Balmoral Greens Ave,Clifton,VA,20124,1199900,5,4.0,BALMORAL GREENS,5021,38822,1999,2,239,48,Active,December-5-2021 02:00 PM,December-5-2021 04:00 PM,https://www.redfin.com/VA/Clifton/13648-Balmoral-Greens-Ave-20124/home/9725212,BRIGHT MLS,VAFX2032354,N,Y,38.7855701,-77.417998
MLS Listing,,Single Family Residential,12206 Henderson Rd,Clifton,VA,20124,3495000,6,9.0,ANISA AND MASLAHUDDIN DU,7284,287409,2006,4,480,,Active,,,https://www.redfin.com/VA/Clifton/12206-Henderson-Rd-20124/home/17113685,BRIGHT MLS,VAFX2032352,N,Y,38.7439956,-77.3684665
MLS Listing,,Condo/Co-op,13625 Orchard Dr,Clifton,VA,20124,335000,2,2.0,THE PONDS AT CENTREVILLE,1012,,1989,4,331,365,Active,,,https://www.redfin.com/VA/Clifton/13625-Orchard-Dr-20124/home/9684275,BRIGHT MLS,VAFX2032508,N,Y,38.830794,-77.414375
MLS Listing,,Vacant Land,13530 Compton Rd,Clifton,VA,20124,639900,,,KEENER PROPERTIES LLC,,219196,,12,,,Active,,,https://www.redfin.com/VA/Clifton/13530-Compton-Rd-20124/home/177305998,BRIGHT MLS,VAFX2028328,N,Y,38.8018389,-77.4149563
MLS Listing,,Vacant Land,5731 Doyle Rd,Clifton,VA,20124,588000,,,BRADDOCK WOODS,,220936,,13,,,Active,,,https://www.redfin.com/VA/Clifton/5731-Doyle-Rd-20124/home/143769856,BRIGHT MLS,VAFX2031704,N,Y,38.825738,-77.391546
MLS Listing,,Single Family Residential,12637 Chapel Rd,Clifton,VA,20124,749999,4,3.0,CLIFTON,2055,6750,1925,16,365,,Active,,,https://www.redfin.com/VA/Clifton/12637-Chapel-Rd-20124/home/9725629,BRIGHT MLS,VAFX2030996,N,Y,38.7813228,-77.383873
MLS Listing,,Single Family Residential,7404 Maple Branch Rd,Clifton,VA,20124,1100000,4,2.5,CLIFTON WOODS,3254,249085,1976,32,338,,Active,December-5-2021 02:00 PM,December-5-2021 04:00 PM,https://www.redfin.com/VA/Clifton/7404-Maple-Branch-Rd-20124/home/9764590,BRIGHT MLS,VAFX2028972,N,Y,38.7652506,-77.369386
MLS Listing,,Vacant Land,5753 Old Clifton Rd,Clifton,VA,20124,600000,,,WILLOW SPRING,,24317,,60,,,Active,,,https://www.redfin.com/VA/Clifton/5753-Old-Clifton-Rd-20124/home/162492402,BRIGHT MLS,VAFX2026036,N,Y,38.83077,-77.410648
MLS Listing,,Single Family Residential,6648 Rockland Dr,Clifton,VA,20124,715000,4,3.0,LITTLE ROCKY RUN,2458,10141,1988,65,291,98,Active,,,https://www.redfin.com/VA/Clifton/6648-Rockland-Dr-20124/home/9680636,BRIGHT MLS,VAFX2023616,N,Y,38.8112736,-77.4245886
MLS Listing,,Single Family Residential,12701 Dunvegan Dr,Clifton,VA,20124,2295000,5,6.0,GLENCAIRN,9452,227679,1989,177,243,225,Active,,,https://www.redfin.com/VA/Clifton/12701-Dunvegan-Dr-20124/home/143722456,BRIGHT MLS,VAFX1206444,N,Y,38.7717755,-77.3851327
MLS Listing,,Single Family Residential,6901-6903 Clifton Rd,Clifton,VA,20124,2500000,6,8.0,CLIFTON HILL,12796,435600,1991,210,195,5,Active,,,https://www.redfin.com/VA/Clifton/6901-Clifton-Rd-20124/home/9725548,BRIGHT MLS,VAFX1199056,N,Y,38.7902715,-77.3897257
MLS Listing,,Vacant Land,12636 Mill Dam Dr,Clifton,VA,20124,574900,,,MILL BRANCH,,217813,,261,,75,Active,,,https://www.redfin.com/VA/Clifton/12636-Mill-Dam-Dr-20124/home/162520999,BRIGHT MLS,VAFX1185194,N,Y,38.762915,-77.3798429
MLS Listing,,Single Family Residential,12792 Yates Ford Rd,Clifton,VA,20124,4750000,7,10.5,HOOVER PROPERTY,16600,245387,2005,411,286,,Active,,,https://www.redfin.com/VA/Clifton/12792-Yates-Ford-Rd-20124/home/9852688,BRIGHT MLS,VAFX1157502,N,Y,38.7693561,-77.3861379
PAST SALE,September-14-2020,Single Family Residential,13605 S Springs Ct,Clifton,VA,20124,737500,4,3.0,LITTLE ROCKY RUN,3356,11035,1988,446,220,95,Sold,,,https://www.redfin.com/VA/Clifton/13605-S-Springs-Ct-20124/home/9682217,BRIGHT MLS,VAFX1145344,N,Y,38.8175675,-77.4218089
PAST SALE,April-1-2021,Single Family Residential,6322 S Springs Cir,Clifton,VA,20124,710000,3,2.5,LITTLE ROCKY RUN,2344,10683,1988,247,303,81,Sold,,,https://www.redfin.com/VA/Clifton/6322-S-Springs-Cir-20124/home/9682194,BRIGHT MLS,VAFX1181358,N,Y,38.8187268,-77.4224814
PAST SALE,March-15-2019,Single Family Residential,13951 Stonefield Dr,Clifton,VA,20124,612000,4,2.5,LITTLE ROCKY RUN,2394,9342,1988,995,256,77,Sold,,,https://www.redfin.com/VA/Clifton/13951-Stonefield-Dr-20124/home/9680851,BRIGHT MLS,VAFX993312,N,Y,38.8101431,-77.4289822
PAST SALE,March-27-2020,Single Family Residential,13665 South Springs Dr,Clifton,VA,20124,685000,5,3.5,LITTLE ROCKY RUN,2838,10526,1988,617,241,81,Sold,,,https://www.redfin.com/VA/Clifton/13665-S-Springs-Dr-20124/home/9682188,BRIGHT MLS,VAFX1109838,N,Y,38.8189637,-77.4217828
PAST SALE,February-11-2021,Single Family Residential,11801 Chapel Rd,Clifton,VA,20124,1160000,4,5.0,WALNUT ACRES,4863,221620,1995,296,239,,Sold,,,https://www.redfin.com/VA/Clifton/11801-Chapel-Rd-20124/home/9726291,BRIGHT MLS,VAFX1171438,N,Y,38.7785283,-77.3542506
PAST SALE,July-31-2020,Single Family Residential,12794 Yates Ford Rd,Clifton,VA,20124,1590000,6,6.5,HOOVER PROPERTY,10237,274162,2006,491,155,,Sold,,,https://www.redfin.com/VA/Clifton/12794-Yates-Ford-Rd-20124/home/17113332,BRIGHT MLS,VAFX1136474,N,Y,38.7703752,-77.3851512
PAST SALE,October-23-2020,Single Family Residential,6547 Rockland Dr,Clifton,VA,20124,715000,3,3.5,LITTLE ROCKY RUN,3692,15679,1987,407,194,104,Sold,,,https://www.redfin.com/VA/Clifton/6547-Rockland-Dr-20124/home/9680281,BRIGHT MLS,VAFX1154538,N,Y,38.8165566,-77.4250818
PAST SALE,April-29-2020,Single Family Residential,13638 Melstone Dr,Clifton,VA,20124,835000,4,4.0,LITTLE ROCKY RUN,4744,11382,1989,584,176,94,Sold,,,https://www.redfin.com/VA/Clifton/13638-Melstone-Dr-20124/home/9682075,BRIGHT MLS,VAFX1119618,N,Y,38.8165831,-77.4183118
PAST SALE,July-19-2019,Single Family Residential,13636 Melstone Dr,Clifton,VA,20124,725000,4,3.5,LITTLE ROCKY RUN,4438,10986,1989,869,163,81,Sold,,,https://www.redfin.com/VA/Clifton/13636-Melstone-Dr-20124/home/9682073,BRIGHT MLS,VAFX1068116,N,Y,38.8164026,-77.4181325
PAST SALE,March-25-2019,Single Family Residential,6687 Stonebrook Dr,Clifton,VA,20124,600000,4,3.5,LITTLE ROCKY RUN,3194,9286,1988,985,188,77,Sold,,,https://www.redfin.com/VA/Clifton/6687-Stonebrook-Dr-20124/home/9680736,BRIGHT MLS,VAFX991718,N,Y,38.8112262,-77.4252611
PAST SALE,April-5-2019,Single Family Residential,13933 Marblestone Dr,Clifton,VA,20124,665000,4,3.5,LITTLE ROCKY RUN,3112,9678,1988,974,214,77,Sold,,,https://www.redfin.com/VA/Clifton/13933-Marblestone-Dr-20124/home/9681128,BRIGHT MLS,VAFX992516,N,Y,38.8133236,-77.4297443
PAST SALE,March-24-2020,Single Family Residential,14043 Compton Heights Ct,Clifton,VA,20124,705000,4,3.5,COMPTON HEIGHTS,3308,9482,1991,620,213,47,Sold,,,https://www.redfin.com/VA/Clifton/14043-Compton-Heights-Ct-20124/home/9682747,BRIGHT MLS,VAFX1113752,N,Y,38.8065413,-77.4339583
PAST SALE,October-2-2020,Single Family Residential,6411 Springhouse Cir,Clifton,VA,20124,753000,4,3.5,LITTLE ROCKY RUN,2933,8500,1988,428,257,95,Sold,,,https://www.redfin.com/VA/Clifton/6411-Springhouse-Cir-20124/home/9682600,BRIGHT MLS,VAFX1143250,N,Y,38.8192992,-77.4258888
PAST SALE,September-24-2020,Single Family Residential,13915 Marblestone Dr,Clifton,VA,20124,740000,4,2.5,LITTLE ROCKY RUN,4034,8613,1987,436,183,95,Sold,,,https://www.redfin.com/VA/Clifton/13915-Marblestone-Dr-20124/home/9681112,BRIGHT MLS,VAFX1142358,N,Y,38.8134177,-77.427839
PAST SALE,May-20-2019,Single Family Residential,6502 Rock Crystal Dr,Clifton,VA,20124,689000,5,3.5,LITTLE ROCKY RUN,2760,12180,1987,929,250,77,Sold,,,https://www.redfin.com/VA/Clifton/6502-Rock-Crystal-Dr-20124/home/9680590,BRIGHT MLS,VAFX1063704,N,Y,38.8115362,-77.4210916
PAST SALE,May-8-2020,Single Family Residential,7355 Clifton Rd,Clifton,VA,20124,1143000,5,4.0,DIV OF LAND OF ROSA H LE,5923,298382,2001,575,193,,Sold,,,https://www.redfin.com/VA/Clifton/7355-Clifton-Rd-20124/home/9764481,BRIGHT MLS,VAFX1111390,N,Y,38.7686922,-77.3719651
PAST SALE,December-9-2020,Single Family Residential,13928 Whetstone Manor Ct,Clifton,VA,20124,670000,4,3.5,COMPTON HEIGHTS,3048,15026,1994,360,220,46,Sold,,,https://www.redfin.com/VA/Clifton/13928-Whetstone-Manor-Ct-20124/home/9682773,BRIGHT MLS,VAFX1161962,N,Y,38.8082623,-77.4305513
PAST SALE,May-18-2020,Single Family Residential,14016 Marblestone Dr,Clifton,VA,20124,720000,5,4.5,COMPTON HEIGHTS,4288,11399,1994,565,168,47,Sold,,,https://www.redfin.com/VA/Clifton/14016-Marblestone-Dr-20124/home/9682815,BRIGHT MLS,VAFX1116908,N,Y,38.8101642,-77.4317617
PAST SALE,April-16-2020,Single Family Residential,14027 Marblestone Dr,Clifton,VA,20124,662500,4,3.5,COMPTON HEIGHTS,2718,10817,1993,597,244,43,Sold,,,https://www.redfin.com/VA/Clifton/14027-Marblestone-Dr-20124/home/9682788,BRIGHT MLS,VAFX1113432,N,Y,38.8096059,-77.4318065
PAST SALE,,Single Family Residential,6403 Noble Rock Ct,Clifton,VA,20124,1060000,4,4.5,,4838,39777,1997,,219,,,,,https://www.redfin.com/VA/Clifton/6403-Noble-Rock-Ct-20124/home/9683060,,,N,Y,38.810449,-77.4190516
PAST SALE,,Single Family Residential,6406 Noble Rock Ct,Clifton,VA,20124,1036000,5,6.5,,5128,42766,1992,,202,,,,,https://www.redfin.com/VA/Clifton/6406-Noble-Rock-Ct-20124/home/9683052,,,N,Y,38.8103152,-77.420038
PAST SALE,November-22-2019,Single Family Residential,6412 Noble Rock Ct,Clifton,VA,20124,920000,5,4.5,LITTLE ROCKY RUN,4780,41446,1995,743,192,81,Sold,,,https://www.redfin.com/VA/Clifton/6412-Noble-Rock-Ct-20124/home/9683083,BRIGHT MLS,VAFX1092190,N,Y,38.8089452,-77.4207553
PAST SALE,November-26-2019,Single Family Residential,6731 Rock Brook Dr,Clifton,VA,20124,650000,5,3.5,LITTLE ROCKY RUN,3118,9730,1995,739,208,81,Sold,,,https://www.redfin.com/VA/Clifton/6731-Rock-Brook-Dr-20124/home/9683143,BRIGHT MLS,VAFX1085324,N,Y,38.8082471,-77.4259784
PAST SALE,February-10-2019,Single Family Residential,13913 Rock Still Ct,Clifton,VA,20124,730000,5,4.5,LITTLE ROCKY RUN,3240,10273,1994,1028,225,77,Sold,,,https://www.redfin.com/VA/Clifton/13913-Rock-Still-Ct-20124/home/9683219,BRIGHT MLS,VAFX744794,N,Y,38.8085142,-77.4273234
PAST SALE,November-1-2019,Single Family Residential,12801 Popes Head Rd,Clifton,VA,20124,3900000,3,3.0,NEAR CLIFTON,2434,1307131,1920,764,1602,,Sold,,,https://www.redfin.com/VA/Clifton/12801-Popes-Head-Rd-20124/home/9685954,BRIGHT MLS,VAFX1102304,N,Y,38.8072787,-77.388518
PAST SALE,November-11-2019,Single Family Residential,13807 Laurel Rock Ct,Clifton,VA,20124,780000,5,4.5,LITTLE ROCKY RUN,5079,9819,1992,754,154,81,Sold,,,https://www.redfin.com/VA/Clifton/13807-Laurel-Rock-Ct-20124/home/9683247,BRIGHT MLS,VAFX1080338,N,Y,38.8092486,-77.426494
PAST SALE,May-31-2019,Single Family Residential,13840 Laurel Rock Ct,Clifton,VA,20124,752000,5,3.5,LITTLE ROCKY RUN,4252,14111,1992,918,177,81,Sold,,,https://www.redfin.com/VA/Clifton/13840-Laurel-Rock-Ct-20124/home/9683265,BRIGHT MLS,VAFX1052362,N,Y,38.8086851,-77.4288925
PAST SALE,May-8-2020,Single Family Residential,13838 Laurel Rock Ct,Clifton,VA,20124,728000,4,3.5,LITTLE ROCKY RUN,3462,12183,1992,575,210,104,Sold,,,https://www.redfin.com/VA/Clifton/13838-Laurel-Rock-Ct-20124/home/9683267,BRIGHT MLS,VAFX1118198,N,Y,38.8086663,-77.4292736
PAST SALE,July-22-2019,Single Family Residential,13804 Laurel Rock Ct,Clifton,VA,20124,705500,5,3.5,LITTLE ROCKY RUN,2624,10375,1991,866,269,81,Sold,,,https://www.redfin.com/VA/Clifton/13804-Laurel-Rock-Ct-20124/home/9683303,BRIGHT MLS,VAFX1072404,N,Y,38.8092539,-77.4256198
PAST SALE,November-15-2019,Single Family Residential,6432 Battle Rock Dr,Clifton,VA,20124,729000,5,3.5,LITTLE ROCKY RUN,3280,10490,1986,750,222,90,Sold,,,https://www.redfin.com/VA/Clifton/6432-Battle-Rock-Dr-20124/home/9680153,BRIGHT MLS,VAFX1085594,N,Y,38.8135836,-77.4192085
PAST SALE,October-1-2021,Single Family Residential,6406 Battle Rock Dr,Clifton,VA,20124,850000,4,3.5,LITTLE ROCKY RUN,2944,11729,1987,64,289,98,Sold,,,https://www.redfin.com/VA/Clifton/6406-Battle-Rock-Dr-20124/home/9680089,BRIGHT MLS,VAFX2015846,N,Y,38.8152775,-77.4177738
PAST SALE,December-9-2019,Single Family Residential,6824 Compton Heights Cir,Clifton,VA,20124,665000,5,3.5,COMPTON HEIGHTS,3130,15684,1989,726,212,44,Sold,,,https://www.redfin.com/VA/Clifton/6824-Compton-Heights-Cir-20124/home/9682692,BRIGHT MLS,VAFX1095318,N,Y,38.8062708,-77.4351687
PAST SALE,September-13-2019,Single Family Residential,6432 Springhouse Cir,Clifton,VA,20124,665000,4,3.0,LITTLE ROCKY RUN,3216,8578,1988,813,207,81,Sold,,,https://www.redfin.com/VA/Clifton/6432-Springhouse-Cir-20124/home/9682525,BRIGHT MLS,VAFX1082176,N,Y,38.8191934,-77.4275027
PAST SALE,April-8-2019,Single Family Residential,13912 Stonefield Ln,Clifton,VA,20124,655000,5,3.5,LITTLE ROCKY RUN,4039,8921,1989,971,162,78,Sold,,,https://www.redfin.com/VA/Clifton/13912-Stonefield-Ln-20124/home/9681150,BRIGHT MLS,VAFX991854,N,Y,38.8117505,-77.4302599
PAST SALE,December-6-2019,Single Family Residential,6424 Springhouse Cir,Clifton,VA,20124,664500,4,3.5,LITTLE ROCKY RUN,3263,8916,1989,729,204,81,Sold,,,https://www.redfin.com/VA/Clifton/6424-Springhouse-Cir-20124/home/9682522,BRIGHT MLS,VAFX1098948,N,Y,38.8195615,-77.4271889
PAST SALE,September-23-2020,Single Family Residential,6408 Springhouse Cir,Clifton,VA,20124,722000,4,3.5,LITTLE ROCKY RUN,2398,9060,1988,437,301,95,Sold,,,https://www.redfin.com/VA/Clifton/6408-Springhouse-Cir-20124/home/9682520,BRIGHT MLS,VAFX1146390,N,Y,38.8194624,-77.4251714
PAST SALE,May-16-2019,Single Family Residential,13922 Stonefield Dr,Clifton,VA,20124,640000,4,3.5,LITTLE ROCKY RUN,3370,8500,1988,933,190,80,Sold,,,https://www.redfin.com/VA/Clifton/13922-Stonefield-Dr-20124/home/9681182,BRIGHT MLS,VAFX1052264,N,Y,38.8126709,-77.4263371
PAST SALE,,Single Family Residential,6622 Rockland Dr,Clifton,VA,20124,680000,4,3.5,,2649,8795,1987,,257,,,,,https://www.redfin.com/VA/Clifton/6622-Rockland-Dr-20124/home/9680669,,,N,Y,38.811835,-77.4219883
PAST SALE,May-1-2020,Single Family Residential,6402 Springhouse Cir,Clifton,VA,20124,665000,4,3.5,LITTLE ROCKY RUN,3162,8542,1989,582,210,95,Sold,,,https://www.redfin.com/VA/Clifton/6402-Springhouse-Cir-20124/home/9682514,BRIGHT MLS,VAFX1119408,N,Y,38.8191673,-77.4246783
PAST SALE,August-11-2020,Single Family Residential,13804 S Springs Dr,Clifton,VA,20124,735000,4,3.5,LITTLE ROCKY RUN,3076,8827,1988,480,239,95,Sold,,,https://www.redfin.com/VA/Clifton/13804-S-Springs-Dr-20124/home/9682509,BRIGHT MLS,VAFX1138358,N,Y,38.8192049,-77.4239161
PAST SALE,May-29-2020,Single Family Residential,13940 Shalestone Dr,Clifton,VA,20124,745000,5,4.5,LITTLE ROCKY RUN,4334,10041,1988,554,172,81,Sold,,,https://www.redfin.com/VA/Clifton/13940-Shalestone-Dr-20124/home/9681107,BRIGHT MLS,VAFX1110974,N,Y,38.8132513,-77.4272337
PAST SALE,June-5-2020,Single Family Residential,13662 S Springs Dr,Clifton,VA,20124,690000,4,3.5,LITTLE ROCKY RUN,3058,11508,1988,547,226,104,Sold,,,https://www.redfin.com/VA/Clifton/13662-S-Springs-Dr-20124/home/9682494,BRIGHT MLS,VAFX1126516,N,Y,38.8195444,-77.4214951
PAST SALE,July-7-2020,Single Family Residential,13518 Union Village Cir,Clifton,VA,20124,625000,4,3.0,LITTLE ROCKY RUN,2284,9192,1986,515,274,95,Sold,,,https://www.redfin.com/VA/Clifton/13518-Union-Village-Cir-20124/home/9683720,BRIGHT MLS,VAFX1132750,N,Y,38.826092,-77.4144111
PAST SALE,April-28-2021,Single Family Residential,6104 Sandstone Ct,Clifton,VA,20124,765000,5,3.5,LITTLE ROCKY RUN,2674,13097,1986,220,286,107,Sold,,,https://www.redfin.com/VA/Clifton/6104-Sandstone-Ct-20124/home/9683814,BRIGHT MLS,VAFX1186400,N,Y,38.8222702,-77.4147698
PAST SALE,July-23-2019,Single Family Residential,6431 Springhouse Cir,Clifton,VA,20124,685000,4,3.5,LITTLE ROCKY RUN,3230,14648,1989,865,212,91,Sold,,,https://www.redfin.com/VA/Clifton/6431-Springhouse-Cir-20124/home/9682587,BRIGHT MLS,VAFX1069278,N,Y,38.8188398,-77.4264716
PAST SALE,June-24-2019,Single Family Residential,13969 Shalestone Dr,Clifton,VA,20124,796000,5,3.5,LITTLE ROCKY RUN,3762,13558,1988,894,212,86,Sold,,,https://www.redfin.com/VA/Clifton/13969-Shalestone-Dr-20124/home/9681057,BRIGHT MLS,VAFX1051558,N,Y,38.8124118,-77.4302374
PAST SALE,March-26-2020,Single Family Residential,13804 Foggy Hills Ct,Clifton,VA,20124,810000,5,4.5,LITTLE ROCKY RUN,4922,13146,1987,618,165,81,Sold,,,https://www.redfin.com/VA/Clifton/13804-Foggy-Hills-Ct-20124/home/9680454,BRIGHT MLS,VAFX1108472,N,Y,38.8149838,-77.4231988
PAST SALE,December-20-2019,Single Family Residential,6017 Union Springs Ct,Clifton,VA,20124,599999,4,3.5,LITTLE ROCKY RUN,2865,10446,1985,715,209,81,Sold,,,https://www.redfin.com/VA/Clifton/6017-Union-Springs-Ct-20124/home/9683748,BRIGHT MLS,VAFX1098908,N,Y,38.8249268,-77.4140524
PAST SALE,May-8-2020,Single Family Residential,6101 Sandstone Ct,Clifton,VA,20124,625000,4,2.5,LITTLE ROCKY RUN,2446,10040,1987,575,256,95,Sold,,,https://www.redfin.com/VA/Clifton/6101-Sandstone-Ct-20124/home/9683779,BRIGHT MLS,VAFX1116894,N,Y,38.8228392,-77.4144559
PAST SALE,March-30-2020,Single Family Residential,6111 Sandstone Ct,Clifton,VA,20124,710500,4,3.5,LITTLE ROCKY RUN,3630,22210,1986,614,196,81,Sold,,,https://www.redfin.com/VA/Clifton/6111-Sandstone-Ct-20124/home/9683790,BRIGHT MLS,VAFX1120142,N,Y,38.8216338,-77.4140972
PAST SALE,December-1-2020,Townhouse,6016 Little Brook Ct,Clifton,VA,20124,414900,4,3.5,SEQOIA LEA,1936,1400,1986,368,214,105,Sold,,,https://www.redfin.com/VA/Clifton/6016-Little-Brook-Ct-20124/home/9683927,BRIGHT MLS,VAFX1164618,N,Y,38.827966,-77.415001
PAST SALE,June-7-2019,Townhouse,6002 Little Brook Ct,Clifton,VA,20124,400000,3,3.5,SEQUOIA LEA,1845,1400,1986,911,217,91,Sold,,,https://www.redfin.com/VA/Clifton/6002-Little-Brook-Ct-20124/home/9683939,BRIGHT MLS,VAFX1055098,N,Y,38.828096,-77.414646
PAST SALE,March-19-2021,Townhouse,13607 Wildflower Ln,Clifton,VA,20124,440000,3,3.5,SEQOIA LEA,1632,1400,1987,260,270,105,Sold,,,https://www.redfin.com/VA/Clifton/13607-Wildflower-Ln-20124/home/9683950,BRIGHT MLS,VAFX1178668,N,Y,38.828521,-77.415947
PAST SALE,June-19-2020,Townhouse,13644 Wildflower Ln,Clifton,VA,20124,420000,4,3.5,SEQOIA LEA,1888,1400,1987,533,222,91,Sold,,,https://www.redfin.com/VA/Clifton/13644-Wildflower-Ln-20124/home/9683968,BRIGHT MLS,VAFX1129018,N,Y,38.82875,-77.416411
PAST SALE,July-17-2020,Single Family Residential,12926 Brandermill Ct,Fairfax,VA,22030,685000,4,2.5,HAMPTON FOREST,2441,14588,1986,505,281,33,Sold,,,https://www.redfin.com/VA/Fairfax/12926-Brandermill-Ct-22030/home/9684110,BRIGHT MLS,VAFX1139194,N,Y,38.831173,-77.3961161
PAST SALE,August-28-2020,Townhouse,13616 Wildflower Ln,Clifton,VA,20124,420500,4,3.5,SEQOIA LEA,1670,1400,1987,463,252,105,Sold,,,https://www.redfin.com/VA/Clifton/13616-Wildflower-Ln-20124/home/9683974,BRIGHT MLS,VAFX1137874,N,Y,38.8293136,-77.4160934
PAST SALE,February-4-2020,Townhouse,13509 Sequoia Lea Dr,Clifton,VA,20124,428000,4,3.5,SEQOIA LEA,1920,1400,1988,669,223,91,Sold,,,https://www.redfin.com/VA/Clifton/13509-Sequoia-Lea-Dr-20124/home/9683866,BRIGHT MLS,VAFX1105228,N,Y,38.8279939,-77.41342
PAST SALE,March-15-2019,Townhouse,6007 Little Brook Ct,Clifton,VA,20124,380000,3,2.5,SEQUOIA LEA,1765,2100,1986,995,215,90,Sold,,,https://www.redfin.com/VA/Clifton/6007-Little-Brook-Ct-20124/home/9683885,BRIGHT MLS,VAFX993308,N,Y,38.828053,-77.414202
PAST SALE,November-2-2020,Townhouse,13544 Sierra Dr,Clifton,VA,20124,438775,3,3.5,SEQUOIA LEA,1736,2178,1988,397,253,105,Sold,,,https://www.redfin.com/VA/Clifton/13544-Sierra-Dr-20124/home/9684036,BRIGHT MLS,VAFX1150976,N,Y,38.8288793,-77.413358
PAST SALE,August-30-2019,Condo/Co-op,13531 Orchard Dr #3531,Clifton,VA,20124,260000,2,2.0,PONDS AT CENTREVILLE,1043,,1989,827,249,,Sold,,,https://www.redfin.com/VA/Clifton/13531-Orchard-Dr-20124/unit-3531/home/9684166,BRIGHT MLS,VAFX1071260,N,Y,38.832025,-77.4145367
PAST SALE,February-14-2020,Condo/Co-op,5867 Orchard Hill Ln,Clifton,VA,20124,220000,1,1.0,PONDS AT CENTREVILLE THE,831,,1989,659,265,291,Sold,,,https://www.redfin.com/VA/Clifton/5867-Orchard-Hill-Ln-20124/home/9684135,BRIGHT MLS,VAFX1107240,N,Y,38.83212,-77.415781
PAST SALE,September-14-2020,Single Family Residential,6405 Stallion Rd,Clifton,VA,20124,925000,4,3.5,CLOVERLEAF FARM,4033,285928,1965,446,229,,Sold,,,https://www.redfin.com/VA/Clifton/6405-Stallion-Rd-20124/home/9725351,BRIGHT MLS,VAFX1146884,N,Y,38.804469,-77.3920801
PAST SALE,January-24-2020,Condo/Co-op,13515 Orchard Dr #3515,Clifton,VA,20124,216000,1,1.0,PONDS AT,738,,1989,680,293,246,Sold,,,https://www.redfin.com/VA/Clifton/13515-Orchard-Dr-20124/unit-3515/home/9684154,BRIGHT MLS,VAFX1097396,N,Y,38.8322239,-77.414979
PAST SALE,January-21-2021,Condo/Co-op,13519 Orchard Dr #3519,Clifton,VA,20124,205000,1,1.0,THE PONDS AT CENTREVILLE,831,,1989,317,247,300,Sold,,,https://www.redfin.com/VA/Clifton/13519-Orchard-Dr-20124/unit-3519/home/9684157,BRIGHT MLS,VAFX1171794,N,Y,38.8322239,-77.414979
PAST SALE,October-26-2020,Condo/Co-op,13609 Orchard Dr #3609,Clifton,VA,20124,256000,2,1.0,THE PONDS AT CENTREVILLE,889,,1989,404,288,311,Sold,,,https://www.redfin.com/VA/Clifton/13609-Orchard-Dr-20124/unit-3609/home/9684256,BRIGHT MLS,VAFX1155362,N,Y,38.83099,-77.413758
PAST SALE,February-25-2021,Condo/Co-op,13683 Orchard Dr #3683,Clifton,VA,20124,274900,2,2.0,THE PONDS AT CENTREVILLE,1031,,1990,282,267,361,Sold,,,https://www.redfin.com/VA/Clifton/13683-Orchard-Dr-20124/unit-3683/home/9684335,BRIGHT MLS,VAFX1166278,N,Y,38.8314639,-77.415837
PAST SALE,September-15-2020,Condo/Co-op,13619 Orchard Dr,Clifton,VA,20124,289900,2,2.0,THE PONDS AT CENTREVILLE,966,,1989,445,300,338,Sold,,,https://www.redfin.com/VA/Clifton/13619-Orchard-Dr-20124/unit-3619/home/9684266,BRIGHT MLS,VAFX1139308,N,Y,38.83099,-77.413758
PAST SALE,December-4-2019,Townhouse,13627 Orchard Dr #3627,Clifton,VA,20124,254900,2,2.0,PONDS AT CENTREVILLE THE,1043,,1989,731,244,347,Sold,,,https://www.redfin.com/VA/Clifton/13627-Orchard-Dr-20124/unit-3627/home/9684277,BRIGHT MLS,VAFX1087484,N,Y,38.830794,-77.414375
PAST SALE,February-10-2020,Condo/Co-op,13540 Orchard Dr #3540,Clifton,VA,20124,220000,1,1.0,PONDS AT,738,,1989,663,298,258,Sold,,,https://www.redfin.com/VA/Clifton/13540-Orchard-Dr-20124/unit-3540/home/9684369,BRIGHT MLS,VAFX1097176,N,Y,38.831579,-77.414998
PAST SALE,September-15-2020,Condo/Co-op,13636 Orchard Dr #3636,Clifton,VA,20124,334900,3,2.0,PONDS AT,1355,,1989,445,247,429,Sold,,,https://www.redfin.com/VA/Clifton/13636-Orchard-Dr-20124/unit-3636/home/9684384,BRIGHT MLS,VAFX1130542,N,Y,38.831184,-77.414731
PAST SALE,August-18-2020,Condo/Co-op,13659 Orchard Dr #3659,Clifton,VA,20124,222000,1,1.0,THE PONDS AT CENTREVILLE,738,,1989,473,301,258,Sold,,,https://www.redfin.com/VA/Clifton/13659-Orchard-Dr-20124/unit-3659/home/9684310,BRIGHT MLS,VAFX1141662,N,Y,38.830688,-77.414956
PAST SALE,March-29-2019,Condo/Co-op,13663 Orchard Dr #3663,Clifton,VA,20124,203000,1,1.0,PONDS AT CENTREVILLE,831,,1989,981,244,234,Sold,,,https://www.redfin.com/VA/Clifton/13663-Orchard-Dr-20124/unit-3663/home/9684313,BRIGHT MLS,VAFX992804,N,Y,38.830688,-77.414956
PAST SALE,June-28-2019,Townhouse,13667 Orchard Dr #3667,Clifton,VA,20124,255000,2,2.0,PONDS AT CENTREVILLE,966,,1989,890,264,330,Sold,,,https://www.redfin.com/VA/Clifton/13667-Orchard-Dr-20124/unit-3667/home/9684317,BRIGHT MLS,VAFX1063724,N,Y,38.830688,-77.414956
PAST SALE,November-22-2019,Townhouse,5856 Orchard Hill Ct,Clifton,VA,20124,260000,2,2.0,PONDS AT,1043,,1990,743,249,347,Sold,,,https://www.redfin.com/VA/Clifton/5856-Orchard-Hill-Ct-20124/home/9684440,BRIGHT MLS,VAFX1095176,N,Y,38.832999,-77.4161
PAST SALE,September-23-2019,Condo/Co-op,5880 Orchard Hill Ct,Clifton,VA,20124,261000,2,2.0,PONDS AT CENTREVILLE,1043,,1989,803,250,347,Sold,,,https://www.redfin.com/VA/Clifton/5880-Orchard-Hill-Ct-20124/home/9684466,BRIGHT MLS,VAFX1086106,N,Y,38.832669,-77.415715
PAST SALE,June-12-2020,Townhouse,13052 Quartz Ln,Clifton,VA,20124,510000,3,3.0,ROCKPOINTE,1740,1793,1990,540,293,133,Sold,,,https://www.redfin.com/VA/Clifton/13052-Quartz-Ln-20124/home/9684626,BRIGHT MLS,VAFX1126792,N,Y,38.831556,-77.399641
PAST SALE,August-7-2020,Townhouse,13050 Cobble Ln,Clifton,VA,20124,505000,3,2.5,ROCKPOINTE,1604,1892,1992,484,315,133,Sold,,,https://www.redfin.com/VA/Clifton/13050-Cobble-Ln-20124/home/9684561,BRIGHT MLS,VAFX1139030,N,Y,38.832781,-77.3993179
PAST SALE,April-17-2019,Single Family Residential,5720 Doyle Rd,Clifton,VA,20124,500000,4,2.5,BRADDOCK WOODS,1832,228603,1963,962,273,,Sold,,,https://www.redfin.com/VA/Clifton/5720-Doyle-Rd-20124/home/9684768,BRIGHT MLS,1010015390,N,Y,38.8265106,-77.39356
PAST SALE,August-13-2019,Single Family Residential,5613 Willow Valley Rd,Clifton,VA,20124,789000,5,3.5,CLIFTON MANOR,4350,11153,1996,844,181,38,Sold,,,https://www.redfin.com/VA/Clifton/5613-Willow-Valley-Rd-20124/home/9684661,BRIGHT MLS,VAFX1075856,N,Y,38.8332274,-77.4035152
PAST SALE,March-22-2019,Single Family Residential,13202 Kilby Landing Ct,Clifton,VA,20124,830000,5,4.5,CLIFTON MANOR,5738,12454,1998,988,145,38,Sold,,,https://www.redfin.com/VA/Clifton/13202-Kilby-Landing-Ct-20124/home/9684690,BRIGHT MLS,VAFX748186,N,Y,38.8325587,-77.4027304
PAST SALE,September-17-2021,Single Family Residential,6300 Oak Stone Ct,Clifton,VA,20124,1075000,5,4.5,LITTLE ROCKY RUN,5776,36149,1993,78,186,,Sold,,,https://www.redfin.com/VA/Clifton/6300-Oak-Stone-Ct-20124/home/9685898,BRIGHT MLS,VAFX2014390,N,Y,38.8163958,-77.4154872
PAST SALE,April-17-2020,Single Family Residential,13600 White Stone Ct,Clifton,VA,20124,662500,4,3.0,LITTLE ROCKY RUN,2182,8527,1991,596,304,85,Sold,,,https://www.redfin.com/VA/Clifton/13600-White-Stone-Ct-20124/home/9685818,BRIGHT MLS,VAFX1114014,N,Y,38.8195924,-77.4141869
PAST SALE,November-2-2020,Single Family Residential,6293 Clifton Rd,Clifton,VA,20124,1475000,6,5.5,CLIFTON DOWNS,6300,260924,1986,397,234,,Sold,,,https://www.redfin.com/VA/Clifton/6293-Clifton-Rd-20124/home/9685785,BRIGHT MLS,VAFX1146092,N,Y,38.8100872,-77.3958246
PAST SALE,April-30-2019,Single Family Residential,14015 Marleigh Ln,Clifton,VA,20124,661500,4,3.5,COMPTON HEIGHTS,4111,25136,1991,949,161,91,Sold,,,https://www.redfin.com/VA/Clifton/14015-Marleigh-Ln-20124/home/9725134,BRIGHT MLS,VAFX998988,N,Y,38.8053757,-77.4321203
PAST SALE,August-13-2021,Townhouse,13538 Darter Ct,Clifton,VA,20124,470000,2,2.5,CENTREVILLE GREEN,2058,1500,1993,113,228,100,Sold,,,https://www.redfin.com/VA/Clifton/13538-Darter-Ct-20124/home/9603188,BRIGHT MLS,VAFX2006806,N,Y,38.835822,-77.416451
PAST SALE,April-2-2021,Vacant Land,6016 Doyle Rd,Clifton,VA,20124,560000,,,BRADDOCK WOODS,,217844,,246,,,Sold,,,https://www.redfin.com/VA/Clifton/6016-Doyle-Rd-20124/home/160830915,BRIGHT MLS,VAFX1173238,N,Y,38.816448,-77.391569
PAST SALE,August-31-2020,Single Family Residential,6033 Pocol Dr,Clifton,VA,20124,418500,2,1.0,SECOND ADDITION TO VANNO,1470,21781,1954,460,285,,Sold,,,https://www.redfin.com/VA/Clifton/6033-Pocol-Dr-20124/home/9685978,BRIGHT MLS,VAFX1124800,N,Y,38.8124069,-77.3818997
PAST SALE,March-19-2021,Single Family Residential,6007 Doyle Rd,Clifton,VA,20124,1895000,6,7.0,BRADDOCK WOODS,5962,218323,2019,260,318,,Sold,,,https://www.redfin.com/VA/Clifton/6007-Doyle-Rd-20124/home/66059519,BRIGHT MLS,VAFX1166680,N,Y,38.817224,-77.3897257
PAST SALE,November-20-2020,Single Family Residential,12444 Popes Head Rd,Clifton,VA,20124,1020000,4,4.0,VANNOY PARK,3793,27567,2020,379,269,,Sold,,,https://www.redfin.com/VA/Clifton/12444-Popes-Head-Rd-20124/home/9686125,BRIGHT MLS,VAFX1154914,N,Y,38.8128328,-77.378805
PAST SALE,March-19-2021,Vacant Land,12980 Wyckland Dr,Clifton,VA,20124,420000,,,WYCKLAND,,218366,,260,,92,Sold,,,https://www.redfin.com/VA/Clifton/12980-Wyckland-Dr-20124/home/22172450,BRIGHT MLS,VAFX1176094,N,Y,38.761246,-77.3961099
PAST SALE,November-30-2020,Vacant Land,12901 Clifton Creek Dr Lot 2B,Clifton,VA,20124,500000,,,CLIFTON CREEK RIDGE,,257801,,369,,33,Sold,,,https://www.redfin.com/VA/Clifton/12901-Clifton-Creek-Dr-20124/home/162505151,BRIGHT MLS,VAFX1134056,N,Y,38.779564,-77.393677
PAST SALE,,Vacant Land,7101 12 Oaks Dr,Fairfax Station,VA,22039,400000,,,,,209193,,,,,,,,https://www.redfin.com/VA/Fairfax-Station/7101-12-Oaks-Dr-22039/home/28480143,,,N,Y,38.771608,-77.353638
PAST SALE,April-9-2021,Single Family Residential,13317 Balmoral Heights Pl,Clifton,VA,20124,1500000,6,4.5,BALMORAL GREENS,7499,92500,1999,239,200,48,Sold,,,https://www.redfin.com/VA/Clifton/13317-Balmoral-Heights-Pl-20124/home/9725498,BRIGHT MLS,VAFX1178620,N,Y,38.781752,-77.410435
PAST SALE,September-24-2021,Single Family Residential,6413 Woodland Run Ct,Clifton,VA,20124,1030000,5,4.5,LITTLE ROCKY RUN,4287,41183,1987,71,240,95,Sold,,,https://www.redfin.com/VA/Clifton/6413-Woodland-Run-Ct-20124/home/9680007,BRIGHT MLS,VAFX2016060,N,Y,38.8129125,-77.4167426
PAST SALE,November-12-2020,Single Family Residential,13526 Union Village Cir,Clifton,VA,20124,555000,3,3.5,LITTLE ROCKY RUN,1690,9098,1986,387,328,95,Sold,,,https://www.redfin.com/VA/Clifton/13526-Union-Village-Cir-20124/home/9683712,BRIGHT MLS,VAFX1154810,N,Y,38.8268099,-77.4147249
PAST SALE,June-27-2019,Single Family Residential,6024 Forest Run Dr,Clifton,VA,20124,650500,3,3.5,LITTLE ROCKY RUN,2824,9052,1986,891,230,81,Sold,,,https://www.redfin.com/VA/Clifton/6024-Forest-Run-Dr-20124/home/9683648,BRIGHT MLS,VAFX1058220,N,Y,38.8243251,-77.4151733
PAST SALE,September-25-2020,Single Family Residential,6320 Bluestone Pl,Clifton,VA,20124,777000,5,3.5,LITTLE ROCKY RUN,3756,9566,1988,435,207,95,Sold,,,https://www.redfin.com/VA/Clifton/6320-Bluestone-Pl-20124/home/9682477,BRIGHT MLS,VAFX1147580,N,Y,38.8186784,-77.4187153
PAST SALE,August-23-2019,Single Family Residential,6103 Bluffdale Ct,Clifton,VA,20124,644000,4,3.5,LITTLE ROCKY RUN,3665,10432,1986,834,176,81,Sold,,,https://www.redfin.com/VA/Clifton/6103-Bluffdale-Ct-20124/home/9683633,BRIGHT MLS,VAFX1068490,N,Y,38.8251588,-77.4154423
PAST SALE,March-15-2021,Single Family Residential,6017 Forest Run Dr,Clifton,VA,20124,713250,3,3.5,LITTLE ROCKY RUN,2828,8733,1986,264,252,95,Sold,,,https://www.redfin.com/VA/Clifton/6017-Forest-Run-Dr-20124/home/9683553,BRIGHT MLS,VAFX1176118,N,Y,38.8250208,-77.4145456
PAST SALE,April-19-2019,Single Family Residential,6305 Bluestone Pl,Clifton,VA,20124,720000,4,3.5,LITTLE ROCKY RUN,3258,10916,1988,960,221,77,Sold,,,https://www.redfin.com/VA/Clifton/6305-Bluestone-Pl-20124/home/9682461,BRIGHT MLS,VAFX1048762,N,Y,38.8184584,-77.4166977
PAST SALE,June-25-2019,Single Family Residential,13949 Stonefield Dr,Clifton,VA,20124,694000,4,3.5,LITTLE ROCKY RUN,4123,10460,1988,893,168,81,Sold,,,https://www.redfin.com/VA/Clifton/13949-Stonefield-Dr-20124/home/9680847,BRIGHT MLS,VAFX1061404,N,Y,38.8102071,-77.4286459
PAST SALE,December-8-2020,Single Family Residential,13537 Union Village Cir,Clifton,VA,20124,705000,4,3.5,LITTLE ROCKY RUN,2658,8571,1987,361,265,95,Sold,,,https://www.redfin.com/VA/Clifton/13537-Union-Village-Cir-20124/home/9683668,BRIGHT MLS,VAFX1165928,N,Y,38.82565,-77.4158907
PAST SALE,October-31-2019,Single Family Residential,13519 Moss Glen Rd,Clifton,VA,20124,660000,4,3.5,LITTLE ROCKY RUN,3500,11851,1986,765,189,81,Sold,,,https://www.redfin.com/VA/Clifton/13519-Moss-Glen-Rd-20124/home/9683682,BRIGHT MLS,VAFX1078132,N,Y,38.8221834,-77.4160028
PAST SALE,March-29-2019,Single Family Residential,13609 Bluestone Ct,Clifton,VA,20124,735000,6,3.5,LITTLE ROCKY RUN,3663,11421,1988,981,201,77,Sold,,,https://www.redfin.com/VA/Clifton/13609-Bluestone-Ct-20124/home/9682442,BRIGHT MLS,VAFX769106,N,Y,38.8175548,-77.4170788
PAST SALE,August-28-2020,Single Family Residential,6444 Rock Hollow Ln,Clifton,VA,20124,912000,5,3.5,DEEPWOOD FARMS,4481,9588,2003,463,204,95,Sold,,,https://www.redfin.com/VA/Clifton/6444-Rock-Hollow-Ln-20124/home/9844101,BRIGHT MLS,VAFX1144836,N,Y,38.8170638,-77.4205087
PAST SALE,January-8-2020,Single Family Residential,7226 Clifton Rd,Clifton,VA,20124,800000,6,5.0,G W SHUGARS PROP,5800,232754,1991,696,138,,Sold,,,https://www.redfin.com/VA/Clifton/7226-Clifton-Rd-20124/home/9764285,BRIGHT MLS,VAFX1082860,N,Y,38.7741904,-77.3810251
PAST SALE,May-22-2021,Single Family Residential,6448 Battle Rock Dr,Clifton,VA,20124,827300,4,3.5,LITTLE ROCKY RUN,3415,11136,1986,196,242,98,Sold,,,https://www.redfin.com/VA/Clifton/6448-Battle-Rock-Dr-20124/home/9680172,BRIGHT MLS,VAFX1193936,N,Y,38.8125671,-77.4194775
PAST SALE,October-15-2020,Single Family Residential,6803 Clifton Grove Ct,Clifton,VA,20124,975000,5,5.0,CLIFTON GROVE,5854,11752,2003,415,167,50,Sold,,,https://www.redfin.com/VA/Clifton/6803-Clifton-Grove-Ct-20124/home/9841190,BRIGHT MLS,VAFX1152826,N,Y,38.8058786,-77.4236247
PAST SALE,September-10-2020,Single Family Residential,13949 S Springs Dr,Clifton,VA,20124,702500,4,3.5,LITTLE ROCKY RUN,2932,9443,1992,450,240,95,Sold,,,https://www.redfin.com/VA/Clifton/13949-S-Springs-Dr-20124/home/9682343,BRIGHT MLS,VAFX1146362,N,Y,38.8175078,-77.4279062
PAST SALE,July-11-2019,Single Family Residential,13947 Stonefield Dr,Clifton,VA,20124,729000,5,3.5,LITTLE ROCKY RUN,4346,9763,1988,877,168,72,Sold,,,https://www.redfin.com/VA/Clifton/13947-Stonefield-Dr-20124/home/9680845,BRIGHT MLS,VAFX1068246,N,Y,38.8104387,-77.4285563
PAST SALE,September-30-2020,Single Family Residential,6541 Rockland Dr,Clifton,VA,20124,720000,5,3.5,LITTLE ROCKY RUN,4561,12619,1987,430,158,81,Sold,,,https://www.redfin.com/VA/Clifton/6541-Rockland-Dr-20124/home/9680285,BRIGHT MLS,VAFX1150230,N,Y,38.8162483,-77.4255749
PAST SALE,May-13-2021,Single Family Residential,6041 Forest Run Dr,Clifton,VA,20124,910500,4,4.5,LITTLE ROCKY RUN,4318,8505,1986,205,211,98,Sold,,,https://www.redfin.com/VA/Clifton/6041-Forest-Run-Dr-20124/home/9671811,BRIGHT MLS,VAFX1190028,N,Y,38.8237974,-77.4176088
PAST SALE,March-22-2019,Single Family Residential,13110 Loth Lorian Dr,Clifton,VA,20124,1140000,5,5.0,LOTH LORIAN,7193,220753,1995,988,158,,Sold,,,https://www.redfin.com/VA/Clifton/13110-Loth-Lorian-Dr-20124/home/9686174,BRIGHT MLS,VAFX102274,N,Y,38.8134419,-77.3928425
PAST SALE,April-2-2021,Single Family Residential,12507 Old Yates Ford Rd,Clifton,VA,20124,1200000,5,4.5,BARNETT & BROWN,6208,264004,1988,246,193,,Sold,,,https://www.redfin.com/VA/Clifton/12507-Old-Yates-Ford-Rd-20124/home/9796653,BRIGHT MLS,VAFX1182648,N,Y,38.7448192,-77.3787602
PAST SALE,October-14-2021,Single Family Residential,12219 Henderson Rd,Clifton,VA,20124,944000,4,3.5,STONEHEDGE,3758,217800,1991,51,251,,Sold,,,https://www.redfin.com/VA/Clifton/12219-Henderson-Rd-20124/home/9796742,BRIGHT MLS,VAFX2010752,N,Y,38.7418329,-77.3715165
PAST SALE,November-25-2019,Single Family Residential,7412 Clifton Rd,Clifton,VA,20124,570000,4,4.0,MAPLE BRANCH,1958,393874,1975,740,291,,Sold,,,https://www.redfin.com/VA/Clifton/7412-Clifton-Rd-20124/home/9764770,BRIGHT MLS,VAFX1092016,N,Y,38.762611,-77.3623419
PAST SALE,June-7-2019,Condo/Co-op,13547 Orchard Dr #3547,Clifton,VA,20124,254000,2,2.0,PONDS AT CENTREVILLE,966,,1989,911,263,320,Sold,,,https://www.redfin.com/VA/Clifton/13547-Orchard-Dr-20124/unit-3547/home/9684184,BRIGHT MLS,VAFX1055968,N,Y,38.832017,-77.414534
PAST SALE,December-20-2018,Single Family Residential,12247 Clifton Point Rd,Clifton,VA,20124,1043449,4,5.5,CLIFTON POINT,4183,52708,2018,1080,249,119,Sold,,,https://www.redfin.com/VA/Clifton/12247-Clifton-Point-Dr-20124/home/162521062,BRIGHT MLS,1000058897,N,Y,38.751586,-77.3696521
PAST SALE,October-22-2021,Single Family Residential,13301 Jaybird Ct,Clifton,VA,20124,853000,5,3.5,CAVALIER WOODS,3630,9592,1993,43,235,48,Sold,,,https://www.redfin.com/VA/Clifton/13301-Jaybird-Ct-20124/home/9602372,BRIGHT MLS,VAFX2023502,N,Y,38.8359761,-77.4073245
PAST SALE,,Townhouse,5736 Osprey Ct,Clifton,VA,20124,380000,2,2.5,,1004,2325,1992,,378,,,,,https://www.redfin.com/VA/Clifton/5736-Osprey-Ct-20124/home/9603267,,,N,Y,38.8354725,-77.414142
PAST SALE,October-12-2021,Single Family Residential,5501 Willow Valley Rd,Clifton,VA,20124,930000,5,3.5,CLIFTON FARM,4737,13100,1996,53,196,50,Sold,,,https://www.redfin.com/VA/Clifton/5501-Willow-Valley-Rd-20124/home/9602615,BRIGHT MLS,VAFX2011472,N,Y,38.8367113,-77.4015421
PAST SALE,June-30-2021,Single Family Residential,5596 Jarist Dr,Clifton,VA,20124,849000,4,4.5,CLIFTON CREST,3978,9515,1999,157,213,67,Sold,,,https://www.redfin.com/VA/Clifton/5596-Jarist-Dr-20124/home/9605976,BRIGHT MLS,VAFX2008518,N,Y,38.8369661,-77.4071921
PAST SALE,June-29-2021,Single Family Residential,5658 Lonesome Dove Ct,Clifton,VA,20124,785000,4,3.0,CENTREVILLE GREEN,2584,12591,1992,158,304,67,Sold,,,https://www.redfin.com/VA/Clifton/5658-Lonesome-Dove-Ct-20124/home/9684507,BRIGHT MLS,VAFX1179982,N,Y,38.8333816,-77.4108241
PAST SALE,June-25-2021,Condo/Co-op,5819 Orchard Hill Ct,Clifton,VA,20124,228700,1,1.0,THE PONDS AT CENTREVILLE,831,,1990,162,275,300,Sold,,,https://www.redfin.com/VA/Clifton/5819-Orchard-Hill-Ct-20124/unit-5819/home/9675374,BRIGHT MLS,VAFX1209018,N,Y,38.833326,-77.417407
PAST SALE,April-8-2021,Single Family Residential,6811 Clifton Rd,Clifton,VA,20124,1685000,7,6.5,NEAR CLIFTON,8434,276702,2006,240,200,,Sold,,,https://www.redfin.com/VA/Clifton/6811-Clifton-Rd-20124/home/12065253,BRIGHT MLS,VAFX1184710,N,Y,38.7940835,-77.392394
PAST SALE,June-26-2019,Single Family Residential,12248 Clifton Point Dr,Clifton,VA,20124,1163050,4,5.5,CLIFTON POINT,6001,217866,2019,892,194,130,Sold,,,https://www.redfin.com/VA/Clifton/12248-Clifton-Point-Dr-20124/home/108237748,BRIGHT MLS,VAFX1073546,N,Y,38.75273,-77.370444
PAST SALE,June-28-2021,Single Family Residential,8218 Kincheloe Rd,Clifton,VA,20124,615000,2,1.0,BULL RUN,1180,87120,1955,159,521,,Sold,,,https://www.redfin.com/VA/Clifton/8218-Kincheloe-Rd-20124/home/9796644,BRIGHT MLS,VAFX1202496,N,Y,38.7477325,-77.3849718
PAST SALE,August-28-2020,Single Family Residential,6108 Bluffdale Ct,Clifton,VA,20124,745000,4,3.0,LITTLE ROCKY RUN,2317,13007,1986,463,322,95,Sold,,,https://www.redfin.com/VA/Clifton/6108-Bluffdale-Ct-20124/home/9683617,BRIGHT MLS,VAFX1146190,N,Y,38.8245131,-77.4161597
PAST SALE,June-20-2021,Townhouse,5500 Quail Ct,Clifton,VA,20124,535000,3,3.0,CENTREVILLE GREEN BGAR,2130,2560,1992,167,251,100,Sold,,,https://www.redfin.com/VA/Clifton/5500-Quail-Ct-20124/home/9602730,BRIGHT MLS,VAFX1187516,N,Y,38.838897,-77.4131893
PAST SALE,June-22-2021,Single Family Residential,13755 Laurel Rock Dr,Clifton,VA,20124,940000,5,3.5,LITTLE ROCKY RUN,3985,9758,1993,165,236,98,Sold,,,https://www.redfin.com/VA/Clifton/13755-Laurel-Rock-Dr-20124/home/9683110,BRIGHT MLS,VAFX1192432,N,Y,38.8074217,-77.4222797
PAST SALE,October-21-2021,Townhouse,13507 Sequoia Lea Dr,Clifton,VA,20124,460000,3,3.5,SEQOIA LEA,1936,1400,1988,44,238,108,Sold,,,https://www.redfin.com/VA/Clifton/13507-Sequoia-Lea-Dr-20124/home/9683864,BRIGHT MLS,VAFX2024238,N,Y,38.828,-77.413348
PAST SALE,April-29-2021,Single Family Residential,6448 Springhouse Cir,Clifton,VA,20124,788900,5,3.5,LITTLE ROCKY RUN,2366,10569,1989,219,333,95,Sold,,,https://www.redfin.com/VA/Clifton/6448-Springhouse-Cir-20124/home/9682561,BRIGHT MLS,VAFX1197042,N,Y,38.8182646,-77.4270992
PAST SALE,June-28-2021,Single Family Residential,13516 Compton Rd,Clifton,VA,20124,1860000,6,6.5,DARBY PROPERTY,9774,217800,2005,159,190,,Sold,,,https://www.redfin.com/VA/Clifton/13516-Compton-Rd-20124/home/9853801,BRIGHT MLS,VAFX1196294,N,Y,38.8034651,-77.41403
PAST SALE,January-29-2021,Single Family Residential,7009 Union Mill Rd,Clifton,VA,20124,890000,4,3.5,JOHNNY MOORE,2522,217800,1968,309,353,,Sold,,,https://www.redfin.com/VA/Clifton/7009-Union-Mill-Rd-20124/home/9725105,BRIGHT MLS,VAFX1170322,N,Y,38.7959239,-77.4164511
PAST SALE,March-17-2020,Condo/Co-op,13623 Orchard Dr #3623,Clifton,VA,20124,300000,2,2.0,PONDS AT CENTREVILLE THE,1092,,1989,627,275,382,Sold,,,https://www.redfin.com/VA/Clifton/13623-Orchard-Dr-20124/unit-3623/home/9684273,BRIGHT MLS,VAFX1118396,N,Y,38.830794,-77.414375
PAST SALE,,Vacant Land,5934 Colchester Rd,Clifton,VA,20124,512500,,,,,237279,,,,,,,,https://www.redfin.com/VA/Clifton/5934-Colchester-Rd-20124/home/162612767,,,N,Y,38.8145489,-77.3806177
PAST SALE,October-18-2019,Vacant Land,6708 Briarcroft,Clifton,VA,20124,360000,,,ARMSTRONG AND ENGLISH,,223472,,778,,,Sold,,,https://www.redfin.com/VA/Clifton/6708-Briarcroft-St-20124/home/45494191,BRIGHT MLS,1002616534,N,Y,38.802812,-77.411619
PAST SALE,September-13-2021,Single Family Residential,6809 Clifton Grove Ct,Clifton,VA,20124,1005000,5,4.5,CLIFTON GROVE,5762,10652,2003,82,174,50,Sold,,,https://www.redfin.com/VA/Clifton/6809-Clifton-Grove-Ct-20124/home/9841312,BRIGHT MLS,VAFX2010270,N,Y,38.805171,-77.423961
PAST SALE,November-27-2020,Single Family Residential,13312 Jaybird Ct,Clifton,VA,20124,680000,4,2.5,CAVALIER WOODS,3082,19224,1992,372,221,48,Sold,,,https://www.redfin.com/VA/Clifton/13312-Jaybird-Ct-20124/home/9602343,BRIGHT MLS,VAFX1149100,N,Y,38.8370699,-77.407775
PAST SALE,October-11-2019,Single Family Residential,7600 Dunquin Ct,Clifton,VA,20124,1050000,6,5.0,GLENCAIRN,7200,252295,1989,785,146,125,Sold,,,https://www.redfin.com/VA/Clifton/7600-Dunquin-Ct-20124/home/9764359,BRIGHT MLS,VAFX1088038,N,Y,38.7695295,-77.3921474
PAST SALE,September-29-2020,Single Family Residential,12970 Wyckland Dr,Clifton,VA,20124,1325000,6,6.5,WYCKLAND,9653,218366,1992,431,137,125,Sold,,,https://www.redfin.com/VA/Clifton/12970-Wyckland-Dr-20124/home/9764391,BRIGHT MLS,VAFX1112892,N,Y,38.7623442,-77.3956453
PAST SALE,April-28-2020,Single Family Residential,13909 Balmoral Ter,Clifton,VA,20124,891000,4,4.5,BALMORAL GREENS,5320,57553,1998,585,167,48,Sold,,,https://www.redfin.com/VA/Clifton/13909-Balmoral-Ter-20124/home/9725158,BRIGHT MLS,VAFX1085354,N,Y,38.7839563,-77.4277493
PAST SALE,August-31-2020,Single Family Residential,6900 Newby Hall Ct,Clifton,VA,20124,887000,4,4.5,EVENING HILLS,4075,28337,1990,460,218,29,Sold,,,https://www.redfin.com/VA/Clifton/6900-Newby-Hall-Ct-20124/home/9725117,BRIGHT MLS,VAFX1142290,N,Y,38.8044603,-77.4336894
PAST SALE,April-23-2020,Single Family Residential,14013 Marleigh Ln,Clifton,VA,20124,690000,6,4.0,COMPTON HEIGHTS,2714,25024,1992,590,254,47,Sold,,,https://www.redfin.com/VA/Clifton/14013-Marleigh-Ln-20124/home/9725135,BRIGHT MLS,VAFX1117768,N,Y,38.8054525,-77.4317168
PAST SALE,December-6-2018,Single Family Residential,14011 Marleigh Ln,Clifton,VA,20124,625000,4,2.5,COMPTON HEIGHTS,3102,25058,1991,1094,201,44,Sold,,,https://www.redfin.com/VA/Clifton/14011-Marleigh-Ln-20124/home/9725136,BRIGHT MLS,1009942602,N,Y,38.8055213,-77.4314254
PAST SALE,February-28-2019,Single Family Residential,13768 Balmoral Greens Ave,Clifton,VA,20124,4600000,6,7.5,BALMORAL GREENS,12000,539094,2002,1010,383,97,Sold,,,https://www.redfin.com/VA/Clifton/13768-Balmoral-Greens-Ave-20124/home/9725240,BRIGHT MLS,1000059173,N,Y,38.7898258,-77.426793
PAST SALE,July-17-2020,Single Family Residential,13441 Compton Rd,Clifton,VA,20124,560000,2,2.0,UNION MILL ROAD,1277,93353,1987,505,439,,Sold,,,https://www.redfin.com/VA/Clifton/13441-Compton-Rd-20124/home/9725247,BRIGHT MLS,VAFX1134760,N,Y,38.7994336,-77.4126624
PAST SALE,April-30-2020,Single Family Residential,7512 Detwiller Dr,Clifton,VA,20124,1149900,4,6.0,BALMORAL GREENS,6424,46755,1998,583,179,48,Sold,,,https://www.redfin.com/VA/Clifton/7512-Detwiller-Dr-20124/home/9725183,BRIGHT MLS,VAFX1110968,N,Y,38.7843166,-77.42219
PAST SALE,June-25-2019,Single Family Residential,7524 Detwiller Dr,Clifton,VA,20124,990000,4,3.5,BALMORAL GREENS,4517,40216,1999,893,219,48,Sold,,,https://www.redfin.com/VA/Clifton/7524-Detwiller-Dr-20124/home/9725186,BRIGHT MLS,VAFX1060272,N,Y,38.7833701,-77.4220608
PAST SALE,January-6-2021,Single Family Residential,7501 Weymouth Hill Rd,Clifton,VA,20124,1125000,4,5.5,BALMORAL GREENS,6656,43376,1999,332,169,48,Sold,,,https://www.redfin.com/VA/Clifton/7501-Weymouth-Hill-Rd-20124/home/9725204,BRIGHT MLS,VAFX1162920,N,Y,38.7846306,-77.4184239
PAST SALE,July-2-2019,Single Family Residential,13216 Compton Rd,Clifton,VA,20124,770000,4,3.0,IVAKOTA FARM,2400,217887,1972,886,321,,Sold,,,https://www.redfin.com/VA/Clifton/13216-Compton-Rd-20124/home/9725257,BRIGHT MLS,VAFX1061172,N,Y,38.796674,-77.4048828
PAST SALE,June-3-2020,Single Family Residential,7408 Clifton Quarry Dr,Clifton,VA,20124,1139900,4,3.5,BALMORAL GREENS,5660,103614,1998,549,201,48,Sold,,,https://www.redfin.com/VA/Clifton/7408-Clifton-Quarry-Dr-20124/home/9725225,BRIGHT MLS,VAFX1106858,N,Y,38.788191,-77.4195224
PAST SALE,November-16-2020,Single Family Residential,7405 Union Ridge Rd,Clifton,VA,20124,1275000,4,4.5,BALMORAL GREENS,4488,53222,1998,383,284,57,Sold,,,https://www.redfin.com/VA/Clifton/7405-Union-Ridge-Rd-20124/home/9725229,BRIGHT MLS,VAFX1161016,N,Y,38.7875309,-77.4206657
PAST SALE,,Single Family Residential,13316 Compton Rd,Clifton,VA,20124,725000,,2.0,,1976,435600,1925,,367,,,,,https://www.redfin.com/VA/Clifton/13316-Compton-Rd-20124/home/9725260,,,N,Y,38.7952393,-77.407775
PAST SALE,September-27-2019,Single Family Residential,6500 Stallion Rd,Clifton,VA,20124,950000,6,5.0,CLOVERLEAF FARM ESTATES,6765,261491,1965,799,140,50,Sold,,,https://www.redfin.com/VA/Clifton/6500-Stallion-Rd-20124/home/9725354,BRIGHT MLS,VAFX1064822,N,Y,38.802045,-77.393369
PAST SALE,July-30-2019,Single Family Residential,6504 Stallion Rd,Clifton,VA,20124,805000,3,2.0,CLOVERLEAF FARM ESTATES,1735,260053,1963,858,464,,Sold,,,https://www.redfin.com/VA/Clifton/6504-Stallion-Rd-20124/home/9725355,BRIGHT MLS,VAFX1081790,N,Y,38.8010501,-77.3919605
PAST SALE,,Single Family Residential,12515 Knollbrook Dr,Clifton,VA,20124,625000,5,8.5,,7858,217800,2007,,80,,,,,https://www.redfin.com/VA/Clifton/12515-Knollbrook-Dr-20124/home/12065254,,,N,Y,38.7965864,-77.3797693
PAST SALE,December-13-2018,Single Family Residential,13672 S Springs Dr,Clifton,VA,20124,600000,4,2.5,LITTLE ROCKY RUN,2458,8750,1988,1087,244,77,Sold,,,https://www.redfin.com/VA/Clifton/13672-S-Springs-Dr-20124/home/9682501,BRIGHT MLS,1007522514,N,Y,38.8194094,-77.4228401
PAST SALE,December-10-2020,Single Family Residential,13412 Compton Rd,Clifton,VA,20124,515000,4,3.0,BEECHNUT ACRES,1600,44271,1964,359,322,,Sold,,,https://www.redfin.com/VA/Clifton/13412-Compton-Rd-20124/home/9725285,BRIGHT MLS,VAFX1153936,N,Y,38.7977242,-77.4100842
PAST SALE,May-29-2020,Single Family Residential,13110 Cedar Ridge Dr,Clifton,VA,20124,1180000,5,5.5,CEDAR KNOLLS OF CLIFTON,7222,229849,1981,554,163,42,Sold,,,https://www.redfin.com/VA/Clifton/13110-Cedar-Ridge-Dr-20124/home/9725301,BRIGHT MLS,VAFX1101618,N,Y,38.8001891,-77.4007798
PAST SALE,October-30-2020,Single Family Residential,7012 Balmoral Forest Rd,Clifton,VA,20124,1210000,6,4.5,BALMORAL GREENS,5804,142956,1997,400,208,48,Sold,,,https://www.redfin.com/VA/Clifton/7012-Balmoral-Forest-Rd-20124/home/9725326,BRIGHT MLS,VAFX1153852,N,Y,38.792237,-77.4060711
PAST SALE,February-28-2020,Vacant Land,13507 Compton Rd,Clifton,VA,20124,485000,,,CROUCH COMMONS,,302190,,645,,,Sold,,,https://www.redfin.com/VA/Clifton/13507-Compton-Rd-20124/home/22956489,BRIGHT MLS,VAFX1089042,N,Y,38.80023,-77.414471
PAST SALE,February-7-2020,Single Family Residential,12910 Compton Rd,Clifton,VA,20124,1460000,4,5.0,CLIFTON,6937,374964,2005,666,210,,Sold,,,https://www.redfin.com/VA/Clifton/12910-Compton-Rd-20124/home/9725334,BRIGHT MLS,1000446276,N,Y,38.7925646,-77.395016
PAST SALE,May-23-2019,Single Family Residential,12810 Wycklow Dr,Clifton,VA,20124,900000,4,3.5,BURWYCK,5717,217844,1969,926,157,,Sold,,,https://www.redfin.com/VA/Clifton/12810-Wycklow-Dr-20124/home/9725382,BRIGHT MLS,VAFX1056084,N,Y,38.7921635,-77.3902863
PAST SALE,,Single Family Residential,12608 Wycklow Dr,Clifton,VA,20124,750000,4,2.5,,2588,111588,1973,,290,,,,,https://www.redfin.com/VA/Clifton/12608-Wycklow-Dr-20124/home/9725394,,,N,Y,38.7954675,-77.3833349
PAST SALE,July-15-2020,Single Family Residential,6501 Megills Ct,Clifton,VA,20124,1515000,5,7.0,MEGILLS CROSSING,9264,217992,1995,507,164,81,Sold,,,https://www.redfin.com/VA/Clifton/6501-Megills-Ct-20124/home/9725425,BRIGHT MLS,VAFX1119014,N,Y,38.804672,-77.3843664
PAST SALE,,Single Family Residential,7203 Ivakota Rd,Clifton,VA,20124,700000,4,3.5,,4818,217809,1987,,145,,,,,https://www.redfin.com/VA/Clifton/7203-Ivakota-Rd-20124/home/9725450,,,N,Y,38.7834316,-77.4029995
PAST SALE,July-3-2019,Single Family Residential,7006 Clifton Forest Dr,Clifton,VA,20124,630000,4,2.5,CLIFTON FOREST,2400,180338,1969,885,263,,Sold,,,https://www.redfin.com/VA/Clifton/7006-Clifton-Forest-Dr-20124/home/9725463,BRIGHT MLS,VAFX1057244,N,Y,38.7877723,-77.3972372
PAST SALE,August-6-2019,Single Family Residential,12925 Clifton Creek Dr,Clifton,VA,20124,825000,5,3.0,CLIFTON CREEK RIDGE,4206,217817,1988,851,196,33,Sold,,,https://www.redfin.com/VA/Clifton/12925-Clifton-Creek-Dr-20124/home/9725470,BRIGHT MLS,VAFX1056222,N,Y,38.7834392,-77.39717
PAST SALE,January-9-2020,Single Family Residential,13321 Balmoral Heights Pl,Clifton,VA,20124,861351,4,4.5,BALMORAL GREENS,5388,87290,2000,695,160,48,Sold,,,https://www.redfin.com/VA/Clifton/13321-Balmoral-Heights-Pl-20124/home/9725497,BRIGHT MLS,VAFX1078892,N,Y,38.782239,-77.410038
PAST SALE,December-4-2020,Single Family Residential,13305 Balmoral Heights Pl,Clifton,VA,20124,1180000,5,6.0,BALMORAL GREENS,6680,87412,2000,365,177,48,Sold,,,https://www.redfin.com/VA/Clifton/13305-Balmoral-Heights-Pl-20124/home/9725501,BRIGHT MLS,VAFX1164552,N,Y,38.780144,-77.409959
PAST SALE,August-27-2019,Single Family Residential,13300 Ivakota Farm Rd,Clifton,VA,20124,1210000,5,5.0,BALMORAL GREENS,7491,104173,1997,830,162,48,Sold,,,https://www.redfin.com/VA/Clifton/13300-Ivakota-Farm-Rd-20124/home/9725523,BRIGHT MLS,VAFX1068748,N,Y,38.791215,-77.4072145
PAST SALE,October-2-2020,Single Family Residential,13316 Ivakota Farm Rd,Clifton,VA,20124,1349900,5,5.5,BALMORAL GREENS,6301,246817,1999,428,214,48,Sold,,,https://www.redfin.com/VA/Clifton/13316-Ivakota-Farm-Rd-20124/home/9725526,BRIGHT MLS,VAFX1126906,N,Y,38.790553,-77.413441
PAST SALE,April-29-2020,Single Family Residential,13324 Ivakota Farm Rd,Clifton,VA,20124,1030000,4,3.5,BALMORAL GREENS,3738,215188,2000,584,276,48,Sold,,,https://www.redfin.com/VA/Clifton/13324-Ivakota-Farm-Rd-20124/home/9725528,BRIGHT MLS,VAFX1109548,N,Y,38.7900196,-77.4128314
PAST SALE,June-22-2020,Single Family Residential,12204 Henderson Rd,Clifton,VA,20124,850000,5,3.5,M W FISHER PROPERTY,2822,217800,1978,530,301,,Sold,,,https://www.redfin.com/VA/Clifton/12204-Henderson-Rd-20124/home/9796687,BRIGHT MLS,VAFX1112354,N,Y,38.7437708,-77.3669638
PAST SALE,May-26-2020,Single Family Residential,6830 Clifton Rd,Clifton,VA,20124,1407500,5,6.0,CHARLES R LINTON PROPERT,11007,217817,1990,557,128,,Sold,,,https://www.redfin.com/VA/Clifton/6830-Clifton-Rd-20124/home/9725546,BRIGHT MLS,VAFX1102612,N,Y,38.7909657,-77.393134
PAST SALE,June-11-2021,Single Family Residential,13904 Whetstone Manor Ct,Clifton,VA,20124,750000,5,3.5,LITTLE ROCKY RUN,3512,11296,1994,176,214,107,Sold,,,https://www.redfin.com/VA/Clifton/13904-Whetstone-Manor-Ct-20124/home/101716410,BRIGHT MLS,VAFX1194066,N,Y,38.8071442,-77.4285889
PAST SALE,October-7-2020,Single Family Residential,6910 Clifton Rd,Clifton,VA,20124,765000,4,3.0,BAILEY CONNELLY,2252,217800,1963,423,340,,Sold,,,https://www.redfin.com/VA/Clifton/6910-Clifton-Rd-20124/home/9725652,BRIGHT MLS,VAFX1146706,N,Y,38.7883798,-77.3919595
PAST SALE,June-10-2020,Single Family Residential,12900 Clifton Creek Dr,Clifton,VA,20124,1060000,4,4.0,CLIFTON CREEK RIDGE,6114,304624,2000,542,173,42,Sold,,,https://www.redfin.com/VA/Clifton/12900-Clifton-Creek-Dr-20124/home/9725656,BRIGHT MLS,VAFX1109096,N,Y,38.7806253,-77.3927752
PAST SALE,August-2-2019,Single Family Residential,7003 Clifton Forest Dr,Clifton,VA,20124,911000,5,3.5,CLIFTON FOREST,4100,220631,1976,855,222,,Sold,,,https://www.redfin.com/VA/Clifton/7003-Clifton-Forest-Dr-20124/home/9725662,BRIGHT MLS,VAFX1060228,N,Y,38.7894018,-77.395578
PAST SALE,April-9-2021,Single Family Residential,13001 Compton Rd,Clifton,VA,20124,895000,4,4.5,DUNDAS,4236,71029,1999,239,211,,Sold,,,https://www.redfin.com/VA/Clifton/13001-Compton-Rd-20124/home/9725663,BRIGHT MLS,VAFX1183324,N,Y,38.7913549,-77.3950399
PAST SALE,May-15-2019,Single Family Residential,6515 Hanover Heights Trl,Clifton,VA,20124,450000,4,3.0,SOUTHERN PINES,1997,217809,1976,934,225,,Sold,,,https://www.redfin.com/VA/Clifton/6515-Hanover-Heights-Trl-20124/home/9725783,BRIGHT MLS,VAFX1001324,N,Y,38.7923563,-77.3718081
PAST SALE,April-5-2021,Condo/Co-op,5800 Orchard Hill Ln,Clifton,VA,20124,310000,2,2.0,THE PONDS AT CENTREVILLE,966,,1989,243,321,382,Sold,,,https://www.redfin.com/VA/Clifton/5800-Orchard-Hill-Ln-20124/home/9675472,BRIGHT MLS,VAFX1183376,N,Y,38.831508,-77.41722
PAST SALE,April-15-2021,Single Family Residential,12208 Fairfax Station Rd,Fairfax Station,VA,22039,930000,4,3.5,CHADWICKE,4634,218379,1985,233,201,,Sold,,,https://www.redfin.com/VA/Fairfax-Station/12208-Fairfax-Station-Rd-22039/home/9725928,BRIGHT MLS,VAFX1184800,N,Y,38.7921315,-77.3684665
PAST SALE,March-12-2019,Single Family Residential,6729 Surbiton Dr,Clifton,VA,20124,880000,4,2.5,SURREY ACRES,4024,217830,1986,998,219,,Sold,,,https://www.redfin.com/VA/Clifton/6729-Surbiton-Dr-20124/home/9726288,BRIGHT MLS,1002291870,N,Y,38.7818215,-77.3579027
PAST SALE,,Single Family Residential,6616 Stonecrest Ln,Fairfax Station,VA,22039,1150000,5,6.5,,5898,219791,2003,,195,,,,,https://www.redfin.com/VA/Fairfax-Station/6616-Stonecrest-Ln-22039/home/9726341,,,N,Y,38.78419,-77.36142999
PAST SALE,,Single Family Residential,11511 Chapel Rd,Clifton,VA,20124,635000,4,3.5,,1880,104091,1969,,338,,,,,https://www.redfin.com/VA/Clifton/11511-Chapel-Rd-20124/home/9726407,,,N,Y,38.7825781,-77.3431432
PAST SALE,November-30-2020,Single Family Residential,11621 Chapel Rd,Clifton,VA,20124,789900,4,3.5,CHAPEL KNOLLS,3252,89228,1969,369,243,,Sold,,,https://www.redfin.com/VA/Clifton/11621-Chapel-Rd-20124/home/9726403,BRIGHT MLS,VAFX1160234,N,Y,38.7818244,-77.3469117
PAST SALE,,Single Family Residential,5825 Doyle Rd,Clifton,VA,20124,2000000,7,8.0,,15573,218018,2000,,128,,,,,https://www.redfin.com/VA/Clifton/5825-Doyle-Rd-20124/home/9684770,,,N,Y,38.8238823,-77.3906674
PAST SALE,,Single Family Residential,11915 Wolf Run Ln,Clifton,VA,20124,1550000,8,7.0,,6651,273966,2010,,233,,,,,https://www.redfin.com/VA/Clifton/11915-Wolf-Run-Ln-20124/home/9796724,,,N,Y,38.738471,-77.3606615
PAST SALE,June-29-2021,Single Family Residential,13645 Melstone Dr,Clifton,VA,20124,850000,5,2.5,LITTLE ROCKY RUN,3300,10939,1989,158,258,98,Sold,,,https://www.redfin.com/VA/Clifton/13645-Melstone-Dr-20124/home/9682085,BRIGHT MLS,VAFX1182744,N,Y,38.8168406,-77.4195672
PAST SALE,,Single Family Residential,12912 Yates Ford Rd,Clifton,VA,20124,470000,4,2.0,,2694,64499,1979,,174,,,,,https://www.redfin.com/VA/Clifton/12912-Yates-Ford-Rd-20124/home/9764314,,,N,Y,38.7693552,-77.3940533
PAST SALE,September-24-2021,Single Family Residential,6432 Colchester Rd,Fairfax Station,VA,22039,890000,4,3.5,KURT R MATTUSCH,2688,217800,1986,71,331,,Sold,,,https://www.redfin.com/VA/Fairfax-Station/6432-Colchester-Rd-22039/home/9726263,BRIGHT MLS,VAFX2012212,N,Y,38.789744,-77.3638934
PAST SALE,August-23-2019,Condo/Co-op,5831 Orchard Hill Ln,Clifton,VA,20124,253000,2,2.0,PONDS AT CENTREVILLE,971,,1989,834,261,323,Sold,,,https://www.redfin.com/VA/Clifton/5831-Orchard-Hill-Ln-20124/unit-5831/home/9675423,BRIGHT MLS,VAFX1078742,N,Y,38.832017,-77.416591
PAST SALE,July-15-2019,Single Family Residential,6801 Clifton Grove Ct,Clifton,VA,20124,910000,4,4.5,CLIFTON GROVE,4350,11550,2003,873,209,50,Sold,,,https://www.redfin.com/VA/Clifton/6801-Clifton-Grove-Ct-20124/home/9841189,BRIGHT MLS,VAFX1065788,N,Y,38.8061102,-77.423535
PAST SALE,April-12-2019,Single Family Residential,6141 Mountain Springs Ln,Clifton,VA,20124,620000,3,3.5,LITTLE ROCKY RUN,2878,9020,1987,967,215,77,Sold,,,https://www.redfin.com/VA/Clifton/6141-Mountain-Springs-Ln-20124/home/9671829,BRIGHT MLS,VAFX1003016,N,Y,38.8230161,-77.4190292
PAST SALE,July-16-2021,Condo/Co-op,13557 Orchard Dr #3557,Clifton,VA,20124,352100,3,2.0,THE PONDS AT CENTREVILLE,1355,,1989,141,260,488,Sold,,,https://www.redfin.com/VA/Clifton/13557-Orchard-Dr-20124/unit-3557/home/9684196,BRIGHT MLS,VAFX1205938,N,Y,38.831738,-77.414275
PAST SALE,June-28-2019,Single Family Residential,6289 Clifton Rd,Clifton,VA,20124,969000,5,4.0,CLIFTON DOWNS,5800,370260,1985,890,167,,Sold,,,https://www.redfin.com/VA/Clifton/6289-Clifton-Rd-20124/home/9685787,BRIGHT MLS,VAFX748656,N,Y,38.810675,-77.393415
PAST SALE,July-20-2021,Single Family Residential,13309 Green Mallard Ct,Clifton,VA,20124,835000,4,3.5,CENTREVILLE GREEN,3450,11143,1992,137,242,70,Sold,,,https://www.redfin.com/VA/Clifton/13309-Green-Mallard-Ct-20124/home/9604042,BRIGHT MLS,VAFX2003098,N,Y,38.8337991,-77.408201
PAST SALE,July-16-2021,Single Family Residential,12665 Mill Dam Dr,Clifton,VA,20124,1610000,4,4.0,MILL BRANCH,7130,217809,1990,141,226,83,Sold,,,https://www.redfin.com/VA/Clifton/12665-Mill-Dam-Dr-20124/home/9764403,BRIGHT MLS,VAFX1208470,N,Y,38.7610378,-77.3814736
PAST SALE,July-6-2021,Single Family Residential,12215 Cliffwood Ct,Clifton,VA,20124,775000,3,3.0,CLIFTON WOODS,2499,217809,1975,151,310,,Sold,,,https://www.redfin.com/VA/Clifton/12215-Cliffwood-Ct-20124/home/9764758,BRIGHT MLS,VAFX1202130,N,Y,38.7635089,-77.3724136
PAST SALE,July-31-2019,Condo/Co-op,5833 Orchard Hill Ln,Clifton,VA,20124,194500,1,1.0,PONDS AT CENTREVILLE,738,,1989,857,264,246,Sold,,,https://www.redfin.com/VA/Clifton/5833-Orchard-Hill-Ln-20124/home/9675425,BRIGHT MLS,VAFX1060494,N,Y,38.832017,-77.416591
PAST SALE,October-4-2019,Single Family Residential,13912 Rock Still Ct,Clifton,VA,20124,782000,5,4.0,LITTLE ROCKY RUN,5116,11134,1994,792,153,77,Sold,,,https://www.redfin.com/VA/Clifton/13912-Rock-Still-Ct-20124/home/9683234,BRIGHT MLS,VAFX1087280,N,Y,38.8089433,-77.4268302
PAST SALE,March-3-2020,Single Family Residential,13725 Balmoral Greens Ave,Clifton,VA,20124,1050000,4,5.5,BALMORAL GREENS,6528,73572,1997,641,161,48,Sold,,,https://www.redfin.com/VA/Clifton/13725-Balmoral-Greens-Ave-20124/home/9725169,BRIGHT MLS,VAFX1088370,N,Y,38.7867902,-77.425687
PAST SALE,August-16-2021,Townhouse,5722 Osprey Ct,Clifton,VA,20124,408000,2,2.5,PT CENTREVILLE GREEN,1428,1200,1992,110,286,100,Sold,,,https://www.redfin.com/VA/Clifton/5722-Osprey-Ct-20124/home/9603305,BRIGHT MLS,VAFX2007182,N,Y,38.8351616,-77.4144374
PAST SALE,October-29-2021,Single Family Residential,12800 Richards Ln,Clifton,VA,20124,620000,4,2.5,CLIFTON,3168,347857,1925,36,196,,Sold,,,https://www.redfin.com/VA/Clifton/12800-Richards-Ln-20124/home/9725596,BRIGHT MLS,VAFX2002170,N,Y,38.7805545,-77.3886269
PAST SALE,September-30-2019,Single Family Residential,13104 Laurel Glen Rd,Clifton,VA,20124,1875000,6,8.0,LAUREL GLEN,12785,217800,2007,796,147,8,Sold,,,https://www.redfin.com/VA/Clifton/13104-Laurel-Glen-Rd-20124/home/9685747,BRIGHT MLS,VAFX1080566,N,Y,38.8088992,-77.3996812
PAST SALE,September-9-2020,Townhouse,5602 Gosling Ct,Clifton,VA,20124,435000,2,3.5,CENTREVILLE GREEN,2068,1500,1991,451,210,100,Sold,,,https://www.redfin.com/VA/Clifton/5602-Gosling-Ct-20124/home/9603556,BRIGHT MLS,VAFX1146460,N,Y,38.837595,-77.412732
PAST SALE,,Vacant Land,,CLIFTON,VA,20124,425000,,,,,304923,,,,,,,,https://www.redfin.com/VA/CLIFTON/Unknown-20124/home/172392251,,,N,Y,38.7967,-77.3955
PAST SALE,May-19-2021,Single Family Residential,13425 Cavalier Woods Dr,Clifton,VA,20124,760000,4,3.5,CAVALIER WOODS,3281,8798,1987,199,232,38,Sold,,,https://www.redfin.com/VA/Clifton/13425-Cavalier-Woods-Dr-20124/home/9602095,BRIGHT MLS,VAFX1188634,N,Y,38.8373463,-77.4111324
PAST SALE,March-4-2021,Single Family Residential,13819 Springstone Dr,Clifton,VA,20124,700000,4,3.5,LITTLE ROCKY RUN,2144,9818,1987,275,326,95,Sold,,,https://www.redfin.com/VA/Clifton/13819-Springstone-Dr-20124/home/9672281,BRIGHT MLS,VAFX1176008,N,Y,38.820619,-77.4250818
PAST SALE,March-1-2021,Single Family Residential,12722 Clifton Heights Ln,Clifton,VA,20124,1386000,4,4.5,CLIFTON HEIGHTS,4982,47047,2000,278,278,21,Sold,,,https://www.redfin.com/VA/Clifton/12722-Clifton-Heights-Ln-20124/home/9835755,BRIGHT MLS,VAFX1174952,N,Y,38.7769782,-77.386833
PAST SALE,August-29-2019,Single Family Residential,6420 Woodland Run Ct,Clifton,VA,20124,830000,5,4.0,LITTLE ROCKY RUN,5100,47731,1987,828,163,86,Sold,,,https://www.redfin.com/VA/Clifton/6420-Woodland-Run-Ct-20124/home/9680032,BRIGHT MLS,VAFX1004018,N,Y,38.8118513,-77.4184463
PAST SALE,November-24-2021,Single Family Residential,12520 Paradise Spg,Clifton,VA,20124,1225000,5,6.0,PARADISE SPRING,8145,217800,1985,10,150,50,Sold,,,https://www.redfin.com/VA/Clifton/12520-Paradise-Spring-Rd-20124/home/9725670,BRIGHT MLS,VAFX2028156,N,Y,38.7890125,-77.3824379
PAST SALE,July-15-2021,Single Family Residential,13627 Union Village Cir,Clifton,VA,20124,855000,4,3.5,LITTLE ROCKY RUN,4260,9604,1986,142,201,98,Sold,,,https://www.redfin.com/VA/Clifton/13627-Union-Village-Cir-20124/home/9671670,BRIGHT MLS,VAFX1200816,N,Y,38.8221922,-77.4188498
PAST SALE,July-16-2021,Single Family Residential,6568 Rockland Dr,Clifton,VA,20124,783000,5,3.5,LITTLE ROCKY RUN,2836,9582,1987,141,276,95,Sold,,,https://www.redfin.com/VA/Clifton/6568-Rockland-Dr-20124/home/9680486,BRIGHT MLS,VAFX2003306,N,Y,38.8157481,-77.4231988
PAST SALE,July-2-2021,Single Family Residential,6127 Clifton Rd,Clifton,VA,20124,1200000,4,4.0,TWIN LAKES VIEW,6201,87120,1986,155,194,,Sold,,,https://www.redfin.com/VA/Clifton/6127-Clifton-Rd-20124/home/9685681,BRIGHT MLS,VAFX1200694,N,Y,38.8144291,-77.3965421
PAST SALE,January-30-2020,Single Family Residential,13101 Loth Lorian Dr,Clifton,VA,20124,1450000,6,8.0,LOTH LORIAN,12020,217800,1991,674,121,,Sold,,,https://www.redfin.com/VA/Clifton/13101-Loth-Lorian-Dr-20124/home/9686168,BRIGHT MLS,VAFX1098488,N,Y,38.8120102,-77.3950174
PAST SALE,June-23-2020,Single Family Residential,7508 Detwiller Dr,Clifton,VA,20124,1065000,5,4.5,BALMORAL GREENS,3693,38829,1998,529,288,48,Sold,,,https://www.redfin.com/VA/Clifton/7508-Detwiller-Dr-20124/home/9725182,BRIGHT MLS,VAFX1112396,N,Y,38.7845995,-77.4218314
PAST SALE,,Single Family Residential,12635 Chapel Rd,Clifton,VA,20124,1000000,3,2.5,,2690,11411,1900,,372,,,,,https://www.redfin.com/VA/Clifton/12635-Chapel-Rd-20124/home/172393316,,,N,Y,38.78186,-77.382773
PAST SALE,July-16-2021,Single Family Residential,12820 Dunvegan Dr,Clifton,VA,20124,1249000,6,6.5,GLENCAIRN,7452,221420,1998,141,168,232,Sold,,,https://www.redfin.com/VA/Clifton/12820-Dunvegan-Dr-20124/home/9764374,BRIGHT MLS,VAFX1195318,N,Y,38.7742263,-77.3894566
PAST SALE,August-27-2020,Single Family Residential,13944 South Springs Dr,Clifton,VA,20124,702200,4,3.5,LITTLE ROCKY RUN,3652,8649,1992,464,192,95,Sold,,,https://www.redfin.com/VA/Clifton/13944-S-Springs-Dr-20124/home/9682401,BRIGHT MLS,VAFX1138502,N,Y,38.8169533,-77.4283545
PAST SALE,,Other,6289 Clifton Rd,Clifton,VA,20124,20000,,,,,137759,,,,,,,,https://www.redfin.com/VA/Clifton/6289-Clifton-Rd-20124/home/162711392,,,N,Y,38.810675,-77.393415
PAST SALE,October-18-2021,Single Family Residential,12401 Clifton Hunt Dr,Clifton,VA,20124,950000,5,3.5,CLIFTON HUNT,6500,225275,1987,47,146,83,Sold,,,https://www.redfin.com/VA/Clifton/12401-Clifton-Hunt-Dr-20124/home/9764431,BRIGHT MLS,VAFX2018848,N,Y,38.75665,-77.3744768
PAST SALE,April-12-2019,Single Family Residential,6716 Bunkers Ct,Clifton,VA,20124,690000,4,3.5,UNION MILL ESTATES,4876,16589,1994,967,142,,Sold,,,https://www.redfin.com/VA/Clifton/6716-Bunkers-Ct-20124/home/9683472,BRIGHT MLS,VAFX871244,N,Y,38.806602,-77.4230643
PAST SALE,December-2-2019,Single Family Residential,7517 Quigg St,Clifton,VA,20124,965000,5,4.5,BALMORAL GREENS,5226,45493,1999,733,185,48,Sold,,,https://www.redfin.com/VA/Clifton/7517-Quigg-St-20124/home/9725488,BRIGHT MLS,VAFX1090154,N,Y,38.7834841,-77.4143662
PAST SALE,July-2-2020,Single Family Residential,7520 Weymouth Hill Rd,Clifton,VA,20124,1150000,4,5.5,BALMORAL GREENS,4712,37945,2000,520,244,48,Sold,,,https://www.redfin.com/VA/Clifton/7520-Weymouth-Hill-Rd-20124/home/9725198,BRIGHT MLS,VAFX1127406,N,Y,38.7831456,-77.420307
PAST SALE,April-29-2021,Single Family Residential,6703 Bunkers Ct,Clifton,VA,20124,1195000,6,6.5,UNION MILL ESTATES,6179,37878,1995,219,193,,Sold,,,https://www.redfin.com/VA/Clifton/6703-Bunkers-Ct-20124/home/9683458,BRIGHT MLS,VAFX1183976,N,Y,38.8068631,-77.420845
PAST SALE,July-28-2020,Single Family Residential,6409 Stonehaven Ct,Clifton,VA,20124,780000,4,3.5,LITTLE ROCKY RUN,4048,9005,1988,494,193,95,Sold,,,https://www.redfin.com/VA/Clifton/6409-Stonehaven-Ct-20124/home/9682275,BRIGHT MLS,VAFX1132288,N,Y,38.8176637,-77.4239834
PAST SALE,April-3-2020,Single Family Residential,14007 Marblestone Ct,Clifton,VA,20124,695000,4,3.5,LITTLE ROCKY RUN,3252,14982,1988,610,214,90,Sold,,,https://www.redfin.com/VA/Clifton/14007-Marblestone-Ct-20124/home/9680894,BRIGHT MLS,VAFX1116396,N,Y,38.8099629,-77.4302823
PAST SALE,December-31-2019,Single Family Residential,7212 Redlac Dr,Clifton,VA,20124,715000,4,3.0,REDLAC FOREST,2508,223572,1984,704,285,33,Sold,,,https://www.redfin.com/VA/Clifton/7212-Redlac-Dr-20124/home/9764515,BRIGHT MLS,VAFX1077952,N,Y,38.7749332,-77.3672105
PAST SALE,October-30-2020,Vacant Land,12901 Clifton Creek Dr Lot 2A,Clifton,VA,20124,496000,,,CLIFTON CREEK,,237955,,400,,33,Sold,,,https://www.redfin.com/VA/Clifton/12903-Clifton-Creek-Dr-20124/home/162667936,BRIGHT MLS,VAFX1134066,N,Y,38.780075,-77.394752
PAST SALE,September-6-2019,Single Family Residential,13824 Springstone Dr,Clifton,VA,20124,669000,4,3.5,LITTLE ROCKY RUN,4176,9770,1987,820,160,81,Sold,,,https://www.redfin.com/VA/Clifton/13824-Springstone-Dr-20124/home/9672529,BRIGHT MLS,VAFX1077792,N,Y,38.8213381,-77.4250369
PAST SALE,June-30-2021,Single Family Residential,6419 Woodland Run Ct,Clifton,VA,20124,1008000,4,4.5,LITTLE ROCKY RUN,3644,41943,1987,157,277,95,Sold,,,https://www.redfin.com/VA/Clifton/6419-Woodland-Run-Ct-20124/home/9680000,BRIGHT MLS,VAFX1203014,N,Y,38.8119144,-77.4175496
PAST SALE,October-29-2019,Townhouse,5653 White Dove Ln,Clifton,VA,20124,335000,2,2.5,PT CENTREVILLE GREEN,1474,1200,1993,767,227,128,Sold,,,https://www.redfin.com/VA/Clifton/5653-White-Dove-Ln-20124/home/9603951,BRIGHT MLS,VAFX1091440,N,Y,38.8357813,-77.4130099
PAST SALE,January-10-2019,Single Family Residential,6617 Rock Lawn Dr,Clifton,VA,20124,680000,5,3.5,LITTLE ROCKY RUN,4266,11107,1992,1059,159,77,Sold,,,https://www.redfin.com/VA/Clifton/6617-Rock-Lawn-Dr-20124/home/9683399,BRIGHT MLS,VAFX746968,N,Y,38.8101545,-77.4239161
PAST SALE,July-1-2021,Townhouse,5509 Quail Ct,Clifton,VA,20124,550000,3,3.5,CENTREVILLE GREEN BGAR,2273,2533,1992,156,242,100,Sold,,,https://www.redfin.com/VA/Clifton/5509-Quail-Ct-20124/home/9602710,BRIGHT MLS,VAFX1204736,N,Y,38.8387182,-77.4124719
PAST SALE,,Other,13764 Balmoral Greens Ave,Clifton,VA,20124,583940,,,,,297435,,,,,,,,https://www.redfin.com/VA/Clifton/13764-Balmoral-Greens-Ave-20124/home/21706544,,,N,Y,38.7892676,-77.4271889
PAST SALE,July-17-2020,Single Family Residential,6620 Horseshoe Trl,Clifton,VA,20124,998000,5,5.0,PROSPECT HILLS,6775,261364,1989,505,147,,Sold,,,https://www.redfin.com/VA/Clifton/6620-Horseshoe-Trl-20124/home/9726365,BRIGHT MLS,VAFX1104670,N,Y,38.7823843,-77.349267
PAST SALE,May-2-2019,Single Family Residential,11810 Henderson Rd,Clifton,VA,20124,500000,4,2.0,FARR,2474,97945,1966,947,202,,Sold,,,https://www.redfin.com/VA/Clifton/11810-Henderson-Rd-20124/home/9796689,BRIGHT MLS,VAFX996692,N,Y,38.7365195,-77.3555251
PAST SALE,November-16-2021,Single Family Residential,12395 Henderson Rd,Clifton,VA,20124,1195000,4,4.5,CLIFTON HUNT,5983,219577,1987,18,200,83,Sold,,,https://www.redfin.com/VA/Clifton/12395-Henderson-Rd-20124/home/9764430,BRIGHT MLS,VAFX2012880,N,Y,38.7555916,-77.3741853
PAST SALE,December-9-2020,Vacant Land,11812 Winterway Ln,Fairfax Station,VA,22039,375000,,,GLENVERDANT,,218968,,360,,42,Sold,,,https://www.redfin.com/VA/Fairfax-Station/11812-Winterway-Ln-22039/home/17115448,BRIGHT MLS,VAFX1150752,N,Y,38.751931,-77.359179
PAST SALE,October-25-2021,Townhouse,13038 Quartz Ln,Clifton,VA,20124,531000,3,3.0,ROCKPOINTE,1736,1793,1991,40,306,133,Sold,,,https://www.redfin.com/VA/Clifton/13038-Quartz-Ln-20124/home/9684613,BRIGHT MLS,VAFX2019828,N,Y,38.831699,-77.4003
PAST SALE,,Single Family Residential,12233 Chapel Rd,Clifton,VA,20124,640000,3,2.5,,3286,219900,1988,,195,,,,,https://www.redfin.com/VA/Clifton/12233-Chapel-Rd-20124/home/9726318,,,N,Y,38.7777148,-77.3727724
PAST SALE,May-27-2021,Single Family Residential,6305 S Springs Cir,Clifton,VA,20124,785000,4,3.5,LITTLE ROCKY RUN,3160,11270,1988,191,248,109,Sold,,,https://www.redfin.com/VA/Clifton/6305-S-Springs-Cir-20124/home/9682208,BRIGHT MLS,VAFX1190382,N,Y,38.8185088,-77.4206657
PAST SALE,March-17-2020,Condo/Co-op,5837 Orchard Hill Ct,Clifton,VA,20124,275000,2,2.0,PONDS AT,1031,,1990,627,267,354,Sold,,,https://www.redfin.com/VA/Clifton/5837-Orchard-Hill-Ct-20124/home/9596838,BRIGHT MLS,VAFX1111006,N,Y,38.833633,-77.416835
PAST SALE,May-14-2021,Townhouse,13024 Quartz Ln,Clifton,VA,20124,580000,3,3.0,ROCKPOINTE,1586,1793,1992,204,366,133,Sold,,,https://www.redfin.com/VA/Clifton/13024-Quartz-Ln-20124/home/9684601,BRIGHT MLS,VAFX1193226,N,Y,38.832177,-77.3999709
PAST SALE,May-14-2021,Single Family Residential,13312 Sturno Dr,Clifton,VA,20124,870000,4,4.5,CLIFTON PINES II,3703,12998,2000,204,235,,Sold,,,https://www.redfin.com/VA/Clifton/13312-Sturno-Dr-20124/home/9684736,BRIGHT MLS,VAFX1201084,N,Y,38.8324502,-77.4096583
PAST SALE,April-2-2021,Single Family Residential,13316 Sturno Dr,Clifton,VA,20124,1225000,5,5.0,CLIFTON PINES II,5613,8852,2020,246,218,100,Sold,,,https://www.redfin.com/VA/Clifton/13316-Sturno-Dr-20124/home/162492626,BRIGHT MLS,VAFX1141950,N,Y,38.832244,-77.410225
PAST SALE,,Single Family Residential,6748 Rock Brook Dr,Clifton,VA,20124,750000,4,3.5,,2182,11296,1994,,344,,,,,https://www.redfin.com/VA/Clifton/6748-Rock-Brook-Dr-20124/home/9683207,,,N,Y,38.8070979,-77.4283545
PAST SALE,December-3-2021,Single Family Residential,5690 Colchester Rd,Clifton,VA,20124,2330000,7,6.5,GRACE J KELLEY,7158,285459,2018,1,326,,Sold,,,https://www.redfin.com/VA/Clifton/5690-Colchester-Rd-20124/home/167761271,BRIGHT MLS,VAFX2027020,N,Y,38.8243231,-77.3849494
PAST SALE,March-30-2020,Single Family Residential,13640 Rock Flint Ct,Clifton,VA,20124,775000,4,3.5,LITTLE ROCKY RUN,4601,13324,1986,614,168,81,Sold,,,https://www.redfin.com/VA/Clifton/13640-Rock-Flint-Ct-20124/home/9680128,BRIGHT MLS,VAFX1113926,N,Y,38.8151843,-77.4202397
PAST SALE,April-17-2020,Single Family Residential,12409 Old Yates Ford Rd,Clifton,VA,20124,1050000,5,5.5,P A CLIFFORD PROP,5115,171692,2007,596,205,,Sold,,,https://www.redfin.com/VA/Clifton/12409-Old-Yates-Ford-Rd-20124/home/17114839,BRIGHT MLS,VAFX1113892,N,Y,38.745354,-77.3748132
PAST SALE,May-2-2019,Single Family Residential,7513 Cannon Fort Dr,Clifton,VA,20124,985000,5,4.5,BALMORAL GREENS,5328,55637,1997,947,185,78,Sold,,,https://www.redfin.com/VA/Clifton/7513-Cannon-Fort-Dr-20124/home/9725166,BRIGHT MLS,VAFX867038,N,Y,38.7847885,-77.4263371
PAST SALE,April-1-2020,Single Family Residential,13109 Laurel Glen Rd,Clifton,VA,20124,805000,4,4.0,LAUREL GLEN,3059,217800,1978,612,263,8,Sold,,,https://www.redfin.com/VA/Clifton/13109-Laurel-Glen-Rd-20124/home/9685764,BRIGHT MLS,VAFX1115664,N,Y,38.8078353,-77.4015421
PAST SALE,October-15-2021,Single Family Residential,8104 Flossie Ln,Clifton,VA,20124,1079000,5,3.5,FLOSSIE E COMPTON SUBD,4080,217800,1992,50,264,,Sold,,,https://www.redfin.com/VA/Clifton/8104-Flossie-Ln-20124/home/9796666,BRIGHT MLS,VAFX2009266,N,Y,38.7475601,-77.3776837
PAST SALE,July-9-2020,Condo/Co-op,13546 Orchard Dr #3546,Clifton,VA,20124,222000,1,1.0,PONDS AT CENTREVILLE THE,831,,1989,513,267,291,Sold,,,https://www.redfin.com/VA/Clifton/13546-Orchard-Dr-20124/unit-3546/home/9684373,BRIGHT MLS,VAFX1130104,N,Y,38.831579,-77.414998
PAST SALE,May-10-2021,Single Family Residential,12406 Clifton Hunt Dr,Clifton,VA,20124,1335001,4,5.5,CLIFTON HUNT,5821,217839,1987,208,229,83,Sold,,,https://www.redfin.com/VA/Clifton/12406-Clifton-Hunt-Dr-20124/home/9764452,BRIGHT MLS,VAFX1189532,N,Y,38.7569617,-77.3789844
PAST SALE,October-8-2020,Single Family Residential,12204 Clifton Spring Dr,Clifton,VA,20124,1160000,5,4.5,CLIFTON GREEN,5567,218275,1996,422,208,42,Sold,,,https://www.redfin.com/VA/Clifton/12204-Clifton-Spring-Dr-20124/home/9725939,BRIGHT MLS,VAFX1148684,N,Y,38.7978041,-77.369386
PAST SALE,July-16-2019,Single Family Residential,6419 Stonehaven Ct,Clifton,VA,20124,702000,4,3.5,LITTLE ROCKY RUN,2382,8539,1988,872,295,81,Sold,,,https://www.redfin.com/VA/Clifton/6419-Stonehaven-Ct-20124/home/9682272,BRIGHT MLS,VAFX1058216,N,Y,38.8175472,-77.4234678
PAST SALE,August-31-2020,Single Family Residential,7241 Dell Ave,Clifton,VA,20124,1675000,5,4.5,CLIFTON,6400,160283,2012,460,262,,Sold,,,https://www.redfin.com/VA/Clifton/7241-Dell-Ave-20124/home/17126368,BRIGHT MLS,VAFX1141366,N,Y,38.7774115,-77.3839852
PAST SALE,December-3-2021,Condo/Co-op,13577 Orchard Dr #3577,Clifton,VA,20124,319500,2,2.0,PONDS AT CENTREVILLE CON,1012,,1989,1,316,365,Sold,,,https://www.redfin.com/VA/Clifton/13577-Orchard-Dr-20124/unit-3577/home/9684217,BRIGHT MLS,VAFX2027062,N,Y,38.8314049,-77.413905
PAST SALE,October-30-2019,Single Family Residential,13916 Rock Brook Ct,Clifton,VA,20124,685000,5,3.5,LITTLE ROCKY RUN,3116,9862,1994,766,220,90,Sold,,,https://www.redfin.com/VA/Clifton/13916-Rock-Brook-Ct-20124/home/9683163,BRIGHT MLS,VAFX1089066,N,Y,38.8070074,-77.4267854
PAST SALE,May-18-2021,Single Family Residential,5609 Braddock Farms Way,Clifton,VA,20124,1070000,4,4.5,BRADDOCK FARMS,7658,25080,1989,200,140,32,Sold,,,https://www.redfin.com/VA/Clifton/5609-Braddock-Farms-Way-20124/home/9685602,BRIGHT MLS,VAFX1193190,N,Y,38.8267603,-77.3879318
PAST SALE,July-9-2021,Townhouse,5664 Gosling Dr,Clifton,VA,20124,475000,2,3.5,CENTREVILLE GREEN,1594,1500,1993,148,298,100,Sold,,,https://www.redfin.com/VA/Clifton/5664-Gosling-Dr-20124/home/9603057,BRIGHT MLS,VAFX1205060,N,Y,38.836511,-77.414782
PAST SALE,,Townhouse,13692 Wildflower Ln,Clifton,VA,20124,340000,3,3.5,,1288,1400,1987,,264,,,,,https://www.redfin.com/VA/Clifton/13692-Wildflower-Ln-20124/home/9672722,,,N,Y,38.8290886,-77.4177164
PAST SALE,,Single Family Residential,7500 Willowbrook Rd,Fairfax Station,VA,22039,875000,4,2.5,,2960,220414,1979,,296,,,,,https://www.redfin.com/VA/Fairfax-Station/7500-Willowbrook-Rd-22039/home/9764988,,,N,Y,38.7515802,-77.3485716
PAST SALE,April-7-2021,Single Family Residential,6506 Rock Crystal Dr,Clifton,VA,20124,849900,5,4.5,LITTLE ROCKY RUN,4108,14513,1992,241,207,97,Sold,,,https://www.redfin.com/VA/Clifton/6506-Rock-Crystal-Dr-20124/home/9683428,BRIGHT MLS,VAFX1183284,N,Y,38.8109414,-77.4215399
PAST SALE,April-29-2021,Single Family Residential,6707 Colewood Estates Rd,Clifton,VA,20124,980000,5,3.0,COLEWOOD ESTATES,4074,143356,1977,219,241,,Sold,,,https://www.redfin.com/VA/Clifton/6707-Colewood-Estates-Rd-20124/home/9726315,BRIGHT MLS,VAFX1187352,N,Y,38.788118,-77.3713147
PAST SALE,October-8-2021,Single Family Residential,13804 Springstone Dr,Clifton,VA,20124,595000,4,2.5,LITTLE ROCKY RUN,2136,8735,1986,57,279,98,Sold,,,https://www.redfin.com/VA/Clifton/13804-Springstone-Dr-20124/home/9672549,BRIGHT MLS,VAFX2011730,N,Y,38.8205589,-77.423423
PAST SALE,May-15-2019,Single Family Residential,12421 Fairfax Station Rd,Clifton,VA,20124,850000,4,3.5,CASTLE BRANCH,1925,225684,1948,934,442,,Sold,,,https://www.redfin.com/VA/Clifton/12421-Fairfax-Station-Rd-20124/home/9725550,BRIGHT MLS,VAFX1062148,N,Y,38.7904485,-77.377908
PAST SALE,September-4-2020,Single Family Residential,13415 Trey Ln,Clifton,VA,20124,710000,4,3.5,CENTREVILLE GREEN,3570,8529,1992,456,199,67,Sold,,,https://www.redfin.com/VA/Clifton/13415-Trey-Ln-20124/home/9604074,BRIGHT MLS,VAFX1152862,N,Y,38.834128,-77.409649
PAST SALE,November-17-2021,Single Family Residential,13901 Stonefield,Clifton,VA,20124,820000,5,3.5,LITTLE ROCKY RUN,3434,8500,1987,17,239,98,Sold,,,https://www.redfin.com/VA/Clifton/13901-Stonefield-Dr-20124/home/9680686,BRIGHT MLS,VAFX2001537,N,Y,38.8124045,-77.4231539
PAST SALE,March-9-2020,Townhouse,13508 Little Brook Dr,Clifton,VA,20124,410000,4,3.5,SEQOIA LEA,1848,1200,1991,635,222,87,Sold,,,https://www.redfin.com/VA/Clifton/13508-Little-Brook-Dr-20124/home/9684096,BRIGHT MLS,VAFX1109888,N,Y,38.827462,-77.413916
PAST SALE,April-6-2021,Townhouse,13603 Wildflower Ln,Clifton,VA,20124,455000,3,3.5,SEQOIA LEA,1280,1320,1987,242,355,105,Sold,,,https://www.redfin.com/VA/Clifton/13603-Wildflower-Ln-20124/home/9683946,BRIGHT MLS,VAFX1184244,N,Y,38.8286019,-77.41585
PAST SALE,February-28-2020,Single Family Residential,5514 Hampton Forest Way,Fairfax,VA,22030,620017,4,2.5,HAMPTON FOREST,2314,14843,1985,645,268,38,Sold,,,https://www.redfin.com/VA/Fairfax/5514-Hampton-Forest-Way-22030/home/9684932,BRIGHT MLS,VAFX1107486,N,Y,38.8328933,-77.3956677
PAST SALE,April-2-2019,Single Family Residential,12231 Henderson Rd,Clifton,VA,20124,745000,5,4.0,FORDS MILL ROAD,2516,87120,1925,977,296,,Sold,,,https://www.redfin.com/VA/Clifton/12231-Henderson-Rd-20124/home/9796682,BRIGHT MLS,VAFX999186,N,Y,38.7442545,-77.3721221
PAST SALE,,Townhouse,13014 Limestone Ct,Clifton,VA,20124,470000,3,3.5,,1586,1793,1994,,296,,,,,https://www.redfin.com/VA/Clifton/13014-Limestone-Ct-20124/home/9604515,,,N,Y,38.834695,-77.397695
PAST SALE,March-23-2021,Single Family Residential,13605 Union Village Cir,Clifton,VA,20124,840000,4,3.5,LITTLE ROCKY RUN,4140,9554,1986,256,203,95,Sold,,,https://www.redfin.com/VA/Clifton/13605-Union-Village-Cir-20124/home/9671604,BRIGHT MLS,VAFX1181608,N,Y,38.8232543,-77.4167874
PAST SALE,June-25-2020,Single Family Residential,11902 Henderson Ct,Clifton,VA,20124,855000,4,4.5,ASHLEIGH OF CLIFTON,6802,50119,1995,527,126,33,Sold,,,https://www.redfin.com/VA/Clifton/11902-Henderson-Ct-20124/home/9796805,BRIGHT MLS,VAFX1114786,N,Y,38.7365952,-77.3582391
PAST SALE,October-22-2021,Single Family Residential,13615 White Stone Ct,Clifton,VA,20124,910000,4,3.5,LITTLE ROCKY RUN,4353,16689,1988,43,209,107,Sold,,,https://www.redfin.com/VA/Clifton/13615-White-Stone-Ct-20124/home/9685828,BRIGHT MLS,VAFX2023766,N,Y,38.8183192,-77.4137609
PAST SALE,September-12-2019,Townhouse,6001 Little Brook Ct,Clifton,VA,20124,340790,3,2.5,SEQUOIA LEA,1688,2071,1986,814,202,91,Sold,,,https://www.redfin.com/VA/Clifton/6001-Little-Brook-Ct-20124/home/9683880,BRIGHT MLS,VAFX1071486,N,Y,38.828106,-77.4139579
PAST SALE,August-16-2019,Single Family Residential,6806 Candy Ln,Clifton,VA,20124,844900,4,3.5,WILGUSON HILLS,3376,228045,1974,841,250,17,Sold,,,https://www.redfin.com/VA/Clifton/6806-Candy-Ln-20124/home/9725400,BRIGHT MLS,VAFX1068676,N,Y,38.7942077,-77.389479
PAST SALE,April-17-2020,Condo/Co-op,13573 Orchard Dr #3573,Clifton,VA,20124,290000,2,2.0,PONDS AT CENTREVILLE THE,1007,,1989,596,288,354,Sold,,,https://www.redfin.com/VA/Clifton/13573-Orchard-Dr-20124/unit-3573/home/9684212,BRIGHT MLS,VAFX1110926,N,Y,38.8314049,-77.413905
PAST SALE,June-7-2019,Single Family Residential,13918 Marblestone Dr,Clifton,VA,20124,697000,4,3.5,LITTLE ROCKY RUN,3034,8500,1987,911,230,81,Sold,,,https://www.redfin.com/VA/Clifton/13918-Marblestone-Dr-20124/home/9680967,BRIGHT MLS,VAFX1049614,N,Y,38.8139328,-77.427951
PAST SALE,February-26-2021,Condo/Co-op,5859 Orchard Hill Ln #5859,Clifton,VA,20124,291000,2,2.0,THE PONDS AT CENTREVILLE,1031,,1989,281,282,372,Sold,,,https://www.redfin.com/VA/Clifton/5859-Orchard-Hill-Ln-20124/unit-5859/home/9684127,BRIGHT MLS,VAFX1178310,N,Y,38.83212,-77.415781
PAST SALE,July-20-2021,Townhouse,5514 Quail Ct,Clifton,VA,20124,547500,3,3.5,CENTREVILLE GREEN BGAR,2330,1760,1992,137,235,100,Sold,,,https://www.redfin.com/VA/Clifton/5514-Quail-Ct-20124/home/9602758,BRIGHT MLS,VAFX1207050,N,Y,38.838471,-77.412778
PAST SALE,July-21-2021,Single Family Residential,6415 Deepwood Farm Dr,Clifton,VA,20124,980000,4,4.5,DEEPWOOD FARMS,4644,8552,2004,136,211,98,Sold,,,https://www.redfin.com/VA/Clifton/6415-Deepwood-Farm-Dr-20124/home/9844105,BRIGHT MLS,VAFX1209184,N,Y,38.8167398,-77.4212261
PAST SALE,July-22-2021,Single Family Residential,6512 Stallion Rd,Clifton,VA,20124,2148000,5,6.0,CLOVERLEAF FARM ESTATES,9127,229605,2006,135,235,,Sold,,,https://www.redfin.com/VA/Clifton/6512-Stallion-Rd-20124/home/9725342,BRIGHT MLS,VAFX1190988,N,Y,38.7988418,-77.3921249
PAST SALE,July-28-2021,Single Family Residential,12644 School St,Clifton,VA,20124,525000,2,1.0,CLIFTON,900,10560,1952,129,583,,Sold,,,https://www.redfin.com/VA/Clifton/12644-School-St-20124/home/9725625,BRIGHT MLS,VAFX2005436,N,Y,38.7806377,-77.3842318
PAST SALE,December-31-2020,Vacant Land,6850 Clifton Rd,Clifton,VA,20124,539000,,,CHARLES R LINTON PROPERT,,217800,,338,,,Sold,,,https://www.redfin.com/VA/Clifton/6850-Clifton-Rd-20124/home/45402615,BRIGHT MLS,VAFX1173920,N,Y,38.790113,-77.392707
PAST SALE,May-3-2019,Single Family Residential,12402 Old Yates Ford Rd,Clifton,VA,20124,925000,5,4.5,WOLF RUN ROAD,5100,261334,2000,946,181,,Sold,,,https://www.redfin.com/VA/Clifton/12402-Old-Yates-Ford-Rd-20124/home/9796679,BRIGHT MLS,VAFX1000852,N,Y,38.7474104,-77.3737368
PAST SALE,October-29-2021,Single Family Residential,7223 Dell Ave,Clifton,VA,20124,575000,2,1.0,CLIFTON,840,6100,1904,36,685,,Sold,,,https://www.redfin.com/VA/Clifton/7223-Dell-Ave-20124/home/9764306,BRIGHT MLS,VAFX2016502,N,Y,38.7777976,-77.3848485
PAST SALE,August-19-2019,Single Family Residential,13826 Foggy Hills Ct,Clifton,VA,20124,750000,5,4.5,LITTLE ROCKY RUN,4364,12242,1987,838,172,81,Sold,,,https://www.redfin.com/VA/Clifton/13826-Foggy-Hills-Ct-20124/home/9680401,BRIGHT MLS,VAFX1078684,N,Y,38.8154303,-77.4250818
PAST SALE,August-30-2021,Townhouse,13054 Harvest Pl,Clifton,VA,20124,530000,3,3.5,ROCKPOINTE,1782,1892,1994,96,297,133,Sold,,,https://www.redfin.com/VA/Clifton/13054-Harvest-Pl-20124/home/9604393,BRIGHT MLS,VAFX2000994,N,Y,38.835711,-77.397408
PAST SALE,July-26-2019,Single Family Residential,6414 Melstone Ct,Clifton,VA,20124,774900,5,3.5,LITTLE ROCKY RUN,4372,8546,1990,862,177,75,Sold,,,https://www.redfin.com/VA/Clifton/6414-Melstone-Ct-20124/home/9682095,BRIGHT MLS,VAFX999386,N,Y,38.8163128,-77.4195224
PAST SALE,August-11-2021,Single Family Residential,13933 S Springs Dr,Clifton,VA,20124,800000,5,3.5,LITTLE ROCKY RUN,3392,9247,1992,115,236,98,Sold,,,https://www.redfin.com/VA/Clifton/13933-S-Springs-Dr-20124/home/9682327,BRIGHT MLS,VAFX1201584,N,Y,38.8165288,-77.4298115
PAST SALE,November-3-2020,Single Family Residential,7511 Evans Ford Rd,Clifton,VA,20124,710000,4,2.5,NOBLE ESTATES,2542,141470,1976,396,279,25,Sold,,,https://www.redfin.com/VA/Clifton/7511-Evans-Ford-Rd-20124/home/9764228,BRIGHT MLS,VAFX1153902,N,Y,38.7733564,-77.3977081
PAST SALE,March-23-2021,Single Family Residential,6716 Rock Fall Ct,Clifton,VA,20124,1058500,5,4.5,LITTLE ROCKY RUN,4238,10000,1992,256,250,95,Sold,,,https://www.redfin.com/VA/Clifton/6716-Rock-Fall-Ct-20124/home/9683314,BRIGHT MLS,VAFX1183892,N,Y,38.8088514,-77.4241403
PAST SALE,February-28-2019,Single Family Residential,13000 Evans Ford Ct,Clifton,VA,20124,679000,4,3.5,NOBLE ESTATES,3364,222387,1977,1010,202,29,Sold,,,https://www.redfin.com/VA/Clifton/13000-Evans-Ford-Ct-20124/home/9764235,BRIGHT MLS,1002772328,N,Y,38.7712317,-77.3990758
PAST SALE,April-30-2019,Single Family Residential,7709 Tiffany Ct,Clifton,VA,20124,805000,5,2.5,NOBLE ESTATES,3504,217865,1977,949,230,25,Sold,,,https://www.redfin.com/VA/Clifton/7709-Tiffany-Ct-20124/home/9764248,BRIGHT MLS,1001859344,N,Y,38.7695398,-77.4017717
PAST SALE,April-27-2020,Single Family Residential,7609 Tiffany Ct,Clifton,VA,20124,620000,3,2.5,NOBLE ESTATES,2280,217800,1978,586,272,25,Sold,,,https://www.redfin.com/VA/Clifton/7609-Tiffany-Ct-20124/home/9764253,BRIGHT MLS,VAFX1117246,N,Y,38.7733054,-77.4036945
PAST SALE,December-7-2020,Single Family Residential,7421 Dunquin Ct,Clifton,VA,20124,1567000,5,4.5,GLENCAIRN,6256,301801,1996,362,250,225,Sold,,,https://www.redfin.com/VA/Clifton/7421-Dunquin-Ct-20124/home/9764263,BRIGHT MLS,VAFX1151292,N,Y,38.7771029,-77.395509
PAST SALE,,Single Family Residential,7254 Dell Ave,Clifton,VA,20124,625000,3,1.5,,1245,71351,1966,,502,,,,,https://www.redfin.com/VA/Clifton/7254-Dell-Ave-20124/home/9764282,,,N,Y,38.7756172,-77.3843215
PAST SALE,January-24-2020,Single Family Residential,7429 Kincheloe Rd,Clifton,VA,20124,897500,4,3.5,G W SHUGARS PROPERTY,4308,251411,1983,680,208,,Sold,,,https://www.redfin.com/VA/Clifton/7429-Kincheloe-Rd-20124/home/9764293,BRIGHT MLS,VAFX1103048,N,Y,38.769548,-77.38329
PAST SALE,August-17-2021,Single Family Residential,13900 Rock Still Ct,Clifton,VA,20124,950000,5,4.5,LITTLE ROCKY RUN,4356,12185,1993,109,218,91,Sold,,,https://www.redfin.com/VA/Clifton/13900-Rock-Still-Ct-20124/home/9683232,BRIGHT MLS,VAFX2005182,N,Y,38.809053,-77.4270992
PAST SALE,June-21-2019,Single Family Residential,7300 Clifton Rd,Clifton,VA,20124,460000,4,5.5,CLIFTON,3700,218122,2020,897,124,,Sold,,,https://www.redfin.com/VA/Clifton/7300-Clifton-Rd-20124/home/103947073,BRIGHT MLS,1000059069,N,Y,38.772508,-77.378948
PAST SALE,January-21-2020,Single Family Residential,7450 Dunquin Ct,Clifton,VA,20124,1092500,4,4.5,GLENCAIRN,5328,231321,1991,683,205,120,Sold,,,https://www.redfin.com/VA/Clifton/7450-Dunquin-Ct-20124/home/9764363,BRIGHT MLS,VAFX1081050,N,Y,38.7747196,-77.3952641
PAST SALE,January-15-2019,Single Family Residential,12925 Yates Ford Rd,Clifton,VA,20124,1125000,5,5.5,WYCKLAND,7472,217809,2001,1054,151,33,Sold,,,https://www.redfin.com/VA/Clifton/12925-Yates-Ford-Rd-20124/home/9764341,BRIGHT MLS,1000409574,N,Y,38.7675127,-77.3935824
PAST SALE,March-11-2019,Single Family Residential,12810 Wyckland Dr,Clifton,VA,20124,1025000,5,4.5,WYCKLAND,6802,217817,1988,999,151,108,Sold,,,https://www.redfin.com/VA/Clifton/12810-Wyckland-Dr-20124/home/9764348,BRIGHT MLS,VAFX276440,N,Y,38.764557,-77.389197
PAST SALE,May-22-2019,Single Family Residential,7750 Wyckland Ct,Clifton,VA,20124,1100000,4,5.0,WYCKLAND,8612,217809,1988,927,128,108,Sold,,,https://www.redfin.com/VA/Clifton/7750-Wyckland-Ct-20124/home/9764349,BRIGHT MLS,VAFX997374,N,Y,38.7656178,-77.3904208
PAST SALE,August-26-2019,Single Family Residential,12875 Yates Ford Rd,Clifton,VA,20124,1425000,5,5.5,WYCKLAND,8542,217813,2013,831,167,,Sold,,,https://www.redfin.com/VA/Clifton/12875-Yates-Ford-Rd-20124/home/17533594,BRIGHT MLS,VAFX1057376,N,Y,38.7681074,-77.3907347
PAST SALE,June-21-2019,Single Family Residential,12825 Yates Ford Rd,Clifton,VA,20124,1295000,7,6.5,WYCKLAND,7100,217809,1989,897,182,33,Sold,,,https://www.redfin.com/VA/Clifton/12825-Yates-Ford-Rd-20124/home/9764352,BRIGHT MLS,VAFX747482,N,Y,38.7676964,-77.3893669
PAST SALE,May-4-2020,Single Family Residential,13600 S Springs Ct,Clifton,VA,20124,685000,4,3.0,LITTLE ROCKY RUN,3294,8991,1988,579,208,81,Sold,,,https://www.redfin.com/VA/Clifton/13600-S-Springs-Ct-20124/home/9682231,BRIGHT MLS,VAFX1114338,N,Y,38.8180186,-77.4222573
PAST SALE,October-29-2019,Single Family Residential,12709 Mill Glen Ct,Clifton,VA,20124,971000,4,3.5,MILL BRANCH,6025,263168,1986,767,161,,Sold,,,https://www.redfin.com/VA/Clifton/12709-Mill-Glen-Ct-20124/home/9764405,BRIGHT MLS,VAFX1000354,N,Y,38.76143,-77.3841421
PAST SALE,September-23-2021,Condo/Co-op,13637 Orchard Dr #3637,Clifton,VA,20124,301000,2,2.0,THE PONDS AT CENTREVILLE,971,,1989,72,310,350,Sold,,,https://www.redfin.com/VA/Clifton/13637-Orchard-Dr-20124/unit-3637/home/9684288,BRIGHT MLS,VAFX2013884,N,Y,38.830794,-77.414375
PAST SALE,July-12-2019,Vacant Land,30-A-1 White Dr,Clifton,VA,20124,530000,,,BRADDOCK WOODS,,228243,,876,,,Sold,,,https://www.redfin.com/VA/Clifton/30-A-1-White-DR-20124/home/173837600,BRIGHT MLS,1004386393,N,Y,38.82052647,-77.38630225
