SALE TYPE,SOLD DATE,PROPERTY TYPE,ADDRESS,CITY,STATE OR PROVINCE,ZIP OR POSTAL CODE,PRICE,BEDS,BATHS,LOCATION,SQUARE FEET,LOT SIZE,YEAR BUILT,DAYS ON MARKET,$/SQUARE FEET,HOA/MONTH,STATUS,NEXT OPEN HOUSE START TIME,NEXT OPEN HOUSE END TIME,URL (SEE https://www.redfin.com/buy-a-home/comparative-market-analysis FOR INFO ON PRICING),SOURCE,MLS#,FAVORITE,INTERESTED,LATITUDE,LONGITUDE
PAST SALE,November-12-2021,Townhouse,3818 Fish Pond Ln,Glen Allen,VA,23060,445000,3,3.0,West Broad Village,2248,1442,2009,23,198,250,Sold,,,https://www.redfin.com/VA/Glen-Allen/3818-Fish-Pond-Ln-23060/home/59608069,CVRMLS,2129113,N,Y,37.64561,-77.599458
PAST SALE,September-20-2019,Single Family Residential,10917 Stonewell Cir,Glen Allen,VA,23060,485000,5,3.5,Lexington,3892,16988,2006,807,125,16,Sold,,,https://www.redfin.com/VA/Glen-Allen/10917-Stonewell-Cir-23060/home/59601783,CVRMLS,1919555,N,Y,37.6551149,-77.5693078
PAST SALE,September-23-2020,Single Family Residential,5176 Hart Mill Dr,Glen Allen,VA,23060,399000,5,2.5,Springcreek,2646,9583,1996,438,151,8,Sold,,,https://www.redfin.com/VA/Glen-Allen/5176-Hart-Mill-Dr-23060/home/59616185,CVRMLS,2024117,N,Y,37.6726617,-77.5519333
PAST SALE,June-15-2021,Single Family Residential,9917 Alf Ct,Richmond,VA,23060,532000,5,3.0,Tall Timbers,2906,23522,1995,173,183,,Sold,,,https://www.redfin.com/VA/Glen-Allen/9917-Alf-Ct-23060/home/59621270,CVRMLS,2113304,N,Y,37.6533088,-77.5167731
PAST SALE,August-10-2021,Single Family Residential,8301 Dove Hollow Pl,Henrico,VA,23060,408250,4,2.5,Dove Hollow,2052,13503,1990,117,199,,Sold,,,https://www.redfin.com/VA/Glen-Allen/8301-Dove-Hollow-Pl-23060/home/59627674,CVRMLS,2118941,N,Y,37.6471782,-77.5225966
PAST SALE,June-11-2021,Single Family Residential,8805 Eli Pl,Glen Allen,VA,23060,470000,4,3.0,Kings Forest - Henr,2624,12196,2003,177,179,17,Sold,,,https://www.redfin.com/VA/Glen-Allen/8805-Eli-Pl-23060/home/59593199,CVRMLS,2112748,N,Y,37.6703805,-77.5539485
PAST SALE,July-2-2019,Single Family Residential,11404 Sadler Glen Ln,Glen Allen,VA,23060,466900,5,4.5,Sadler Glen,3547,10890,2005,887,132,17,Sold,,,https://www.redfin.com/VA/Glen-Allen/11404-Sadler-Glen-Ln-23060/home/59600670,CVRMLS,1913170,N,Y,37.6643941,-77.5897464
MLS Listing,,Vacant Land,0 Mountain Rd,Glen Allen,VA,23059,450000,,,,,148104,,2,,,Active,,,https://www.redfin.com/VA/Glen-Allen/3017-Mountain-Rd-23060/home/177488020,CVRMLS,2135669,N,Y,37.6662551,-77.5075927
MLS Listing,,Townhouse,3931 Liesfeld Pl,Henrico,VA,23060,445000,3,3.5,West Broad Village,2002,1306,2014,2,222,250,Active,,,https://www.redfin.com/VA/Glen-Allen/3931-Liesfeld-Pl-23060/home/59611375,CVRMLS,2135725,N,Y,37.6483723,-77.6074901
MLS Listing,,Single Family Residential,2119 Megan Dr,Glen Allen,VA,23060,299999,3,2.5,Summerfield,1454,12632,1990,3,206,,Active,December-5-2021 12:00 PM,December-5-2021 02:00 PM,https://www.redfin.com/VA/Glen-Allen/2119-Megan-Dr-23060/home/59623253,CVRMLS,2135689,N,Y,37.6572031,-77.4760006
MLS Listing,,Townhouse,2929 Sara Jean Ter,Glen Allen,VA,23060,220000,3,1.5,Laurel Lakes Ths,1280,1742,1995,5,172,100,Active,,,https://www.redfin.com/VA/Glen-Allen/2929-Sara-Jean-Ter-23060/home/59622265,CVRMLS,2135529,N,Y,37.6505654,-77.5084518
MLS Listing,,Single Family Residential,5116 Fairlake Ln,Henrico,VA,23060,380000,4,2.5,Reids Pointe,1696,7840,1988,9,224,,Active,,,https://www.redfin.com/VA/Glen-Allen/5116-Fairlake-Ln-23060/home/59620610,CVRMLS,2135252,N,Y,37.6608307,-77.5496046
MLS Listing,,Single Family Residential,10315 Meadow Plains Dr,Glen Allen,VA,23059,639990,3,2.5,Chickahominy Falls,2596,,2021,11,247,222,Active,,,https://www.redfin.com/VA/Glen-Allen/10315-Meadow-Plains-DR-Unknown/home/176721207,CVRMLS,2135039,N,Y,37.665978,-77.5063739
MLS Listing,,Single Family Residential,10319 Meadow Plains Dr,Glen Allen,VA,23059,579990,2,2.0,Chickahominy Falls,1999,,2021,11,290,222,Active,,,https://www.redfin.com/VA/Glen-Allen/10319-Meadow-Plains-DR-Unknown/home/175930684,CVRMLS,2135043,N,Y,37.665978,-77.5063739
MLS Listing,,Single Family Residential,10520 Little Meadow Ln,Glen Allen,VA,23059,589990,3,2.5,Chickahominy Falls,2300,,2021,11,257,222,Active,,,https://www.redfin.com/VA/Glen-Allen/10520-Little-Meadow-LN-Unknown/home/175930035,CVRMLS,2135042,N,Y,37.665978,-77.5063739
MLS Listing,,Single Family Residential,10512 Little Meadow Ln,Glen Allen,VA,23059,629990,3,2.5,Chickahominy Falls,2576,,2021,11,245,222,Active,,,https://www.redfin.com/VA/Glen-Allen/10512-Little-Meadow-LN-Unknown/home/176487142,CVRMLS,2135041,N,Y,37.665978,-77.5063739
MLS Listing,,Single Family Residential,1845 Mountain Rd,Henrico,VA,23060,320000,3,2.0,Randolph Ridge,1572,12196,1958,16,204,,Active,,,https://www.redfin.com/VA/Glen-Allen/1845-Mountain-Rd-23060/home/59622795,CVRMLS,2134939,N,Y,37.6519309,-77.4756869
MLS Listing,,Townhouse,3401 Amburg Ln,Glen Allen,VA,23060,415000,3,2.5,Townes At Crossridge,2168,6969,2002,19,191,155,Active,,,https://www.redfin.com/VA/Glen-Allen/3401-Amburg-Ln-23060/home/59596862,CVRMLS,2134558,N,Y,37.6567573,-77.5302562
MLS Listing,,Townhouse,2258 High Bush Cir,Glen Allen,VA,23060,220000,2,1.5,Mountain Laurel Townhouses,1008,1742,1987,29,218,170,Active,,,https://www.redfin.com/VA/Glen-Allen/2258-High-Bush-Cir-23060/home/59617938,CVRMLS,2132365,N,Y,37.6634932,-77.4849294
MLS Listing,,Single Family Residential,12224 Woodson Hills Ct,Glen Allen,VA,23059,740250,6,4.0,Woodson Hills At Bacova,3735,9583,2021,30,198,168,Active,,,https://www.redfin.com/VA/Glen-Allen/12224-Woodson-Hills-CT-Unknown/home/177097941,CVRMLS,2133726,N,Y,37.665978,-77.5063739
MLS Listing,,Single Family Residential,0000 Beach Rock Pt,Glen Allen,VA,23059,738000,3,2.5,River Mill,3106,13939,2021,44,238,85,Active,,,https://www.redfin.com/VA/Glen-Allen/Beach-Rock-PT-Unknown/home/176875099,CVRMLS,2132268,N,Y,37.665978,-77.5063739
MLS Listing,,Townhouse,3802 Tractor Barn Pl,Glen Allen,VA,23060,598000,3,4.0,West Broad Village,2952,1742,2010,92,203,250,Active,,,https://www.redfin.com/VA/Glen-Allen/3802-Tractor-Barn-Pl-23060/home/59608051,CVRMLS,2126393,N,Y,37.645736,-77.601412
MLS Listing,,Condo/Co-op,1704-B Old Brick Rd Unit 10B,Henrico,VA,23060,629980,3,2.5,West Broad Village,2487,,2021,103,253,260,Active,,,https://www.redfin.com/VA/Henrico/1704-B-Old-Brick-RD-23060/unit-10B/home/176193895,CVRMLS,2126123,N,Y,37.663282,-77.5275463
MLS Listing,,Single Family Residential,10980 Tiller Rd,Henrico,VA,23060,587939,5,4.0,,2905,21780,2021,247,202,,Active,,,https://www.redfin.com/VA/Glen-Allen/10980-Tiller-Rd-23060/home/163316579,CVRMLS,2109059,N,Y,37.674977,-77.525897
MLS Listing,,Condo/Co-op,1708-B Old Brick Rd Unit 12B,Henrico,VA,23060,607352,3,2.5,West Broad Village,2487,,2021,250,244,,Active,,,https://www.redfin.com/VA/Henrico/1708-B-Old-Brick-RD-23060/unit-12B/home/174802348,CVRMLS,2108630,N,Y,37.663282,-77.5275463
MLS Listing,,Condo/Co-op,1706-B Old Brick Rd Unit 11B,Henrico,VA,23060,598620,3,2.5,West Broad Village,2487,,2021,250,241,,Active,,,https://www.redfin.com/VA/Henrico/1706-B-Old-Brick-RD-23060/unit-11B/home/174802314,CVRMLS,2108639,N,Y,37.663282,-77.5275463
MLS Listing,,Condo/Co-op,1708-A Old Brick Rd Unit 12A,Henrico,VA,23060,438496,2,2.5,West Broad Village,1504,,2021,251,292,260,Active,,,https://www.redfin.com/VA/Henrico/1708-A-Old-Brick-RD-23060/unit-12A/home/174795543,CVRMLS,2108345,N,Y,37.663282,-77.5275463
MLS Listing,,Single Family Residential,3801 Mountain Rd,Henrico,VA,23060,622729,4,3.5,,3030,21780,2021,252,206,,Active,,,https://www.redfin.com/VA/Glen-Allen/3801-Mountain-Rd-23060/home/163357092,CVRMLS,2108438,N,Y,37.675522,-77.525236
MLS Listing,,Condo/Co-op,121-B Wellie Hill Pl Unit 5B,Henrico,VA,23060,649980,3,2.5,West Broad Village,2487,,2021,7341,261,260,Active,,,https://www.redfin.com/VA/Henrico/121-B-Wellie-Hill-PL-23060/unit-5B/home/176193869,CVRMLS,2126124,N,Y,37.663282,-77.5275463
For-Sale-by-Owner Listing,,Townhouse,9578 Kimberly Lynn Cir,Glen Allen,VA,23060,220000,3,1.5,Glen Allen,1280,1472,1991,115,172,,Active,,,https://www.redfin.com/VA/Glen-Allen/9578-Kimberly-Lynn-Cir-23060/home/59629360,Fizber.com,11445541,N,Y,37.6496005,-77.5099526
PAST SALE,March-13-2019,Single Family Residential,11017 Carrington Green Dr,,VA,23060,539000,5,3.5,Carrington,,,2007,998,,24,Sold,,,https://www.redfin.com/VA/Glen-Allen/11017-Carrington-Green-Dr-23060/home/59596418,CVRMLS,2001235,N,Y,37.6767279,-77.5401995
PAST SALE,,Single Family Residential,5116 Shimmering Pl,Glen Allen,VA,23060,539430,4,3.5,,5058,14968,2017,,107,,,,,https://www.redfin.com/VA/Glen-Allen/5116-Shimmering-Pl-23060/home/109291458,,,N,Y,37.6610966,-77.5472105
PAST SALE,,Single Family Residential,4708 Cedar Branch Ct,Glen Allen,VA,23060,368000,3,2.5,,1966,10309,1990,,187,,,,,https://www.redfin.com/VA/Glen-Allen/4708-Cedar-Branch-Ct-23060/home/59615272,,,N,Y,37.6634791,-77.5798509
PAST SALE,May-15-2019,Townhouse,9310 Meredith Creek Ln,Glen Allen,VA,23060,275000,3,2.5,The Townes At Meredith Creek,1966,3049,2006,935,140,195,Sold,,,https://www.redfin.com/VA/Glen-Allen/9310-Meredith-Creek-Ln-23060/home/59603295,CVRMLS,1907385,N,Y,37.6523179,-77.5608336
PAST SALE,,Condo/Co-op,10216 Wolfe Manor Ct,Glen Allen,VA,23060,160000,2,2.0,,1040,,1995,,154,,,,,https://www.redfin.com/VA/Glen-Allen/10216-Wolfe-Manor-Ct-23060/home/59629498,,,N,Y,37.6448637,-77.5102418
PAST SALE,June-11-2019,Condo/Co-op,9354 Castle York Ct #2005,Glen Allen,VA,23060,127000,2,2.0,Laurel Lakes Condo,956,979664,1989,908,133,198,Sold,,,https://www.redfin.com/VA/Glen-Allen/9354-Castle-York-Ct-23060/unit-2005/home/59627871,CVRMLS,1840511,N,Y,37.645966,-77.5126
PAST SALE,,Single Family Residential,2601 Tavern Way,Glen Allen,VA,23060,260000,2,2.0,,1604,11420,1992,,162,,,,,https://www.redfin.com/VA/Glen-Allen/2601-Tavern-Way-23060/home/59622228,,,N,Y,37.6561552,-77.5005555
PAST SALE,October-19-2020,Condo/Co-op,9355 Kempton Manor Ct #1705,Glen Allen,VA,23060,169000,2,2.0,Laurel Lakes Condo,956,979664,1990,412,177,205,Sold,,,https://www.redfin.com/VA/Glen-Allen/9355-Kempton-Manor-Ct-23060/unit-1705/home/59627953,CVRMLS,2028561,N,Y,37.645489,-77.5119765
PAST SALE,August-24-2021,Condo/Co-op,9392 Wind Haven Ct #411,Glen Allen,VA,23060,180000,2,2.0,Laurel Lakes Condo,971,979664,1987,103,185,205,Sold,,,https://www.redfin.com/VA/Glen-Allen/9392-Wind-Haven-Ct-23060/unit-411/home/59628026,CVRMLS,2118274,N,Y,37.646462,-77.513085
PAST SALE,September-8-2021,Single Family Residential,9713 Dove Hollow Ln,Glen Allen,VA,23060,380000,4,2.5,Dove Hollow,2108,18730,1992,88,180,,Sold,,,https://www.redfin.com/VA/Glen-Allen/9713-Dove-Hollow-Ln-23060/home/59627783,CVRMLS,2123011,N,Y,37.6505566,-77.5224174
PAST SALE,October-1-2020,Townhouse,9511 Kimberly Lynn Cir #9511,Henrico,VA,23060,189000,3,2.5,Laurel Lakes Ths,1280,1742,1992,430,148,100,Sold,,,https://www.redfin.com/VA/Glen-Allen/9511-Kimberly-Lynn-Cir-23060/unit-9511/home/59876593,CVRMLS,2021336,N,Y,37.650007,-77.5110726
PAST SALE,December-16-2020,Townhouse,2603 Mountainberry Ct,Glen Allen,VA,23060,206000,3,2.5,Mountain Laurel Townhouses,1328,1742,1999,354,155,140,Sold,,,https://www.redfin.com/VA/Glen-Allen/2603-Mountainberry-Ct-23060/home/59618153,CVRMLS,2034454,N,Y,37.6641231,-77.4835625
PAST SALE,January-31-2019,Single Family Residential,4701 Snowmass Rd,Glen Allen,VA,23060,395000,3,2.0,The Village @ Innsbrook,1940,15245,1988,1039,204,5,Sold,,,https://www.redfin.com/VA/Glen-Allen/4701-Snowmass-Rd-23060/home/59619318,CVRMLS,1835596,N,Y,37.6602505,-77.5685243
PAST SALE,April-25-2019,Single Family Residential,3412 Collier Ct,Glen Allen,VA,23060,300000,4,2.5,Church Glen,1978,16988,1996,955,152,8,Sold,,,https://www.redfin.com/VA/Glen-Allen/3412-Collier-Ct-23060/home/59616884,CVRMLS,1905843,N,Y,37.6701711,-77.520984
PAST SALE,August-21-2020,Townhouse,2411 Valleymeade Pl,Glen Allen,VA,23060,212000,2,2.5,Mountain Laurel Townhouses,1366,1742,2000,471,155,140,Sold,,,https://www.redfin.com/VA/Glen-Allen/2411-Valleymeade-Pl-23060/home/59618260,CVRMLS,2020924,N,Y,37.6633916,-77.4832268
PAST SALE,November-13-2020,Single Family Residential,6204 Joseph Way,Glen Allen,VA,23060,440000,5,2.5,Woodberry,2820,23522,2000,387,156,4,Sold,,,https://www.redfin.com/VA/Glen-Allen/6204-Joseph-Way-23060/home/59596074,CVRMLS,2030537,N,Y,37.6502667,-77.5676063
PAST SALE,August-17-2020,Townhouse,9757 Candace Ter,Henrico,VA,23060,178000,3,1.5,Laurel Lakes Ths,1280,1742,1986,475,139,100,Sold,,,https://www.redfin.com/VA/Glen-Allen/9757-Candace-Ter-23060/home/59627428,CVRMLS,1936642,N,Y,37.6487125,-77.5157819
PAST SALE,September-16-2021,Single Family Residential,9208 Timbers Edge Ct,Glen Allen,VA,23060,340000,3,2.0,The Timbers,1922,13939,1988,80,177,,Sold,,,https://www.redfin.com/VA/Glen-Allen/9208-Timbers-Edge-Ct-23060/home/59615548,CVRMLS,2119244,N,Y,37.66214,-77.5469175
PAST SALE,April-10-2019,Condo/Co-op,3724 Hoskins Dr Unit `1,Henrico,VA,23060,427000,3,2.5,The Carriage Homes @ Crossridge,2503,,2011,970,171,140,Sold,,,https://www.redfin.com/VA/Glen-Allen/3724-Hoskins-Dr-23060/home/59610077,CVRMLS,1906509,N,Y,37.6608371,-77.5362567
PAST SALE,January-20-2021,Single Family Residential,9014 Torno Dr,Henrico,VA,23228,265000,3,2.0,North Run Estates,1767,13939,1974,319,150,,Sold,,,https://www.redfin.com/VA/Richmond/9014-Torno-Dr-23228/home/59629829,CVRMLS,2034865,N,Y,37.6470483,-77.4767176
PAST SALE,,Single Family Residential,3308 Lanceor Dr,Glen Allen,VA,23060,190000,3,2.0,,1530,17672,1969,,124,,,,,https://www.redfin.com/VA/Glen-Allen/3308-Lanceor-Dr-23060/home/59621959,,,N,Y,37.6545912,-77.5241644
PAST SALE,January-15-2021,Townhouse,9715 Candace Ct,Henrico,VA,23060,204000,2,2.5,Laurel Lakes Ths,1220,2613,1987,324,167,100,Sold,,,https://www.redfin.com/VA/Glen-Allen/9715-Candace-Ct-23060/home/59627476,CVRMLS,2035469,N,Y,37.6487711,-77.5145333
PAST SALE,August-27-2021,Townhouse,3005 Sara Jean Ter,Glen Allen,VA,23060,205000,3,2.5,Laurel Lakes Ths,1280,1742,1994,100,160,100,Sold,,,https://www.redfin.com/VA/Glen-Allen/3005-Sara-Jean-Ter-23060/home/59622156,CVRMLS,2122389,N,Y,37.6506464,-77.5091126
PAST SALE,July-15-2021,Townhouse,2601 Mountainberry Ct,Glen Allen,VA,23060,240000,3,2.5,Mountain Laurel Townhouses,1452,2613,1999,143,165,140,Sold,,,https://www.redfin.com/VA/Glen-Allen/2601-Mountainberry-Ct-23060/home/59618154,CVRMLS,2111569,N,Y,37.6640732,-77.4835737
PAST SALE,,Single Family Residential,2100 Turner Mountain Pl,Glen Allen,VA,23060,330000,4,2.5,,1972,10149,2013,,167,,,,,https://www.redfin.com/VA/Glen-Allen/2100-Turner-Mountain-Pl-23060/home/59610784,,,N,Y,37.6552474,-77.4753381
PAST SALE,September-30-2021,Townhouse,9725 Candace Ter,Glen Allen,VA,23060,205000,3,1.5,Laurel Lakes Ths,1280,,1985,66,160,100,Sold,,,https://www.redfin.com/VA/Glen-Allen/9725-Candace-Ter-23060/home/59627511,CVRMLS,2120701,N,Y,37.647838,-77.514948
PAST SALE,February-22-2019,Single Family Residential,2490 Mountain Rd,Glen Allen,VA,23060,325000,4,2.5,,2232,102366,2018,1017,146,,Sold,,,https://www.redfin.com/VA/Glen-Allen/2490-Mountain-Rd-23060/home/59882145,CVRMLS,1730203,N,Y,37.6641884,-77.4869344
PAST SALE,August-29-2019,Townhouse,3909 Brownstone Blvd,Glen Allen,VA,23060,519500,5,4.5,West Broad Village,2828,1306,2014,829,184,200,Sold,,,https://www.redfin.com/VA/Glen-Allen/3909-Brownstone-Blvd-23060/home/59610668,CVRMLS,1924116,N,Y,37.6475901,-77.6047651
PAST SALE,July-30-2021,Townhouse,2316 Liesfeld Pkwy,Henrico,VA,23060,670000,4,4.5,West Broad Village,2828,1306,2014,128,237,250,Sold,,,https://www.redfin.com/VA/Glen-Allen/2316-Liesfeld-Pkwy-23060/home/59611594,CVRMLS,2116469,N,Y,37.647036,-77.6030194
PAST SALE,November-19-2019,Townhouse,2208 High Bush Cir,Henrico,VA,23060,193000,3,3.0,Mountain Laurel Townhouses,1648,3049,1993,747,117,160,Sold,,,https://www.redfin.com/VA/Glen-Allen/2208-High-Bush-Cir-23060/home/59617935,CVRMLS,1922547,N,Y,37.6628957,-77.4836637
PAST SALE,August-16-2019,Single Family Residential,4519 Cedar Forest Rd,Glen Allen,VA,23060,369950,4,2.5,Cedars At Innsbrook,2415,13068,1994,842,153,21,Sold,,,https://www.redfin.com/VA/Glen-Allen/4519-Cedar-Forest-Rd-23060/home/59615163,CVRMLS,1916579,N,Y,37.662521,-77.5796507
PAST SALE,August-31-2020,Townhouse,3904 Brownstone Blvd,Glen Allen,VA,23060,405000,4,3.5,West Broad Village,2052,1306,2012,461,197,215,Sold,,,https://www.redfin.com/VA/Glen-Allen/3904-Brownstone-Blvd-23060/home/59610218,CVRMLS,2020175,N,Y,37.6474691,-77.605168
PAST SALE,April-24-2020,Townhouse,3702 Coles Point Way,Glen Allen,VA,23060,339950,3,2.5,Townes At Crossridge,2020,3484,2004,590,168,155,Sold,,,https://www.redfin.com/VA/Glen-Allen/3702-Coles-Point-Way-23060/home/59592196,CVRMLS,2005693,N,Y,37.654855,-77.5338059
PAST SALE,March-19-2021,Townhouse,503 Geese Lndg,Glen Allen,VA,23060,455000,3,3.5,West Broad Village,2892,1742,2011,261,157,215,Sold,,,https://www.redfin.com/VA/Glen-Allen/503-Geese-Lndg-23060/home/59609547,CVRMLS,2028590,N,Y,37.6452879,-77.6008259
PAST SALE,September-20-2019,Condo/Co-op,9396 Wind Haven Ct #207,Glen Allen,VA,23060,132500,2,2.0,Laurel Lakes Condo,971,979664,1986,807,136,198,Sold,,,https://www.redfin.com/VA/Glen-Allen/9396-Wind-Haven-Ct-23060/unit-207/home/59628000,CVRMLS,1926405,N,Y,37.646046,-77.51389
PAST SALE,September-3-2021,Single Family Residential,1407 Connecticut Ave,Glen Allen,VA,23060,272000,4,2.0,Biltmore,1296,7405,1980,93,210,,Sold,,,https://www.redfin.com/VA/Glen-Allen/1407-Connecticut-Ave-23060/home/59622532,CVRMLS,2120645,N,Y,37.6522242,-77.4654691
PAST SALE,July-8-2020,Townhouse,9560 Kimberly Lynn Cir,Glen Allen,VA,23060,195000,3,2.5,Laurel Lakes Ths,1280,1742,1990,515,152,100,Sold,,,https://www.redfin.com/VA/Glen-Allen/9560-Kimberly-Lynn-Cir-23060/home/59629352,CVRMLS,2018482,N,Y,37.6490022,-77.5099078
PAST SALE,November-22-2021,Single Family Residential,9342 Crystal Brook Ter,Glen Allen,VA,23060,375000,3,2.5,Crystal Creek,1876,10018,1992,13,200,,Sold,,,https://www.redfin.com/VA/Glen-Allen/9342-Crystal-Brook-Ter-23060/home/59616066,CVRMLS,2131471,N,Y,37.6637526,-77.5509033
PAST SALE,September-21-2020,Single Family Residential,5168 Hart Mill Dr,Glen Allen,VA,23060,405000,4,2.5,Springcreek,2425,9583,1997,440,167,8,Sold,,,https://www.redfin.com/VA/Glen-Allen/5168-Hart-Mill-Dr-23060/home/59616274,CVRMLS,2024975,N,Y,37.6723683,-77.5514855
PAST SALE,April-26-2019,Single Family Residential,2533 Winston Trace Cir,Henrico,VA,23060,275000,3,2.5,Winston Trace,1657,10890,2013,954,166,,Sold,,,https://www.redfin.com/VA/Glen-Allen/2533-Winston-Trace-Cir-23060/home/59609309,CVRMLS,1907838,N,Y,37.6545586,-77.5000738
PAST SALE,February-20-2020,Townhouse,3816 Pumpkin Seed Ln,Glen Allen,VA,23060,322000,2,2.5,West Broad Village,1994,,2010,654,161,215,Sold,,,https://www.redfin.com/VA/Glen-Allen/3816-Pumpkin-Seed-Ln-23060/home/59609152,CVRMLS,1938639,N,Y,37.6455536,-77.5978356
PAST SALE,December-16-2019,Single Family Residential,4812 Cedar Branch Ct,Glen Allen,VA,23060,343000,3,2.5,Cedars At Innsbrook,2335,9583,1991,720,147,6,Sold,,,https://www.redfin.com/VA/Glen-Allen/4812-Cedar-Branch-Ct-23060/home/59615226,CVRMLS,1933608,N,Y,37.6651752,-77.5811282
PAST SALE,December-23-2019,Single Family Residential,9424 Telegraph Run Ln,Glen Allen,VA,23060,266000,4,2.5,Telegraph Run,1848,12632,2000,713,144,,Sold,,,https://www.redfin.com/VA/Glen-Allen/9424-Telegraph-Run-Ln-23060/home/59597883,CVRMLS,1932388,N,Y,37.6536042,-77.4539505
PAST SALE,October-12-2020,Condo/Co-op,9392 Wind Haven Ct #405,Glen Allen,VA,23060,157000,2,2.0,Laurel Lakes Condo,956,,1987,419,164,198,Sold,,,https://www.redfin.com/VA/Glen-Allen/9392-Wind-Haven-Ct-23060/unit-405/home/59628020,CVRMLS,2024347,N,Y,37.646462,-77.513085
PAST SALE,November-24-2021,Single Family Residential,9312 Crystal Brook Ter,Glen Allen,VA,23060,410000,3,2.0,Crystal Creek,1960,10018,1992,11,209,,Sold,,,https://www.redfin.com/VA/Glen-Allen/9312-Crystal-Brook-Ter-23060/home/59616071,CVRMLS,2132127,N,Y,37.6627581,-77.551172
PAST SALE,March-12-2021,Single Family Residential,4400 Fort Mchenry Pkwy,Glen Allen,VA,23060,329070,3,2.5,WOODS AT INNSBROOK,1660,10282,1990,268,198,12,Sold,,,https://www.redfin.com/VA/Glen-Allen/4400-Fort-Mchenry-Pkwy-23060/home/59619161,BRIGHT MLS,VAHN100816,N,Y,37.6584327,-77.5670242
PAST SALE,August-23-2019,Condo/Co-op,14396 Orchard Vista Ln Unit C6-2,Glen Allen,VA,23059,360488,3,3.0,Chickahominy Falls,1989,,2019,835,181,301,Sold,,,https://www.redfin.com/VA/Glen-Allen/14396-Orchard-Vista-Ln-Unknown/unit-C6-2/home/160370528,CVRMLS,1903068,N,Y,37.665978,-77.5063739
PAST SALE,January-28-2021,Townhouse,2911 Sara Jean Ter,Glen Allen,VA,23060,195000,2,1.5,Laurel Lakes Ths,1280,1742,1995,311,152,100,Sold,,,https://www.redfin.com/VA/Glen-Allen/2911-Sara-Jean-Ter-23060/home/59622118,CVRMLS,2037528,N,Y,37.65045,-77.507846
PAST SALE,December-11-2019,Single Family Residential,11504 Oscar Pl,Glen Allen,VA,23060,590000,5,5.5,Crawford Park At Greenbrooke Section A,5122,20037,2008,725,115,15,Sold,,,https://www.redfin.com/VA/Glen-Allen/11504-Oscar-Pl-23060/home/59603672,CVRMLS,1927530,N,Y,37.6617015,-77.5934844
PAST SALE,December-3-2020,Single Family Residential,10828 Old Washington Hwy,Henrico,VA,23060,350000,4,2.5,Allens Crossing,2120,18295,2011,367,165,,Sold,,,https://www.redfin.com/VA/Glen-Allen/10828-Old-Washington-Hwy-23060/home/59607240,CVRMLS,2027977,N,Y,37.6698884,-77.5023028
PAST SALE,August-27-2021,Single Family Residential,809 Kevo Ct,Glen Allen,VA,23060,310000,3,2.5,Telegraph Run,1844,11325,2001,100,168,,Sold,,,https://www.redfin.com/VA/Glen-Allen/809-Kevo-Ct-23060/home/59593939,CVRMLS,2123264,N,Y,37.6526942,-77.4538263
PAST SALE,October-26-2020,Single Family Residential,911 Stonemeadow Dr,Glen Allen,VA,23060,259900,3,2.5,Stonefield,1742,14810,1998,405,149,,Sold,,,https://www.redfin.com/VA/Glen-Allen/911-Stonemeadow-Dr-23060/home/59623500,CVRMLS,2024387,N,Y,37.6556921,-77.4524003
PAST SALE,June-3-2020,Single Family Residential,10011 Laurel Lakes Dr,Glen Allen,VA,23060,269950,3,2.5,Laurel Lakes,1680,11761,1985,550,161,5,Sold,,,https://www.redfin.com/VA/Glen-Allen/10011-Laurel-Lakes-Dr-23060/home/59627482,CVRMLS,2008344,N,Y,37.6503086,-77.517196
PAST SALE,July-24-2019,Townhouse,3805 Pumpkin Seed Ln,Glen Allen,VA,23060,370249,3,3.0,West Broad Village,2234,1306,2014,865,166,190,Sold,,,https://www.redfin.com/VA/Glen-Allen/3805-Pumpkin-Seed-Ln-23060/home/59610738,CVRMLS,1912031,N,Y,37.6452494,-77.5974798
PAST SALE,June-21-2021,Townhouse,1807 Liesfeld,Henrico,VA,23060,500000,4,3.5,West Broad Village,2892,1742,2013,167,173,250,Sold,,,https://www.redfin.com/VA/Glen-Allen/1807-Liesfeld-Pkwy-23060/home/59610718,CVRMLS,2111886,N,Y,37.6456755,-77.5971553
PAST SALE,July-12-2019,Vacant Land,4361 Belfast Rd,Henrico,VA,23060,235000,,,,,90169,,877,,,Sold,,,https://www.redfin.com/VA/Glen-Allen/4361-Belfast-Rd-23060/home/59618604,CVRMLS,1905472,N,Y,37.6551167,-77.5966181
PAST SALE,July-30-2021,Single Family Residential,5853 Dorton Ln,Glen Allen,VA,23060,599000,6,4.5,Carrington,3700,14374,2006,128,162,26,Sold,,,https://www.redfin.com/VA/Glen-Allen/5853-Dorton-Ln-23060/home/59601405,CVRMLS,2115627,N,Y,37.6768284,-77.5411401
PAST SALE,July-14-2021,Townhouse,11409 Hayloft Ln,Glen Allen,VA,23060,515000,3,3.5,Sadler Crossing,2772,3484,2017,144,186,155,Sold,,,https://www.redfin.com/VA/Glen-Allen/11409-Hayloft-Ln-23060/home/112969645,CVRMLS,2116503,N,Y,37.6586814,-77.5895513
PAST SALE,April-23-2019,Condo/Co-op,9396 Wind Haven Ct #212,Glen Allen,VA,23060,137950,2,2.0,Laurel Lakes Condo,1065,,1986,957,130,198,Sold,,,https://www.redfin.com/VA/Glen-Allen/9396-Wind-Haven-Ct-23060/unit-212/home/59628004,CVRMLS,1909569,N,Y,37.646046,-77.51389
PAST SALE,July-10-2019,Single Family Residential,10312 Delray Rd,Glen Allen,VA,23060,329950,4,2.5,Bretton Woods,2476,16988,1976,879,133,6,Sold,,,https://www.redfin.com/VA/Glen-Allen/10312-Delray-Rd-23060/home/59621298,CVRMLS,1913590,N,Y,37.6593711,-77.5225518
PAST SALE,February-12-2021,Single Family Residential,2132 Turner Mountain Pl,Glen Allen,VA,23060,299000,3,2.5,Turner Mountain Section 1,1752,8276,2014,296,171,10,Sold,,,https://www.redfin.com/VA/Glen-Allen/2132-Turner-Mountain-Pl-23060/home/59611084,CVRMLS,2036751,N,Y,37.6547483,-77.477105
PAST SALE,September-22-2020,Single Family Residential,2908 Susan Sheppard Ct,Glen Allen,VA,23060,332000,4,2.5,Deer Springs,1886,15681,1990,439,176,5,Sold,,,https://www.redfin.com/VA/Glen-Allen/2908-Susan-Sheppard-Ct-23060/home/59617385,CVRMLS,2023580,N,Y,37.6693795,-77.5066577
PAST SALE,April-10-2020,Townhouse,806 Geese Lndg,Glen Allen,VA,23060,600000,4,4.5,West Broad Village,3462,871,2014,604,173,215,Sold,,,https://www.redfin.com/VA/Glen-Allen/806-Geese-Lndg-23060/home/59610158,CVRMLS,2000176,N,Y,37.646599,-77.6041885
PAST SALE,July-15-2021,Condo/Co-op,9389 Horse Castle Ct #704,Glen Allen,VA,23060,184000,2,2.0,Laurel Lakes Condo,1040,979664,1987,143,177,205,Sold,,,https://www.redfin.com/VA/Glen-Allen/9389-Horse-Castle-Ct-23060/unit-704/home/59627927,CVRMLS,2119508,N,Y,37.647405,-77.512707
PAST SALE,September-30-2020,Single Family Residential,4301 Glasgow Rd,Glen Allen,VA,23060,229000,3,1.0,Mcdonald Small Farms,1144,52707,1952,431,200,,Sold,,,https://www.redfin.com/VA/Glen-Allen/4301-Glasgow-Rd-23060/home/59618631,CVRMLS,2018726,N,Y,37.6537151,-77.5926786
PAST SALE,June-3-2021,Condo/Co-op,9363 Brighter Tower Ct #1512,Glen Allen,VA,23060,180000,2,2.0,Laurel Lakes Condo,1065,979664,1988,185,169,205,Sold,,,https://www.redfin.com/VA/Glen-Allen/9363-Brighter-Tower-Ct-23060/unit-1512/home/59629086,CVRMLS,2112876,N,Y,37.6458576,-77.5112283
PAST SALE,August-20-2021,Single Family Residential,3304 Mountain Rd,Glen Allen,VA,23060,495000,5,2.5,Sheppards Way,2960,20037,1999,107,167,13,Sold,,,https://www.redfin.com/VA/Glen-Allen/3304-Mountain-Rd-23060/home/59616729,CVRMLS,2113101,N,Y,37.6706883,-77.5158772
PAST SALE,July-15-2021,Condo/Co-op,9387 Horse Castle Ct #803,Glen Allen,VA,23060,155000,2,2.0,Laurel Lakes Condo,946,979664,1987,143,164,206,Sold,,,https://www.redfin.com/VA/Glen-Allen/9387-Horse-Castle-Ct-23060/unit-803/home/59627947,CVRMLS,2116302,N,Y,37.647507,-77.512114
PAST SALE,September-10-2021,Single Family Residential,2812 Lito Rd,Henrico,VA,23060,255000,3,2.0,Laurel West,1580,14374,1971,86,161,,Sold,,,https://www.redfin.com/VA/Glen-Allen/2812-Lito-Rd-23060/home/59617355,CVRMLS,2125645,N,Y,37.6669289,-77.4960751
PAST SALE,July-24-2020,Single Family Residential,1316 Rhode Island Ave,Glen Allen,VA,23060,286500,3,2.0,Biltmore,1956,20908,1956,499,146,,Sold,,,https://www.redfin.com/VA/Glen-Allen/1316-Rhode-Island-Ave-23060/home/59622581,CVRMLS,2018587,N,Y,37.6518991,-77.4643486
PAST SALE,September-7-2021,Single Family Residential,1934 Brilland Ct,Glen Allen,VA,23060,365000,4,2.5,Brilland West,1995,8276,2013,89,183,,Sold,,,https://www.redfin.com/VA/Glen-Allen/1934-Brilland-Ct-23060/home/59610365,CVRMLS,2118732,N,Y,37.654372,-77.4740288
PAST SALE,,Single Family Residential,10833 Squaw Valley Pl,Glen Allen,VA,23060,392000,4,2.5,,2528,11097,1997,,155,,,,,https://www.redfin.com/VA/Glen-Allen/10833-Squaw-Valley-Pl-23060/home/59619827,,,N,Y,37.6603636,-77.5711213
PAST SALE,May-31-2019,Single Family Residential,9008 Merlin Ct,Henrico,VA,23060,268500,3,2.5,Castle Point,1590,8712,1989,919,169,,Sold,,,https://www.redfin.com/VA/Glen-Allen/9008-Merlin-Ct-23060/home/59615750,CVRMLS,1913189,N,Y,37.6618746,-77.5406026
PAST SALE,March-21-2019,Single Family Residential,7508 Laurel Ridge Ct,Henrico,VA,23060,249500,3,2.5,Hungary Ridge,1548,7405,1995,990,161,8,Sold,,,https://www.redfin.com/VA/Glen-Allen/7508-Laurel-Ridge-Ct-23060/home/59627614,CVRMLS,1903469,N,Y,37.6434065,-77.5240748
PAST SALE,,Single Family Residential,4707 Croft Cir,Glen Allen,VA,23060,305000,4,1.5,,1414,8405,1985,,216,,,,,https://www.redfin.com/VA/Glen-Allen/4707-Croft-Cir-23060/home/59620247,,,N,Y,37.6549478,-77.5452298
PAST SALE,April-2-2019,Single Family Residential,9711 Telegraph Rd,Glen Allen,VA,23060,217000,3,1.5,Stonefield,1600,15245,1924,978,136,3,Sold,,,https://www.redfin.com/VA/Glen-Allen/9711-Telegraph-Rd-23060/home/59623488,CVRMLS,1904411,N,Y,37.6562141,-77.45393
PAST SALE,,Vacant Land,1454 Mountain Rd,Glen Allen,VA,23060,69999,,,,,62726,1997,,,,,,,https://www.redfin.com/VA/Glen-Allen/1454-Mountain-Rd-23060/home/167815535,,,N,Y,37.646818,-77.464642
PAST SALE,April-16-2020,Townhouse,3911 Brownstone Blvd,Henrico,VA,23060,515000,4,4.5,West Broad Village,2828,1742,2015,598,182,200,Sold,,,https://www.redfin.com/VA/Glen-Allen/3911-Brownstone-Blvd-23060/home/59610669,CVRMLS,1935540,N,Y,37.6476425,-77.6047763
PAST SALE,September-8-2021,Single Family Residential,2036 Knotty Dr,Glen Allen,VA,23060,295000,4,2.0,Summerfield,1620,10454,1991,88,182,,Sold,,,https://www.redfin.com/VA/Glen-Allen/2036-Knotty-Dr-23060/home/59623200,CVRMLS,2124279,N,Y,37.6594203,-77.4764487
PAST SALE,December-21-2018,Townhouse,11332 Sadler Walk Ln,Glen Allen,VA,23060,306000,4,3.5,Duncan Park,1816,2178,2014,1080,169,90,Sold,,,https://www.redfin.com/VA/Glen-Allen/11332-Sadler-Walk-Ln-23060/home/59611339,CVRMLS,1833469,N,Y,37.65702653,-77.59087766
PAST SALE,March-29-2021,Condo/Co-op,9352 Castle York Ct #2108,Henrico,VA,23060,168000,2,2.0,Laurel Lakes Condo,1065,979664,1989,251,158,205,Sold,,,https://www.redfin.com/VA/Glen-Allen/9352-Castle-York-Ct-23060/unit-2108/home/59627889,CVRMLS,2104394,N,Y,37.645762,-77.513037
PAST SALE,January-17-2020,Condo/Co-op,4661 Four Seasons Ter Unit B,Glen Allen,VA,23060,197500,2,2.0,Four Seasons Condo,1116,1306,1988,688,177,215,Sold,,,https://www.redfin.com/VA/Glen-Allen/4661-Four-Seasons-Ter-23060/unit-B/home/59615121,CVRMLS,1935116,N,Y,37.663109,-77.573226
PAST SALE,March-5-2019,Condo/Co-op,9397 London Tower Ct #510,Glen Allen,VA,23060,121000,2,2.0,Laurel Lakes Condo,1050,979664,1986,1006,115,200,Sold,,,https://www.redfin.com/VA/Glen-Allen/9397-London-Tower-Ct-23060/unit-510/home/59627914,CVRMLS,1903230,N,Y,37.647068,-77.51363
PAST SALE,,Townhouse,2037 Mountain Gate Ln,Glen Allen,VA,23060,180000,3,2.5,,1376,1708,2004,,131,,,,,https://www.redfin.com/VA/Glen-Allen/2037-Mountain-Gate-Ln-23060/home/59601278,,,N,Y,37.6624593,-77.4856013
PAST SALE,March-6-2020,Townhouse,10565 Mountain Gate Way,Henrico,VA,23060,200000,3,2.5,Mountain Road,1394,2613,2005,639,143,155,Sold,,,https://www.redfin.com/VA/Glen-Allen/10565-Mountain-Gate-Way-23060/home/59601234,CVRMLS,2003116,N,Y,37.6618771,-77.48475
PAST SALE,April-15-2020,Single Family Residential,10405 Warren Rd,Glen Allen,VA,23060,276000,4,2.5,Bretton Woods,1936,12196,1980,599,143,8,Sold,,,https://www.redfin.com/VA/Glen-Allen/10405-Warren-Rd-23060/home/59621505,CVRMLS,2005647,N,Y,37.6586794,-77.5146746
PAST SALE,June-26-2019,Single Family Residential,9028 Arthur Ct,Glen Allen,VA,23060,260000,3,2.5,Castle Point,1454,10890,1989,893,179,,Sold,,,https://www.redfin.com/VA/Glen-Allen/9028-Arthur-Ct-23060/home/59615734,CVRMLS,1913500,N,Y,37.662741,-77.5410505
PAST SALE,March-17-2020,Single Family Residential,10108 Everson Ter,Glen Allen,VA,23060,266000,3,2.5,Cole Run,1884,6098,2007,628,141,,Sold,,,https://www.redfin.com/VA/Glen-Allen/10108-Everson-Ter-23060/home/59607170,CVRMLS,1936796,N,Y,37.6559603,-77.461905
PAST SALE,March-4-2021,Townhouse,2253 High Bush Cir #2253,Glen Allen,VA,23060,208000,2,2.5,Mountain Laurel Townhouses,1152,1742,1988,276,181,180,Sold,,,https://www.redfin.com/VA/Glen-Allen/2253-High-Bush-Cir-23060/home/59617977,CVRMLS,2101791,N,Y,37.6631468,-77.4853325
PAST SALE,October-29-2020,Townhouse,10553 Mountain Gate Way,Glen Allen,VA,23060,218000,3,2.5,Mountain Road Townes,1458,2613,2005,402,150,160,Sold,,,https://www.redfin.com/VA/Glen-Allen/10553-Mountain-Gate-Way-23060/home/59602106,CVRMLS,2027328,N,Y,37.6614907,-77.4851533
PAST SALE,March-27-2019,Condo/Co-op,4128 San Marco Dr #4128,Glen Allen,VA,23060,210000,2,2.0,Villas At Innsbrook,1403,1306,2005,984,150,177,Sold,,,https://www.redfin.com/VA/Glen-Allen/4128-San-Marco-Dr-23060/home/59603333,CVRMLS,1836739,N,Y,37.6635963,-77.5700941
PAST SALE,August-6-2021,Single Family Residential,4521 Thorncroft,Glen Allen,VA,23061,744037,3,2.5,Oakland Hills,2548,,2020,121,292,,Sold,,,https://www.redfin.com/VA/Glen-Allen/4521-Thorncroft-Dr-23060/home/171368985,CVRMLS,2006028,N,Y,37.6568659,-77.5717978
PAST SALE,November-10-2020,Single Family Residential,9433 Willow Ridge Dr,Glen Allen,VA,23060,325000,3,2.5,Hungary Ridge,1690,8712,2000,390,192,8,Sold,,,https://www.redfin.com/VA/Glen-Allen/9433-Willow-Ridge-Dr-23060/home/59628173,CVRMLS,2029131,N,Y,37.6436754,-77.5208496
PAST SALE,January-31-2019,Single Family Residential,1308 Maryland Ave,Glen Allen,VA,23060,125000,2,1.0,Biltmore,1092,20473,1948,1039,114,,Sold,,,https://www.redfin.com/VA/Glen-Allen/1308-Maryland-Ave-23060/home/59630158,CVRMLS,1840283,N,Y,37.6492578,-77.4627435
PAST SALE,May-6-2020,Single Family Residential,10405 Park Tree Pl,Glen Allen,VA,23060,329950,4,2.5,Mountain Glen,2181,11761,1999,578,151,18,Sold,,,https://www.redfin.com/VA/Glen-Allen/10405-Park-Tree-Pl-23060/home/59597661,CVRMLS,2006934,N,Y,37.6599424,-77.4996146
PAST SALE,October-18-2019,Single Family Residential,9204 Newtonwood Ct,Glen Allen,VA,23060,340950,4,2.5,Summerberry,2218,11325,1999,779,154,,Sold,,,https://www.redfin.com/VA/Glen-Allen/9204-Newtonwood-Ct-23060/home/59596739,CVRMLS,1926097,N,Y,37.6752448,-77.5581132
PAST SALE,September-1-2021,Townhouse,10521 Mountain Gate Way,Glen Allen,VA,23060,250500,3,2.5,Mountain Road Townes,1440,1742,2006,95,174,160,Sold,,,https://www.redfin.com/VA/Glen-Allen/10521-Mountain-Gate-Way-23060/home/59602123,CVRMLS,2122585,N,Y,37.6605545,-77.4859598
PAST SALE,July-7-2021,Single Family Residential,1002 Pennsylvania Ave,Glen Allen,VA,23060,153500,2,1.0,Biltmore,780,8712,1952,151,197,,Sold,,,https://www.redfin.com/VA/Glen-Allen/1002-Pennsylvania-Ave-23060/home/59623129,CVRMLS,2116825,N,Y,37.6516596,-77.4564157
PAST SALE,March-17-2021,Townhouse,10721 Mountain Ash Dr,Glen Allen,VA,23060,214950,3,2.5,Mountain Laurel Townhouses,1440,1742,2000,263,149,140,Sold,,,https://www.redfin.com/VA/Glen-Allen/10721-Mountain-Ash-Dr-23060/home/59618150,CVRMLS,2034799,N,Y,37.6641123,-77.4821286
PAST SALE,June-2-2020,Single Family Residential,10111 Longdale Ave,,VA,23060,102000,3,1.0,Longdale,,,1922,551,,,Sold,,,https://www.redfin.com/VA/Glen-Allen/10111-Longdale-Ave-23060/home/59622941,CVRMLS,2018957,N,Y,37.655407,-77.468427
PAST SALE,April-28-2021,Condo/Co-op,9350 Castle York Ct #2208,Glen Allen,VA,23060,190000,2,2.0,Laurel Lakes Condo,1065,979664,1989,221,178,205,Sold,,,https://www.redfin.com/VA/Glen-Allen/9350-Castle-York-Ct-23060/unit-2208/home/59627885,CVRMLS,2107930,N,Y,37.646366,-77.512464
PAST SALE,April-19-2019,Townhouse,2525 Mountain Ash Cir #2525,Glen Allen,VA,23059,178000,2,2.5,Mountain Laurel Townhouses,1388,41817,1998,961,128,130,Sold,,,https://www.redfin.com/VA/Glen-Allen/2525-Mountain-Ash-Cir-23060/home/59618171,CVRMLS,1839151,N,Y,37.6644847,-77.4847388
PAST SALE,January-15-2021,Townhouse,1911 Liesfeld Pkwy,Glen Allen,VA,23060,475000,3,3.5,West Broad Village,3165,1742,2010,324,150,215,Sold,,,https://www.redfin.com/VA/Glen-Allen/1911-Liesfeld-Pkwy-23060/home/59609185,CVRMLS,2033669,N,Y,37.6458812,-77.5983191
PAST SALE,September-18-2019,Townhouse,9723 Candace Ct,Glen Allen,VA,23060,172000,3,2.5,Laurel Lakes Ths,,,1985,809,,100,Sold,,,https://www.redfin.com/VA/Glen-Allen/9723-Candace-Ct-23060/home/59627480,CVRMLS,1930899,N,Y,37.6488312,-77.5148818
PAST SALE,,Townhouse,2513 Perch Ln,Glen Allen,VA,23060,400000,3,3.5,,2002,1202,2013,,200,,,,,https://www.redfin.com/VA/Glen-Allen/2513-Perch-Ln-23060/home/59608014,,,N,Y,37.6480566,-77.6053022
PAST SALE,April-2-2020,Condo/Co-op,9365 Brighter Tower Ct #1409,Henrico,VA,23060,150000,2,2.0,Laurel Lakes Condo,956,979664,1988,612,157,200,Sold,,,https://www.redfin.com/VA/Glen-Allen/9365-Brighter-Tower-Ct-23060/unit-1409/home/59629104,CVRMLS,2004890,N,Y,37.646261,-77.5112076
PAST SALE,June-3-2021,Single Family Residential,4441 Lumberjack Ln,Glen Allen,VA,23060,345000,3,2.5,Woods At Innsbrook,1966,10890,1989,185,175,12,Sold,,,https://www.redfin.com/VA/Glen-Allen/4441-Lumberjack-Ln-23060/home/59619055,CVRMLS,2108908,N,Y,37.6596075,-77.562454
PAST SALE,November-16-2020,Townhouse,10540 Orchard Blossom Dr Unit K-2,Glen Allen,VA,23059,332523,2,2.5,Chickahominy Falls,1730,,2020,384,192,283,Sold,,,https://www.redfin.com/VA/Glen-Allen/10540-Orchard-Blossom-DR-Unknown/unit-K-2/home/173701530,CVRMLS,2034591,N,Y,37.665978,-77.5063739
PAST SALE,,Single Family Residential,9917 Wares Wharf Cir,Glen Allen,VA,23060,440000,3,2.5,,2591,11541,2006,,170,,,,,https://www.redfin.com/VA/Glen-Allen/9917-Wares-Wharf-Cir-23060/home/59603154,,,N,Y,37.6512508,-77.5279494
PAST SALE,March-13-2019,Townhouse,9704 Springfield Woods Cir,Henrico,VA,23060,159950,3,1.5,Springfield Woods,1280,1742,1984,998,125,125,Sold,,,https://www.redfin.com/VA/Glen-Allen/9704-Springfield-Woods-Cir-23060/home/59625790,CVRMLS,1904579,N,Y,37.6457726,-77.5622219
PAST SALE,December-7-2020,Single Family Residential,10800 Kittery Pl,Glen Allen,VA,23060,335000,4,2.5,Lexington,1845,13939,1995,363,182,17,Sold,,,https://www.redfin.com/VA/Glen-Allen/10800-Kittery-Pl-23060/home/59619817,CVRMLS,2033274,N,Y,37.6516182,-77.5702822
PAST SALE,July-19-2021,Condo/Co-op,9351 Kempton Manor Ct #1911,Glen Allen,VA,23060,173000,2,2.0,Laurel Lakes Condo,971,979664,1990,139,178,205,Sold,,,https://www.redfin.com/VA/Glen-Allen/9351-Kempton-Manor-Ct-23060/unit-1911/home/59627854,CVRMLS,2118071,N,Y,37.644899,-77.512439
PAST SALE,January-30-2019,Single Family Residential,1107 Georgia Ave,Glen Allen,VA,23060,177500,3,2.0,,1184,7840,1950,1040,150,,Sold,,,https://www.redfin.com/VA/Glen-Allen/1107-Georgia-Ave-23060/home/59630242,CVRMLS,1841491,N,Y,37.6479066,-77.4576706
PAST SALE,June-24-2021,Condo/Co-op,10211 Wolfe Manor Ct #705,Glen Allen,VA,23060,170000,2,2.0,Landings At Laurel,956,871,1992,164,178,216,Sold,,,https://www.redfin.com/VA/Glen-Allen/10211-Wolfe-Manor-Ct-23060/unit-705/home/59629440,CVRMLS,2115348,N,Y,37.6448637,-77.5102418
PAST SALE,July-19-2019,Single Family Residential,10206 Jordan Dr,Glen Allen,VA,23060,183000,3,2.0,Shepherds Run,1146,12196,1988,870,160,,Sold,,,https://www.redfin.com/VA/Glen-Allen/10206-Jordan-Dr-23060/home/59622368,CVRMLS,1916915,N,Y,37.6548184,-77.5029748
PAST SALE,August-15-2019,Condo/Co-op,10414 Buchmill Dr Unit 2,Glen Allen,VA,23060,435000,3,2.5,The Carriage Homes @ Crossridge,,,2007,843,,300,Sold,,,https://www.redfin.com/VA/Glen-Allen/10414-Buchmill-Dr-23060/home/59607307,CVRMLS,1939504,N,Y,37.6595949,-77.5311822
PAST SALE,December-23-2020,Single Family Residential,5904 Brilland Springs Pl,Glen Allen,VA,23060,310000,4,2.5,Brilland,1856,9583,2007,347,167,,Sold,,,https://www.redfin.com/VA/Glen-Allen/5904-Brilland-Springs-Pl-23060/home/59605984,CVRMLS,2034753,N,Y,37.6533657,-77.4753284
PAST SALE,July-10-2019,Single Family Residential,5022 Snowmass Ter,Glen Allen,VA,23060,400000,4,2.5,The Meadows,2452,,1998,879,163,15,Sold,,,https://www.redfin.com/VA/Glen-Allen/5022-Snowmass-Ter-23060/home/59615618,CVRMLS,1915417,N,Y,37.6621595,-77.5701138
PAST SALE,June-18-2019,Townhouse,3818 Barnyard Trl,Glen Allen,VA,23060,550000,4,4.5,West Broad Village,3462,1306,2012,901,159,200,Sold,,,https://www.redfin.com/VA/Glen-Allen/3818-Barnyard-Trl-23060/home/59610143,CVRMLS,1902491,N,Y,37.6466409,-77.6031536
PAST SALE,July-13-2020,Single Family Residential,2113 Turner Mountain Pl,Glen Allen,VA,23060,278500,3,2.5,,1544,10454,2012,510,180,20,Sold,,,https://www.redfin.com/VA/Glen-Allen/2113-Turner-Mountain-Pl-23060/home/59610789,CVRMLS,2011991,N,Y,37.654791,-77.4757311
PAST SALE,January-23-2019,Single Family Residential,9532 Hungary Ridge Dr,Glen Allen,VA,23060,250000,3,2.5,Hunters Ridge,1652,9583,1994,1047,151,8,Sold,,,https://www.redfin.com/VA/Glen-Allen/9532-Hungary-Ridge-Dr-23060/home/59627656,CVRMLS,1833872,N,Y,37.6455103,-77.5242391
PAST SALE,,Single Family Residential,1933 Brilland Ct,Glen Allen,VA,23060,308000,4,2.5,,2197,12545,2007,,140,,,,,https://www.redfin.com/VA/Glen-Allen/1933-Brilland-Ct-23060/home/59606003,,,N,Y,37.6539387,-77.4738047
PAST SALE,July-14-2020,Single Family Residential,2620 Park Green Way,Glen Allen,VA,23060,350000,4,2.5,Mountain Glen,2229,14374,1996,509,157,18,Sold,,,https://www.redfin.com/VA/Glen-Allen/2620-Park-Green-Way-23060/home/59617666,CVRMLS,2015642,N,Y,37.6617152,-77.4947757
PAST SALE,April-12-2019,Single Family Residential,1424 Maryland Ave,Glen Allen,VA,23060,200000,3,2.0,Biltmore,1120,10018,1993,968,179,,Sold,,,https://www.redfin.com/VA/Glen-Allen/1424-Maryland-Ave-23060/home/59630120,CVRMLS,1903819,N,Y,37.6485695,-77.4656776
PAST SALE,June-27-2019,Single Family Residential,11519 Oscar Pl,Glen Allen,VA,23060,444000,4,3.5,Crawford Park At Greenbrooke Section A,3220,12196,2011,892,138,15,Sold,,,https://www.redfin.com/VA/Glen-Allen/11519-Oscar-Pl-23060/home/59605255,CVRMLS,1916260,N,Y,37.6618663,-77.5946484
PAST SALE,July-10-2019,Single Family Residential,11524 Oscar Pl,Glen Allen,VA,23060,412000,4,2.5,Crawford Park At Greenbrooke Section A,3064,28749,2011,879,134,11,Sold,,,https://www.redfin.com/VA/Glen-Allen/11524-Oscar-Pl-23060/home/59605656,CVRMLS,1918278,N,Y,37.6625622,-77.5946484
PAST SALE,June-25-2021,Single Family Residential,9507 Broad Meadows Rd,Glen Allen,VA,23060,387675,4,2.5,Meredith Woods,2452,13068,1981,163,158,,Sold,,,https://www.redfin.com/VA/Glen-Allen/9507-Broad-Meadows-Rd-23060/home/59620929,CVRMLS,2112180,N,Y,37.6566261,-77.5596805
PAST SALE,August-11-2020,Single Family Residential,5005 Snowmass Ter,Glen Allen,VA,23060,368000,4,2.5,The Meadows,2256,11761,1997,481,163,13,Sold,,,https://www.redfin.com/VA/Glen-Allen/5005-Snowmass-Ter-23060/home/59619858,CVRMLS,2015017,N,Y,37.6609105,-77.5695317
PAST SALE,August-14-2021,Condo/Co-op,10620 Marions Pl,Henrico,VA,23060,331500,3,3.5,Townes At Woodman,1911,3049,2016,113,173,97,Sold,,,https://www.redfin.com/VA/Glen-Allen/10620-Marions-Pl-23060/home/110308237,CVRMLS,2120749,N,Y,37.6620844,-77.4897081
PAST SALE,,Single Family Residential,9715 Needles Way,Glen Allen,VA,23060,210000,3,2.5,,1624,10616,1983,,129,,,,,https://www.redfin.com/VA/Glen-Allen/9715-Needles-Way-23060/home/59618649,,,N,Y,37.6597661,-77.5615304
PAST SALE,October-22-2021,Townhouse,4003 Bush Lake Pl,Glen Allen,VA,23060,230000,3,2.5,Lexington Village Townhouses,1400,2178,1985,44,164,198,Sold,,,https://www.redfin.com/VA/Glen-Allen/4003-Bush-Lake-Way-23060/home/59625944,CVRMLS,2127692,N,Y,37.6474225,-77.5728003
PAST SALE,July-12-2021,Single Family Residential,9704 Olde Milbrooke Way,Glen Allen,VA,23060,405250,4,2.5,Milbrooke,2056,10018,1992,146,197,,Sold,,,https://www.redfin.com/VA/Glen-Allen/9704-Olde-Milbrooke-Way-23060/home/59616155,CVRMLS,2115711,N,Y,37.6673448,-77.5569489
PAST SALE,June-17-2021,Single Family Residential,5424 Wintergreen Rd,Henrico,VA,23060,380000,4,2.5,Winterberry,2481,,1997,171,153,15,Sold,,,https://www.redfin.com/VA/Glen-Allen/5424-Wintergreen-Rd-23060/home/59616655,CVRMLS,2111406,N,Y,37.6705427,-77.5589193
PAST SALE,December-9-2019,Single Family Residential,4621 Halleys Cir,Glen Allen,VA,23060,260000,3,2.0,Broad Meadows,1428,8276,1987,727,182,,Sold,,,https://www.redfin.com/VA/Glen-Allen/4621-Halley-s-Cir-23060/home/59619687,CVRMLS,1935474,N,Y,37.651381,-77.5515751
PAST SALE,June-17-2019,Townhouse,10109 Locklies Dr,Glen Allen,VA,23060,387500,3,2.5,Townes At Crossridge,2336,5662,2004,902,166,155,Sold,,,https://www.redfin.com/VA/Glen-Allen/10109-Locklies-Dr-23060/home/59596572,CVRMLS,1911538,N,Y,37.6550744,-77.5302114
PAST SALE,March-15-2019,Single Family Residential,9941 Greenwood Rd,Glen Allen,VA,23060,156000,3,1.0,Greenwood Park,1252,9583,1937,996,125,,Sold,,,https://www.redfin.com/VA/Glen-Allen/9941-Greenwood-Rd-23060/home/59622837,CVRMLS,1903274,N,Y,37.6521634,-77.4694465
PAST SALE,May-10-2021,Townhouse,9600 Springfield Woods Cir #9600,Glen Allen,VA,23060,190000,3,1.5,Springfield Woods,1220,2613,1980,209,156,129,Sold,,,https://www.redfin.com/VA/Glen-Allen/9600-Springfield-Woods-Cir-23060/home/59626528,CVRMLS,2100660,N,Y,37.6464125,-77.56022
PAST SALE,November-22-2019,Single Family Residential,6200 Joseph Way,Glen Allen,VA,23060,360000,4,2.5,Woodberry,2216,18730,2004,744,162,7,Sold,,,https://www.redfin.com/VA/Glen-Allen/6200-Joseph-Way-23060/home/59591750,CVRMLS,1932360,N,Y,37.6501188,-77.5673152
PAST SALE,October-26-2021,Single Family Residential,4709 Tameo Ct,Glen Allen,VA,23060,350000,4,2.5,Dunncroft,1800,9147,1981,40,194,,Sold,,,https://www.redfin.com/VA/Glen-Allen/4709-Tameo-Ct-23060/home/59620353,CVRMLS,2127555,N,Y,37.6550217,-77.538139
PAST SALE,September-22-2020,Single Family Residential,4404 Willow Run Ter,Glen Allen,VA,23060,424250,4,2.5,Willow Run,2428,10890,2009,439,175,21,Sold,,,https://www.redfin.com/VA/Glen-Allen/4404-Willow-Run-Ter-23060/home/59602518,CVRMLS,2020807,N,Y,37.65699,-77.5842174
PAST SALE,December-22-2020,Single Family Residential,5421 Olde Milbrooke Dr,Henrico,VA,23060,365000,4,2.5,Milbrooke,1950,11761,1994,348,187,,Sold,,,https://www.redfin.com/VA/Glen-Allen/5421-Olde-Milbrooke-Dr-23060/home/59616150,CVRMLS,2033047,N,Y,37.6681389,-77.5574863
PAST SALE,,Single Family Residential,10066 Haleys Hollow Ct,Glen Allen,VA,23060,255000,4,2.0,,1350,17614,1987,,189,,,,,https://www.redfin.com/VA/Glen-Allen/10066-Haleys-Hollow-Ct-23060/home/59617366,,,N,Y,37.6723158,-77.499469
PAST SALE,September-28-2021,Single Family Residential,5428 Wintergreen Rd,Henrico,VA,23060,345000,3,2.5,Winterberry,1602,8712,1996,68,215,10,Sold,,,https://www.redfin.com/VA/Glen-Allen/5428-Wintergreen-Rd-23060/home/59616654,CVRMLS,2124447,N,Y,37.6706437,-77.5590984
PAST SALE,,Townhouse,2027 Mountain Gate Ln,Glen Allen,VA,23060,216000,3,2.5,,1384,1674,2004,,156,,,,,https://www.redfin.com/VA/Glen-Allen/2027-Mountain-Gate-Ln-23060/home/59601253,,,N,Y,37.6621816,-77.4858703
PAST SALE,August-3-2020,Townhouse,3818 Wild Goose Walk,Glen Allen,VA,23060,525000,5,4.5,West Broad Village,2952,1306,2012,489,178,215,Sold,,,https://www.redfin.com/VA/Glen-Allen/3818-Wild-Goose-Walk-23060/home/59610177,CVRMLS,2016357,N,Y,37.6467389,-77.6036908
PAST SALE,,Vacant Land,4509 Padgett Pl,Glen Allen,VA,23060,132500,,,,,,,,,,,,,https://www.redfin.com/VA/Glen-Allen/4509-Padgett-Pl-23060/home/175019017,,,N,Y,37.6500617,-77.5555294
PAST SALE,,Single Family Residential,4512 Padgett Pl,Glen Allen,VA,23060,132500,5,3.0,,2777,,2021,,48,,,,,https://www.redfin.com/VA/Glen-Allen/4512-Padgett-Pl-23060/home/175019010,,,N,Y,37.6500185,-77.5558506
PAST SALE,October-30-2020,Single Family Residential,4808 Greenbrooke Dr,Glen Allen,VA,23060,490000,5,2.5,Sadler Grove,3488,15245,2004,401,140,17,Sold,,,https://www.redfin.com/VA/Glen-Allen/4808-Greenbrooke-Dr-23060/home/59595682,CVRMLS,2026050,N,Y,37.6605305,-77.5920967
PAST SALE,December-2-2019,Single Family Residential,4610 Fairlake Ln,Glen Allen,VA,23060,247000,3,2.5,Broad Meadows,1568,10018,1977,734,158,,Sold,,,https://www.redfin.com/VA/Glen-Allen/4610-Fairlake-Ln-23060/home/59626653,CVRMLS,1931948,N,Y,37.6507161,-77.5549338
PAST SALE,March-15-2021,Single Family Residential,9312 Cason Rd,Glen Allen,VA,23060,260000,4,2.0,Broad Meadows,1788,8712,1976,265,145,,Sold,,,https://www.redfin.com/VA/Glen-Allen/9312-Cason-Rd-23060/home/59626657,CVRMLS,2102012,N,Y,37.6505891,-77.5541277
PAST SALE,June-24-2019,Single Family Residential,10512 Glenmar Ct,Glen Allen,VA,23060,299900,4,2.5,Glen Allen Oaks,2079,9583,1994,895,144,,Sold,,,https://www.redfin.com/VA/Glen-Allen/10512-Glenmar-Ct-23060/home/59617606,CVRMLS,1915793,N,Y,37.6620458,-77.506447
PAST SALE,,Vacant Land,4548 Padgett Pl,Glen Allen,VA,23060,469045,,,,,,,,,,,,,https://www.redfin.com/VA/Glen-Allen/4548-Padgett-Pl-23060/home/175019038,,,N,Y,37.6514409,-77.55578
PAST SALE,October-8-2019,Single Family Residential,9311 Cason Rd,Glen Allen,VA,23060,269000,5,3.0,Broad Meadows,2238,9147,1976,789,120,,Sold,,,https://www.redfin.com/VA/Glen-Allen/9311-Cason-Rd-23060/home/59626670,CVRMLS,1923536,N,Y,37.6501293,-77.5540381
PAST SALE,December-4-2019,Single Family Residential,9328 Becton Rd,Henrico,VA,23060,212000,3,2.0,Broad Meadows,1520,7840,1975,732,139,,Sold,,,https://www.redfin.com/VA/Glen-Allen/9328-Becton-Rd-23060/home/59626675,CVRMLS,1930301,N,Y,37.6498284,-77.5539038
PAST SALE,July-2-2021,Single Family Residential,4912 Snowshoe Ct,Glen Allen,VA,23060,345000,3,2.0,Meredith Woods,1560,15245,1985,156,221,,Sold,,,https://www.redfin.com/VA/Glen-Allen/4912-Snowshoe-Ct-23060/home/59620919,CVRMLS,2116024,N,Y,37.6564389,-77.5560085
PAST SALE,October-31-2019,Single Family Residential,9309 Operator Ct,Glen Allen,VA,23060,176000,3,2.5,Telegraph Station,1436,15245,1997,766,123,,Sold,,,https://www.redfin.com/VA/Glen-Allen/9309-Operator-Ct-23060/home/59623080,CVRMLS,1934688,N,Y,37.6564299,-77.4551261
PAST SALE,July-8-2021,Single Family Residential,9625 Wendhurst Dr,Glen Allen,VA,23060,375000,3,2.5,Kingston,1859,9583,1988,150,202,,Sold,,,https://www.redfin.com/VA/Glen-Allen/9625-Wendhurst-Dr-23060/home/59615474,CVRMLS,2110988,N,Y,37.6650317,-77.5563668
PAST SALE,January-29-2020,Single Family Residential,3921 Houze Ter,Glen Allen,VA,23060,308000,4,2.5,Spring Lake,2166,13939,2009,676,142,22,Sold,,,https://www.redfin.com/VA/Glen-Allen/3921-Houze-Ter-23060/home/59607209,CVRMLS,1931207,N,Y,37.6567384,-77.4811988
PAST SALE,January-22-2021,Single Family Residential,4618 Packard Rd,Henrico,VA,23060,301000,4,2.5,Broad Meadows,1728,12632,1986,317,174,,Sold,,,https://www.redfin.com/VA/Glen-Allen/4618-Packard-Rd-23060/home/59626643,CVRMLS,2027114,N,Y,37.6507819,-77.5509481
PAST SALE,August-19-2021,Townhouse,3811 Fish Pond Ln,Glen Allen,VA,23060,405000,2,2.5,West Broad Village,2234,1742,2010,108,181,250,Sold,,,https://www.redfin.com/VA/Glen-Allen/3811-Fish-Pond-Ln-23060/home/59609183,CVRMLS,2119861,N,Y,37.6455951,-77.5984199
PAST SALE,September-28-2020,Single Family Residential,1032 Brookwood Glen Ln,Glen Allen,VA,23060,255000,4,2.5,Brookwood Glen,1728,9583,2000,433,148,,Sold,,,https://www.redfin.com/VA/Glen-Allen/1032-Brookwood-Glen-Ln-23060/home/59630740,CVRMLS,2027363,N,Y,37.6487896,-77.4548469
PAST SALE,August-19-2021,Single Family Residential,5223 Reids Pointe Rd,Glen Allen,VA,23060,345000,4,2.5,Reids Pointe,2294,12196,1987,108,150,,Sold,,,https://www.redfin.com/VA/Glen-Allen/5223-Reids-Pointe-Rd-23060/home/59615521,CVRMLS,2117815,N,Y,37.663505,-77.5470519
PAST SALE,August-17-2021,Single Family Residential,5001 Shoals Ct,Henrico,VA,23060,680000,4,2.5,Meredith Branch Estates,3928,13939,2017,110,173,45,Sold,,,https://www.redfin.com/VA/Glen-Allen/5001-Shoals-Ct-23060/home/112339726,CVRMLS,2121556,N,Y,37.6590514,-77.5460927
PAST SALE,September-12-2019,Single Family Residential,10337 Woodman Hills Ter,Henrico,VA,23060,335000,3,2.5,Woodman Hills,2008,11325,2003,815,167,29,Sold,,,https://www.redfin.com/VA/Glen-Allen/10337-Woodman-Hills-Ter-23060/home/59597589,CVRMLS,1924199,N,Y,37.6575146,-77.4933867
PAST SALE,,Vacant Land,1519 Mountain Rd,Glen Allen,VA,23060,50000,,,,,25265,,,,,,,,https://www.redfin.com/VA/Glen-Allen/1519-Mountain-Rd-23060/home/163293285,,,N,Y,37.647913,-77.467484
PAST SALE,August-31-2020,Townhouse,2431 Valleymeade Pl,Glen Allen,VA,23060,198834,3,2.5,Mountain Laurel Townhouses,1388,2178,1999,461,143,140,Sold,,,https://www.redfin.com/VA/Glen-Allen/2431-Valleymeade-Pl-23060/home/59618250,CVRMLS,2016440,N,Y,37.6635165,-77.4840106
PAST SALE,March-2-2021,Single Family Residential,4802 Candlelight Pl,Glen Allen,VA,23060,265000,3,2.0,Dunncroft,1400,10018,1983,278,189,,Sold,,,https://www.redfin.com/VA/Glen-Allen/4802-Candlelight-Pl-23060/home/59620184,CVRMLS,2036773,N,Y,37.6544933,-77.5431555
PAST SALE,April-8-2019,Single Family Residential,2815 Rudwick Rd,Glen Allen,VA,23060,224000,3,1.5,Laurel West,1580,14374,1971,972,142,,Sold,,,https://www.redfin.com/VA/Glen-Allen/2815-Rudwick-Rd-23060/home/59617362,CVRMLS,1841848,N,Y,37.6681615,-77.4953582
PAST SALE,October-24-2019,Single Family Residential,9113 Brookwood Glen Dr,Glen Allen,VA,23060,250000,4,2.5,Brookwood Glen,2175,10890,1998,773,115,,Sold,,,https://www.redfin.com/VA/Glen-Allen/9113-Brookwood-Glen-Dr-23060/home/59630769,CVRMLS,1902723,N,Y,37.6484407,-77.4557882
PAST SALE,,Single Family Residential,4820 Cedar Branch Ct,Glen Allen,VA,23060,379500,4,3.0,,2300,11186,1990,,165,,,,,https://www.redfin.com/VA/Glen-Allen/4820-Cedar-Branch-Ct-23060/home/59615232,,,N,Y,37.6656063,-77.5809491
PAST SALE,,Single Family Residential,5129 Linsey Lakes Dr,Glen Allen,VA,23060,270000,3,2.5,,1592,7435,1996,,170,,,,,https://www.redfin.com/VA/Glen-Allen/5129-Linsey-Lakes-Dr-23060/home/59616368,,,N,Y,37.6650405,-77.5510824
PAST SALE,December-5-2019,Single Family Residential,10275 Winston Blvd,Glen Allen,VA,23060,270000,3,2.5,,1700,54014,2008,731,159,,Sold,,,https://www.redfin.com/VA/Glen-Allen/10275-Winston-Blvd-23060/home/59591961,CVRMLS,1931434,N,Y,37.656009,-77.4980465
PAST SALE,March-4-2019,Single Family Residential,11513 Sadler Grove Rd,Glen Allen,VA,23060,466950,5,4.5,Sadler Place,3621,11325,2006,1007,129,15,Sold,,,https://www.redfin.com/VA/Glen-Allen/11513-Sadler-Grove-Rd-23060/home/59602634,CVRMLS,1902328,N,Y,37.66361,-77.5921862
PAST SALE,July-16-2021,Single Family Residential,5172 Hart Mill Dr,Henrico,VA,23060,415000,4,2.5,Springcreek,2450,,1996,142,169,8,Sold,,,https://www.redfin.com/VA/Glen-Allen/5172-Hart-Mill-Dr-23060/home/59616186,CVRMLS,2115250,N,Y,37.672515,-77.5517094
PAST SALE,June-14-2021,Single Family Residential,9204 Emmett Rd,Glen Allen,VA,23060,250400,3,1.0,Broad Meadows,956,7840,1981,174,262,,Sold,,,https://www.redfin.com/VA/Glen-Allen/9204-Emmett-Rd-23060/home/59620082,CVRMLS,2112104,N,Y,37.652134,-77.5485633
PAST SALE,January-28-2021,Single Family Residential,4800 Olde Mill Pond Pl,Henrico,VA,23060,456100,4,2.5,The Ponds At Dandridge Farm,3035,14810,2011,311,150,25,Sold,,,https://www.redfin.com/VA/Glen-Allen/4800-Olde-Mill-Pond-Pl-23060/home/59608303,CVRMLS,2036281,N,Y,37.6570896,-77.5490672
PAST SALE,June-17-2021,Single Family Residential,5012 Shimmering Pl,Glen Allen,VA,23060,548435,5,4.5,Meredith Branch Estates,3300,11325,2020,171,166,45,Sold,,,https://www.redfin.com/VA/Glen-Allen/5012-Shimmering-Pl-23060/home/113277295,CVRMLS,2020239,N,Y,37.6600058,-77.5475669
PAST SALE,August-23-2019,Single Family Residential,4814 Kellywood Dr,Glen Allen,VA,23060,255000,3,2.5,Dunncroft,1462,9583,1981,835,174,,Sold,,,https://www.redfin.com/VA/Glen-Allen/4814-Kellywood-Dr-23060/home/59620236,CVRMLS,1923906,N,Y,37.6548266,-77.5416775
PAST SALE,August-3-2021,Single Family Residential,5200 Linsey Lakes Dr,Glen Allen,VA,23060,325000,3,2.5,Linsey Lakes,1422,8276,1995,124,229,,Sold,,,https://www.redfin.com/VA/Glen-Allen/5200-Linsey-Lakes-Dr-23060/home/59616393,CVRMLS,2119777,N,Y,37.6659935,-77.5515751
PAST SALE,March-15-2021,Townhouse,3807 Duckling Walk,Glen Allen,VA,23260,530000,5,4.5,West Broad Village,2952,1306,2011,265,180,200,Sold,,,https://www.redfin.com/VA/Glen-Allen/3807-Duckling-Walk-23060/home/59607953,CVRMLS,2102614,N,Y,37.6460182,-77.6023031
PAST SALE,March-12-2021,Single Family Residential,5417 Wintergreen Rd,Glen Allen,VA,23060,420000,4,2.5,Winterberry,1940,14810,1997,268,216,13,Sold,,,https://www.redfin.com/VA/Glen-Allen/5417-Wintergreen-Rd-23060/home/59616702,CVRMLS,2102290,N,Y,37.669982,-77.5586506
PAST SALE,September-3-2020,Vacant Land,8520 Cleveland St,Glen Allen,VA,23060,54000,,,W L CLEVELAND ST,,27878,,458,,,Sold,,,https://www.redfin.com/VA/GLEN-ALLEN/8520-CLEVELAND-ST-23060/home/113968090,BRIGHT MLS,VAHN100752,N,Y,37.639572,-77.4645
PAST SALE,May-10-2019,Single Family Residential,3837 Mill Place Dr,Glen Allen,VA,23060,400000,4,3.0,Mill Place West,2398,18295,2008,940,167,10,Sold,,,https://www.redfin.com/VA/Glen-Allen/3837-Mill-Pl-Dr-23060/home/59597010,CVRMLS,1909008,N,Y,37.6793447,-77.5281286
PAST SALE,September-3-2021,Townhouse,1815 Liesfeld Pkwy,Henrico,VA,23060,530000,4,3.5,West Broad Village,2904,1742,2013,93,183,250,Sold,,,https://www.redfin.com/VA/Glen-Allen/1815-Liesfeld-Pkwy-23060/home/59610735,CVRMLS,2122615,N,Y,37.6457151,-77.5974906
PAST SALE,,Single Family Residential,4702 Mill Park Cir,Glen Allen,VA,23060,281450,3,2.0,,1188,8726,1983,,237,,,,,https://www.redfin.com/VA/Glen-Allen/4702-Mill-Park-Cir-23060/home/59620452,,,N,Y,37.6522217,-77.5410505
PAST SALE,July-23-2021,Single Family Residential,4942 Francistown Rd,Glen Allen,VA,23060,569230,5,3.5,Meredith Branch Estates,3143,14810,2020,135,181,45,Sold,,,https://www.redfin.com/VA/Glen-Allen/4942-Francistown-Rd-23060/home/112339767,CVRMLS,2035411,N,Y,37.6604752,-77.5450636
PAST SALE,June-30-2021,Single Family Residential,4946 Francistown Rd,Glen Allen,VA,23060,558000,5,4.5,Meredith Branch Estates,3300,,2020,158,169,45,Sold,,,https://www.redfin.com/VA/Glen-Allen/4946-Francistown-Rd-23060/home/109507433,CVRMLS,2035474,N,Y,37.6606982,-77.5450488
PAST SALE,April-14-2020,Single Family Residential,7608 Hungary Ridge Ter,Glen Allen,VA,23060,265000,3,3.0,Hungary Ridge,1608,7405,1995,600,165,8,Sold,,,https://www.redfin.com/VA/Glen-Allen/7608-Hungary-Ridge-Ter-23060/home/59627639,CVRMLS,2006574,N,Y,37.6442131,-77.5243436
PAST SALE,April-16-2020,Single Family Residential,9937 Rosier Creek Way,Glen Allen,VA,23060,405000,3,3.0,The Cottages At Crossridge,2014,7405,2004,598,201,170,Sold,,,https://www.redfin.com/VA/Glen-Allen/9937-Rosier-Creek-Way-23060/home/59600467,CVRMLS,2004781,N,Y,37.6529718,-77.5333244
PAST SALE,July-6-2021,Single Family Residential,4720 Greenbrooke Dr,Glen Allen,VA,23060,509000,4,2.5,Sadler Grove,2998,12196,2004,152,170,17,Sold,,,https://www.redfin.com/VA/Glen-Allen/4720-Greenbrooke-Dr-23060/home/59593844,CVRMLS,2116234,N,Y,37.6621707,-77.5917385
PAST SALE,July-12-2021,Single Family Residential,2101 Summerhook Ct,Glen Allen,VA,23060,298000,4,2.0,Summerfield,1658,11761,1990,146,180,,Sold,,,https://www.redfin.com/VA/Glen-Allen/2101-Summerhook-Ct-23060/home/59623233,CVRMLS,2117385,N,Y,37.6580312,-77.4760902
PAST SALE,May-15-2020,Single Family Residential,4615 Kellywood Dr,Glen Allen,VA,23060,260077,3,2.5,Dunncroft,1728,8276,1984,569,151,,Sold,,,https://www.redfin.com/VA/Glen-Allen/4615-Kellywood-Dr-23060/home/59620967,CVRMLS,2009096,N,Y,37.6521925,-77.5449917
PAST SALE,June-1-2021,Single Family Residential,10801 Snowmass Ct,Henrico,VA,23060,452000,4,2.5,The Village @ Innsbrook,2469,15681,1992,187,183,,Sold,,,https://www.redfin.com/VA/Glen-Allen/10801-Snowmass-Ct-23060/home/59619379,CVRMLS,2108297,N,Y,37.6565368,-77.5680541
PAST SALE,January-15-2021,Single Family Residential,5004 Meredith Woods Rd,Glen Allen,VA,23060,260000,3,1.5,Bridgewood,1600,8712,1984,324,163,5,Sold,,,https://www.redfin.com/VA/Glen-Allen/5004-Meredith-Woods-Rd-23060/home/59620807,CVRMLS,2037545,N,Y,37.6589848,-77.5549338
PAST SALE,,Single Family Residential,3408 Lanceor Dr,Glen Allen,VA,23060,235000,3,2.0,,1456,15611,1958,,161,,,,,https://www.redfin.com/VA/Glen-Allen/3408-Lanceor-Dr-23060/home/59621948,,,N,Y,37.6550786,-77.5268072
PAST SALE,August-13-2020,Condo/Co-op,4631 Four Seasons Ter,Glen Allen,VA,23060,236500,2,2.0,Four Seasons Condo,1268,,1987,479,187,225,Sold,,,https://www.redfin.com/VA/Glen-Allen/4631-Four-Seasons-Ter-23060/home/59878775,CVRMLS,2020774,N,Y,37.663109,-77.573226
PAST SALE,January-5-2021,Single Family Residential,4807 Tahoe Ct,Glen Allen,VA,23060,260000,4,3.0,Meredith Woods,1524,15681,1980,334,171,,Sold,,,https://www.redfin.com/VA/Glen-Allen/4807-Tahoe-Ct-23060/home/59620893,CVRMLS,2035717,N,Y,37.6553919,-77.5584715
PAST SALE,July-26-2021,Single Family Residential,10100 Molly Ln,Glen Allen,VA,23060,260000,3,2.0,Maurice Walk,1202,10018,1994,132,216,,Sold,,,https://www.redfin.com/VA/Glen-Allen/10100-Molly-Ln-23060/home/59622399,CVRMLS,2118217,N,Y,37.6526928,-77.5018548
PAST SALE,February-19-2020,Townhouse,3926 Village Commons Walk,Henrico,VA,23060,600000,4,4.5,West Broad Village,3462,1306,2014,655,173,200,Sold,,,https://www.redfin.com/VA/Glen-Allen/3926-Village-Commons-Walk-23060/home/59611167,CVRMLS,1935036,N,Y,37.6484029,-77.6077523
PAST SALE,December-21-2020,Townhouse,9542 Sara Beth Cir,Glen Allen,VA,23060,200500,3,2.5,Laurel Lakes Ths,1220,1742,1992,349,164,100,Sold,,,https://www.redfin.com/VA/Glen-Allen/9542-Sara-Beth-Cir-23060/home/59629314,CVRMLS,2031953,N,Y,37.6489755,-77.508799
PAST SALE,January-6-2020,Townhouse,2448 Marions Ln,Glen Allen,VA,23060,279000,3,2.5,Townes At Woodman,1624,3049,2016,699,172,101,Sold,,,https://www.redfin.com/VA/Glen-Allen/2448-Marions-Ln-23060/home/101699981,CVRMLS,1937059,N,Y,37.6626886,-77.4893263
PAST SALE,December-14-2018,Single Family Residential,11089 Staples Mill Rd,Glen Allen,VA,23060,220000,3,2.0,Mountain Spring,1735,,1961,1087,127,,Sold,,,https://www.redfin.com/VA/Glen-Allen/11089-Staples-Mill-Rd-23060/home/59614802,CVRMLS,1824785,N,Y,37.6753236,-77.537781
PAST SALE,September-24-2019,Single Family Residential,11428 Sadler Walk Ln,,VA,23060,430000,4,2.5,Oglethorpe Park @ Sadler Walk,,,2015,803,,27,Sold,,,https://www.redfin.com/VA/Glen-Allen/11428-Sadler-Walk-Ln-23060/home/59610533,CVRMLS,1931930,N,Y,37.6577103,-77.5926201
PAST SALE,June-11-2021,Single Family Residential,10641 Argonne Dr,Glen Allen,VA,23060,465000,4,2.5,Olde Springfield,2446,9583,1994,177,190,,Sold,,,https://www.redfin.com/VA/Glen-Allen/10641-Argonne-Dr-23060/home/59619285,CVRMLS,2110902,N,Y,37.6537151,-77.5650092
PAST SALE,February-7-2020,Condo/Co-op,9361 Brighter Tower Ct #11,Glen Allen,VA,23060,135000,2,2.0,Laurel Lakes Condo,971,,1988,667,139,200,Sold,,,https://www.redfin.com/VA/Glen-Allen/9361-Brighter-Tower-Ct-23060/unit-1611/home/59629080,CVRMLS,1934196,N,Y,37.645719,-77.511599
PAST SALE,August-13-2021,Single Family Residential,1005 Telegraph Station Ln,Glen Allen,VA,23060,309000,4,2.5,Telegraph Station,2135,,1998,114,145,,Sold,,,https://www.redfin.com/VA/Glen-Allen/1005-Telegraph-Station-Ln-23060/home/59623081,CVRMLS,2116263,N,Y,37.6563102,-77.4547573
PAST SALE,July-8-2019,Condo/Co-op,9373 Manowar Ct #1103,Glen Allen,VA,23060,134000,2,2.0,Laurel Lakes Condo,946,979664,1988,881,142,200,Sold,,,https://www.redfin.com/VA/Glen-Allen/9373-Man-O-War-Ct-23060/unit-1103/home/59629144,CVRMLS,1916461,N,Y,37.647301,-77.510971
PAST SALE,September-30-2021,Condo/Co-op,4651 Four Seasons Ter Unit E,Glen Allen,VA,23060,253000,2,2.0,Four Seasons Condo,1268,1306,1987,66,200,232,Sold,,,https://www.redfin.com/VA/Glen-Allen/4651-Four-Seasons-Ter-23060/home/59615320,CVRMLS,2126390,N,Y,37.663109,-77.573226
PAST SALE,,Other,978 SCOTT RD,GLEN ALLEN,VA,23060,70000,,,,,29569,1997,,,,,,,https://www.redfin.com/VA/GLEN-ALLEN/978-SCOTT-RD-23060/home/59630642,,,N,Y,37.639584,-77.455143
PAST SALE,April-19-2019,Single Family Residential,9012 Merlin Ct,Glen Allen,VA,23060,230000,3,2.0,Castle Point,1125,7840,1989,961,204,,Sold,,,https://www.redfin.com/VA/Glen-Allen/9012-Merlin-Ct-23060/home/59615751,CVRMLS,1909910,N,Y,37.6618624,-77.5408714
PAST SALE,May-13-2019,Single Family Residential,10900 Tray Way,Glen Allen,VA,23060,364000,4,2.5,Lexington,2313,12196,1995,937,157,16,Sold,,,https://www.redfin.com/VA/Glen-Allen/10900-Tray-Way-23060/home/59625541,CVRMLS,1909850,N,Y,37.6508614,-77.5728003
PAST SALE,July-30-2021,Townhouse,3510 Gwynns Pl,Glen Allen,VA,23060,420000,3,2.5,Townes At Crossridge,2168,5662,2005,128,194,150,Sold,,,https://www.redfin.com/VA/Glen-Allen/3510-Gwynn-s-Pl-23060/home/59601907,CVRMLS,2117763,N,Y,37.6563803,-77.5328541
PAST SALE,July-19-2021,Townhouse,921 Morattico Cir,Glen Allen,VA,23060,500000,3,2.5,Edgewood At Crossridge,2450,,2013,139,204,155,Sold,,,https://www.redfin.com/VA/Glen-Allen/921-Morattico-Cir-23060/home/59611730,CVRMLS,2116545,N,Y,37.6573325,-77.5350524
PAST SALE,August-6-2019,Single Family Residential,1055 Telegraph Station Ln,Glen Allen,VA,23060,263000,4,2.5,Telegraph Station,1867,16988,1998,852,141,,Sold,,,https://www.redfin.com/VA/Glen-Allen/1055-Telegraph-Station-Ln-23060/home/59623065,CVRMLS,1918748,N,Y,37.655875,-77.4576367
PAST SALE,September-15-2021,Townhouse,4002 Bush Lake Pl #4002,Glen Allen,VA,23060,255000,3,2.5,Lexington Village Townhouses,1424,2178,1985,81,179,218,Sold,,,https://www.redfin.com/VA/Glen-Allen/4002-Bush-Lake-Way-23060/home/59625922,CVRMLS,2123784,N,Y,37.6479595,-77.5728451
PAST SALE,November-12-2019,Condo/Co-op,3421 Coles Point Way Unit E,Henrico,VA,23060,395000,3,2.0,Southall @ Crossridge,2110,2613,2010,754,187,140,Sold,,,https://www.redfin.com/VA/Glen-Allen/3421-Coles-Point-Way-23060/home/59609995,CVRMLS,1932635,N,Y,37.657628,-77.533998
PAST SALE,,Condo/Co-op,3613 Corrotoman Rd,Glen Allen,VA,23060,465000,3,2.5,,2567,,2007,,181,,,,,https://www.redfin.com/VA/Glen-Allen/3613-Corrotoman-Rd-23060/home/59607343,,,N,Y,37.6607135,-77.5333917
PAST SALE,,Vacant Land,10661 GRACIE CT,GLEN ALLEN,VA,23060,140000,,,,,,,,,,,,,https://www.redfin.com/VA/GLEN-ALLEN/10661-GRACIE-CT-23060/home/175019542,,,N,Y,37.6709,-77.5266
PAST SALE,February-19-2021,Single Family Residential,3612 Gracie Ln,Glen Allen,VA,23060,462195,2,2.0,Britlyn North,1898,,2020,289,244,140,Sold,,,https://www.redfin.com/VA/GLEN-ALLEN/3612-GRACIE-LN-23060/home/172762377,CVRMLS,2025065,N,Y,37.6709,-77.5266
PAST SALE,May-11-2020,Townhouse,3814 Duckling Walk,Glen Allen,VA,23060,535000,4,4.0,West Broad Village,2952,2178,2011,573,181,200,Sold,,,https://www.redfin.com/VA/Glen-Allen/3814-Duckling-Walk-23060/home/59607961,CVRMLS,2005301,N,Y,37.6463786,-77.6025158
PAST SALE,December-3-2021,Single Family Residential,3469 Fitchetts Ln,Glen Allen,VA,23060,390000,3,3.0,The Cottages At Crossridge,2158,8276,2003,2,181,185,Sold,,,https://www.redfin.com/VA/Glen-Allen/3469-Fitchetts-Ln-23060/home/59596952,CVRMLS,2129715,N,Y,37.6566486,-77.5286661
PAST SALE,May-19-2021,Single Family Residential,10219 Wilson Ave,Glen Allen,VA,23060,270000,3,2.0,Biltmore,1260,20473,2002,200,214,,Sold,,,https://www.redfin.com/VA/Glen-Allen/10219-Wilson-Ave-23060/home/59622846,CVRMLS,2107018,N,Y,37.6585798,-77.4682477
PAST SALE,May-27-2021,Single Family Residential,9533 Hungary Woods Dr,Glen Allen,VA,23060,381000,4,2.5,Hungary Woods,2251,9147,1998,192,169,11,Sold,,,https://www.redfin.com/VA/Glen-Allen/9533-Hungary-Woods-Dr-23060/home/59628072,CVRMLS,2103907,N,Y,37.6455826,-77.5277703
PAST SALE,February-26-2021,Single Family Residential,3437 Fitchetts Ln,Glen Allen,VA,23060,430000,3,3.0,The Cottages At Crossridge,2128,7840,2002,282,202,185,Sold,,,https://www.redfin.com/VA/Glen-Allen/3437-Fitchetts-Ln-23060/home/59596964,CVRMLS,2101206,N,Y,37.655798,-77.5277927
PAST SALE,March-13-2020,Townhouse,2211 High Bush Cir,Glen Allen,VA,23060,205000,3,3.0,Mountain Laurel Townhouses,1648,2613,1991,632,124,180,Sold,,,https://www.redfin.com/VA/Glen-Allen/2211-High-Bush-Cir-23060/home/59617895,CVRMLS,2002804,N,Y,37.662598,-77.484414
PAST SALE,October-21-2021,Single Family Residential,4512 Fort Mchenry,Henrico,VA,23060,385000,4,2.5,Woods At Innsbrook,1800,9583,1988,45,214,12,Sold,,,https://www.redfin.com/VA/Glen-Allen/4512-Fort-Mchenry-Pkwy-23060/home/59619176,CVRMLS,2128281,N,Y,37.6604944,-77.5663974
PAST SALE,October-19-2021,Single Family Residential,2205 Thomas Kenney Dr,Glen Allen,VA,23060,400000,4,3.0,Spring Lake,2217,11325,2011,47,180,28,Sold,,,https://www.redfin.com/VA/Glen-Allen/2205-Thomas-Kenney-Dr-23060/home/59607137,CVRMLS,2126595,N,Y,37.6573306,-77.4806162
PAST SALE,October-20-2021,Condo/Co-op,9375 Manowar Ct #1009,Glen Allen,VA,23060,186000,2,2.0,Laurel Lakes Condo,956,,1988,46,195,205,Sold,,,https://www.redfin.com/VA/Glen-Allen/9375-Man-O-War-Ct-23060/unit-1009/home/59629147,CVRMLS,2128552,N,Y,37.647656,-77.511175
PAST SALE,August-15-2019,Condo/Co-op,10414 Buchmill Dr #2,,VA,23060,435000,3,2.5,The Carriage Homes @ Crossridge,,,2007,843,,320,Sold,,,https://www.redfin.com/VA/Glen-Allen/10414-Buchmill-Dr-23060/unit-2/home/177041169,CVRMLS,1939509,N,Y,37.6595949,-77.5311822
PAST SALE,September-14-2021,Vacant Land,0000 Mountain Rd,Glen Allen,VA,23060,475000,,,,,825026,,82,,,Sold,,,https://www.redfin.com/VA/GLEN-ALLEN/MOUNTAIN-RD-23060/home/163356933,CVRMLS,2111826,N,Y,37.672764,-77.52963
PAST SALE,July-29-2020,Single Family Residential,9916 Alf Ct,Glen Allen,VA,23060,427000,4,3.5,Tall Timbers,3444,,1995,494,124,,Sold,,,https://www.redfin.com/VA/Glen-Allen/9916-Alf-Ct-23060/home/59621264,CVRMLS,2032913,N,Y,37.6532631,-77.5175496
PAST SALE,November-8-2019,Single Family Residential,1419 Pennsylvania Ave,Henrico,VA,23060,154000,2,1.0,Biltmore,850,7405,1941,758,181,,Sold,,,https://www.redfin.com/VA/Glen-Allen/1419-Pennsylvania-Ave-23060/home/92654184,CVRMLS,1928196,N,Y,37.6495145,-77.4643615
PAST SALE,November-12-2019,Single Family Residential,10555 Woodman Rd,Glen Allen,VA,23060,382000,5,3.5,WOODMAN RD,3642,54842,1996,754,105,,Sold,,,https://www.redfin.com/VA/Glen-Allen/10555-Woodman-Rd-23060/home/59618082,BRIGHT MLS,VAHN100660,N,Y,37.6614322,-77.4868
PAST SALE,January-23-2020,Single Family Residential,6005 Topping Ln,Glen Allen,VA,23060,430000,4,2.5,Oaks At Crossridge,2980,23086,2003,682,144,28,Sold,,,https://www.redfin.com/VA/Glen-Allen/6005-Topping-Ln-23060/home/59593531,CVRMLS,1938122,N,Y,37.6628196,-77.530301
PAST SALE,September-27-2019,Townhouse,9758 Candace Ter,Glen Allen,VA,23060,165000,3,2.5,Laurel Lakes Ths,1280,1742,1986,800,129,100,Sold,,,https://www.redfin.com/VA/Glen-Allen/9758-Candace-Ter-23060/home/59627411,CVRMLS,1928185,N,Y,37.648573,-77.516277
PAST SALE,July-21-2021,Single Family Residential,3306 Lanceor Dr,Glen Allen,VA,23060,310000,3,1.5,Courtney,1530,16988,1971,137,203,,Sold,,,https://www.redfin.com/VA/Glen-Allen/3306-Lanceor-Dr-23060/home/59621954,CVRMLS,2117279,N,Y,37.6545071,-77.5237612
PAST SALE,May-18-2020,Single Family Residential,2853 Haleys Hollow Rd,Henrico,VA,23060,229500,3,2.0,Haleys Hollow,1198,16552,1988,566,192,,Sold,,,https://www.redfin.com/VA/Glen-Allen/2853-Haleys-Hollow-Rd-23060/home/59617164,CVRMLS,2009534,N,Y,37.6710416,-77.5012275
PAST SALE,January-12-2021,Single Family Residential,1108 New York Ave,Glen Allen,VA,23060,279950,3,2.5,Biltmore,1672,,2020,327,167,,Sold,,,https://www.redfin.com/VA/Glen-Allen/1108-New-York-Ave-23060/home/171370575,CVRMLS,2030079,N,Y,37.6520844,-77.4588412
PAST SALE,December-26-2018,Townhouse,9524 Spring Moss Ter #9524,Glen Allen,VA,23060,262000,3,2.5,The Townes At Meredith Creek,1838,3049,2003,1075,143,190,Sold,,,https://www.redfin.com/VA/Glen-Allen/9524-Spring-Moss-Ter-23060/home/59592924,CVRMLS,1828573,N,Y,37.6504544,-77.5597701
PAST SALE,July-16-2021,Single Family Residential,3248 Lakewood Rd,Glen Allen,VA,23060,385000,4,3.0,Forest Lodge Acres,2165,69696,1959,142,178,,Sold,,,https://www.redfin.com/VA/Glen-Allen/3248-Lakewood-Rd-23060/home/59616621,CVRMLS,2116319,N,Y,37.6647448,-77.5189528
PAST SALE,July-6-2021,Single Family Residential,10601 Sands Ct,Henrico,VA,23060,400000,4,2.5,Church Glen,1966,21344,1997,152,203,8,Sold,,,https://www.redfin.com/VA/Glen-Allen/10601-Sands-Ct-23060/home/59616860,CVRMLS,2115955,N,Y,37.6704604,-77.5198641
PAST SALE,July-30-2021,Single Family Residential,10633 Courtney Rd,Glen Allen,VA,23060,483950,5,4.5,,3288,21780,2007,128,147,,Sold,,,https://www.redfin.com/VA/Glen-Allen/10633-Courtney-Rd-23060/home/59605483,CVRMLS,2118715,N,Y,37.6685151,-77.5202977
PAST SALE,March-18-2021,Townhouse,204 Geese Lndg #204,Glen Allen,VA,23060,470000,4,3.5,West Broad Village,2892,,2014,262,163,250,Sold,,,https://www.redfin.com/VA/Glen-Allen/204-Geese-Lndg-23060/home/59610727,CVRMLS,2037396,N,Y,37.6454913,-77.596674
PAST SALE,December-29-2020,Single Family Residential,9651 Laurel Heights Ct,Glen Allen,VA,23060,500000,4,3.0,,2200,23522,2020,341,227,,Sold,,,https://www.redfin.com/VA/Glen-Allen/9651-Laurel-Heights-Ct-23060/home/171369928,CVRMLS,2011824,N,Y,37.646454,-77.516288
PAST SALE,September-30-2020,Townhouse,9504 Kimberly Lynn Cir,Glen Allen,VA,23060,194000,3,1.5,Laurel Lakes Ths,1280,1742,1990,431,152,100,Sold,,,https://www.redfin.com/VA/Glen-Allen/9504-Kimberly-Lynn-Cir-23060/home/59629290,CVRMLS,2023646,N,Y,37.6501279,-77.5115318
PAST SALE,June-1-2021,Townhouse,9728 Candace Ter,Henrico,VA,23060,215000,3,1.5,Laurel Lakes Ths,1280,1742,1986,187,168,100,Sold,,,https://www.redfin.com/VA/Glen-Allen/9728-Candace-Ter-23060/home/59627457,CVRMLS,2109726,N,Y,37.6476492,-77.5154382
PAST SALE,February-5-2021,Single Family Residential,9658 Laurel Heights Ct,Glen Allen,VA,23060,496000,4,3.0,,2200,24829,2020,303,225,,Sold,,,https://www.redfin.com/VA/Glen-Allen/9658-Laurel-Heights-Ct-23060/home/171369920,CVRMLS,2026886,N,Y,37.646659,-77.517337
PAST SALE,August-27-2021,Single Family Residential,9655 Laurel Heights Ct,Glen Allen,VA,23060,568328,4,3.0,Laurel Heights,2750,18295,2021,100,207,,Sold,,,https://www.redfin.com/VA/Glen-Allen/9655-Laurel-Heights-Ct-23060/home/171369927,CVRMLS,2100825,N,Y,37.646828,-77.516562
PAST SALE,April-14-2021,Single Family Residential,1939 Greenstone Ct,Glen Allen,VA,23060,271000,3,2.5,Greenwood Meadows Sec A,1584,8276,2001,235,171,,Sold,,,https://www.redfin.com/VA/Glen-Allen/1939-Greenstone-Ct-23060/home/59591914,CVRMLS,2105605,N,Y,37.655279,-77.474757
PAST SALE,December-6-2019,Condo/Co-op,9396 Wind Haven Ct #209,Glen Allen,VA,23060,145500,2,2.0,Laurel Lakes Condo,956,979664,1986,730,152,198,Sold,,,https://www.redfin.com/VA/Glen-Allen/9396-Wind-Haven-Ct-23060/unit-209/home/59627998,CVRMLS,1930039,N,Y,37.646046,-77.51389
PAST SALE,March-8-2019,Condo/Co-op,9377 Manowar Ct #901,Glen Allen,VA,23060,125000,2,2.0,Laurel Lakes Condo,946,,1988,1003,132,200,Sold,,,https://www.redfin.com/VA/Glen-Allen/9377-Man-O-War-Ct-23060/unit-901/home/59629168,CVRMLS,1900158,N,Y,37.647537,-77.511672
PAST SALE,June-17-2020,Condo/Co-op,9377 Manowar Ct #912,Glen Allen,VA,23060,147500,2,2.0,Laurel Lakes Condo,1065,979664,1988,536,138,205,Sold,,,https://www.redfin.com/VA/Glen-Allen/9377-Man-O-War-Ct-23060/unit-912/home/59629154,CVRMLS,2014624,N,Y,37.647537,-77.511672
PAST SALE,December-21-2020,Condo/Co-op,9371 Manowar Ct #1206,Glen Allen,VA,23060,162000,2,2.0,Laurel Lakes Condo,1050,979664,1988,349,154,205,Sold,,,https://www.redfin.com/VA/Glen-Allen/9371-Man-O-War-Ct-23060/unit-1206/home/59629122,CVRMLS,2033353,N,Y,37.6469016,-77.5111401
PAST SALE,August-3-2020,Townhouse,802 Geese Lndg,Glen Allen,VA,23060,580000,4,4.0,West Broad Village,3462,435,2014,489,168,215,Sold,,,https://www.redfin.com/VA/Glen-Allen/802-Geese-Lndg-23060/home/59610157,CVRMLS,2008577,N,Y,37.64649,-77.604095
PAST SALE,December-27-2018,Condo/Co-op,9352 Castle York Ct #2109,Henrico,VA,23060,120000,2,2.0,Laurel Lakes Condo,956,979664,1989,1074,126,198,Sold,,,https://www.redfin.com/VA/Glen-Allen/9352-Castle-York-Ct-23060/unit-2109/home/59627890,CVRMLS,1839725,N,Y,37.645762,-77.513037
PAST SALE,October-4-2019,Single Family Residential,10012 Washington Rd,Glen Allen,VA,23060,204000,3,2.0,Greenwood Park,1248,10018,2007,793,163,,Sold,,,https://www.redfin.com/VA/Glen-Allen/10012-Washington-Rd-23060/home/59607129,CVRMLS,1928660,N,Y,37.653563,-77.4687855
PAST SALE,,Townhouse,9713 Candace Ter,Glen Allen,VA,23060,151800,3,1.5,,1280,1752,1986,,119,,,,,https://www.redfin.com/VA/Glen-Allen/9713-Candace-Ter-23060/home/59627501,,,N,Y,37.6475496,-77.5146126
PAST SALE,,Single Family Residential,5619 Olde Hartley Way,Glen Allen,VA,23060,250000,4,2.5,,3058,44749,1996,,82,,,,,https://www.redfin.com/VA/Glen-Allen/5619-Olde-Hartley-Way-23060/home/59614829,,,N,Y,37.6750697,-77.5541725
PAST SALE,June-7-2021,Single Family Residential,9505 Hungary Ridge Dr,Henrico,VA,23060,325000,3,2.5,Hungary Ridge,1516,7840,1995,181,214,10,Sold,,,https://www.redfin.com/VA/Glen-Allen/9505-Hungary-Ridge-Dr-23060/home/59628181,CVRMLS,2107663,N,Y,37.6442352,-77.5234029
PAST SALE,December-4-2019,Condo/Co-op,10214 Wolfe Manor Ct #106,Henrico,VA,23060,155000,2,2.0,Landings At Laurel,1050,871,1995,732,148,216,Sold,,,https://www.redfin.com/VA/Glen-Allen/10214-Wolfe-Manor-Ct-23060/unit-106/home/59629476,CVRMLS,1933885,N,Y,37.6448637,-77.5102418
PAST SALE,February-15-2019,Single Family Residential,10323 Winston Blvd,Glen Allen,VA,23060,216000,3,2.0,Calls Corner,1207,11325,1985,1024,179,,Sold,,,https://www.redfin.com/VA/Glen-Allen/10323-Winston-Blvd-23060/home/59622059,CVRMLS,1900347,N,Y,37.6577304,-77.497688
PAST SALE,June-17-2021,Single Family Residential,9913 Klaus Cir,Glen Allen,VA,23060,390000,5,2.5,Tall Timbers,2701,11325,1990,171,144,8,Sold,,,https://www.redfin.com/VA/Glen-Allen/9913-Klaus-Cir-23060/home/59622385,CVRMLS,2109902,N,Y,37.6543294,-77.5113974
PAST SALE,,Single Family Residential,10222 Acworth Dr,Glen Allen,VA,23060,307500,4,2.5,,1902,11928,1982,,162,,,,,https://www.redfin.com/VA/Glen-Allen/10222-Acworth-Dr-23060/home/59621705,,,N,Y,37.6608925,-77.5107702
PAST SALE,March-28-2019,Condo/Co-op,4102 San Marco Dr,Glen Allen,VA,23060,231000,2,2.0,VILLAS AT INNSBROOK,1403,,2005,983,165,169,Sold,,,https://www.redfin.com/VA/Glen-Allen/4102-San-Marco-Dr-23060/home/59603279,BRIGHT MLS,VAHN100594,N,Y,37.6633258,-77.5693723
PAST SALE,July-30-2021,Single Family Residential,936 Stonemeadow Dr,Glen Allen,VA,23060,250000,4,2.5,Stonefield,1540,18730,1999,128,162,,Sold,,,https://www.redfin.com/VA/Glen-Allen/936-Stonemeadow-Dr-23060/home/59623481,CVRMLS,2117024,N,Y,37.656654,-77.4530092
PAST SALE,July-15-2020,Townhouse,2272 High Bush Cir,Glen Allen,VA,23060,198000,3,2.0,Mountain Laurel Townhouses,1240,2178,1989,508,160,180,Sold,,,https://www.redfin.com/VA/Glen-Allen/2272-High-Bush-Cir-23060/home/59617930,CVRMLS,2017337,N,Y,37.6638061,-77.4853772
PAST SALE,December-3-2021,Townhouse,10613 Marions Pl,Henrico,VA,23060,350000,3,3.5,Townes At Woodman,1896,2178,2016,2,185,116,Sold,,,https://www.redfin.com/VA/Glen-Allen/10613-Marions-Pl-23060/home/110308229,CVRMLS,2132222,N,Y,37.6617365,-77.4891965
PAST SALE,August-19-2019,Condo/Co-op,9350 Castle York Ct #2209,Glen Allen,VA,23060,141000,2,2.0,Laurel Lakes Condo,956,979664,1989,839,147,198,Sold,,,https://www.redfin.com/VA/Glen-Allen/9350-Castle-York-Ct-23060/unit-2209/home/59627886,CVRMLS,1923600,N,Y,37.646366,-77.512464
PAST SALE,September-15-2021,Single Family Residential,1109 New York Ave,Henrico,VA,23060,215000,2,1.0,Biltmore,1212,8712,1952,81,177,,Sold,,,https://www.redfin.com/VA/Glen-Allen/1109-New-York-Ave-23060/home/59623148,CVRMLS,2124905,N,Y,37.651719,-77.4585464
PAST SALE,September-28-2020,Townhouse,3011 Sara Jean Ter,Henrico,VA,23060,205000,2,2.5,Laurel Lakes Ths,1292,2613,1994,433,159,100,Sold,,,https://www.redfin.com/VA/Glen-Allen/3011-Sara-Jean-Ter-23060/home/59622153,CVRMLS,2024642,N,Y,37.650677,-77.509303
PAST SALE,April-19-2019,Townhouse,9452 Tracey Lynne Cir,Glen Allen,VA,23060,167500,3,2.5,Laurel Lakes Ths,1200,1742,1988,961,140,100,Sold,,,https://www.redfin.com/VA/Glen-Allen/9452-Tracey-Lynne-Cir-23060/home/59627356,CVRMLS,1906017,N,Y,37.6488426,-77.5118566
PAST SALE,June-15-2021,Single Family Residential,2611 Indale Rd,Glen Allen,VA,23060,337000,3,2.0,Windsor Woods,1768,10454,1983,173,191,,Sold,,,https://www.redfin.com/VA/Glen-Allen/2611-Indale-Rd-23060/home/59621853,CVRMLS,2111088,N,Y,37.6584064,-77.4997938
PAST SALE,,Single Family Residential,10120 Brookemoor Ln,Glen Allen,VA,23060,470000,4,2.5,,3224,39762,1990,,146,,,,,https://www.redfin.com/VA/Glen-Allen/10120-Brookemoor-Ln-23060/home/59622331,,,N,Y,37.6562857,-77.5074998
PAST SALE,June-24-2020,Townhouse,9527 Kimberly Lynn Cir,Henrico,VA,23060,177000,2,1.5,Laurel Lakes Ths,1220,1742,1990,529,145,100,Sold,,,https://www.redfin.com/VA/Glen-Allen/9527-Kimberly-Lynn-Cir-23060/home/59629384,CVRMLS,2013593,N,Y,37.6494557,-77.5108934
PAST SALE,,Townhouse,3806 Duckling Walk,Glen Allen,VA,23060,561500,4,4.0,,3438,1440,2011,,163,,,,,https://www.redfin.com/VA/Glen-Allen/3806-Duckling-Walk-23060/home/59607958,,,N,Y,37.646081,-77.6026053
PAST SALE,,Townhouse,9741 Greenmeadow Cir,Glen Allen,VA,23060,125000,3,1.5,,1220,1684,1984,,102,,,,,https://www.redfin.com/VA/Glen-Allen/9741-Greenmeadow-Cir-23060/home/59625779,,,N,Y,37.6444314,-77.5626543
PAST SALE,March-13-2020,Townhouse,1805 Liesfeld Pkwy #1805,Glen Allen,VA,23060,435000,3,3.0,West Broad Village,2892,1742,2013,632,150,200,Sold,,,https://www.redfin.com/VA/Glen-Allen/1805-Liesfeld-Pkwy-23060/home/59610720,CVRMLS,1938409,N,Y,37.645666,-77.5970657
PAST SALE,January-9-2020,Single Family Residential,2401 Barda Cir,Glen Allen,VA,23060,396000,4,2.5,Woodman Glen,2917,14374,2014,696,136,,Sold,,,https://www.redfin.com/VA/Glen-Allen/2401-Barda-Cir-23060/home/59611245,CVRMLS,1928078,N,Y,37.6587925,-77.4927557
PAST SALE,October-23-2020,Single Family Residential,10513 Servo Dr,Henrico,VA,23060,395000,4,2.5,Woodman Glen,2295,13939,2014,408,172,,Sold,,,https://www.redfin.com/VA/Glen-Allen/10513-Servo-Dr-23060/home/101397315,CVRMLS,2025419,N,Y,37.6592524,-77.4929674
PAST SALE,November-24-2021,Single Family Residential,6541 Liddy Cir,Glen Allen,VA,23060,476985,2,2.0,Britlyn South,1898,,2021,11,251,150,Sold,,,https://www.redfin.com/VA/Glen-Allen/6541-Liddy-CIR-23060/home/174781368,CVRMLS,2108124,N,Y,37.663282,-77.5275463
PAST SALE,September-29-2021,Single Family Residential,10916 Tray Way,Glen Allen,VA,23060,388500,4,3.5,Lexington,2555,8276,1994,67,152,21,Sold,,,https://www.redfin.com/VA/Glen-Allen/10916-Tray-Way-23060/home/59625973,CVRMLS,2125442,N,Y,37.6507159,-77.5737406
PAST SALE,September-27-2021,Single Family Residential,5210 Fairlake Ln,Glen Allen,VA,23060,401500,4,2.5,Reids Pointe,1859,20037,1987,69,216,,Sold,,,https://www.redfin.com/VA/Glen-Allen/5210-Fairlake-Ln-23060/home/59615526,CVRMLS,2125581,N,Y,37.6628873,-77.5489328
PAST SALE,September-28-2021,Single Family Residential,9127 Creekwalk Pl,Glen Allen,VA,23060,651800,4,4.5,Townsend,4391,13939,2016,68,148,30,Sold,,,https://www.redfin.com/VA/Glen-Allen/9127-Creekwalk-Pl-23060/home/101397222,CVRMLS,2124080,N,Y,37.6663902,-77.5472575
PAST SALE,September-28-2021,Townhouse,3508 Gwynns Pl,Glen Allen,VA,23060,440000,3,2.5,Townes At Crossridge,2336,5662,2005,68,188,150,Sold,,,https://www.redfin.com/VA/Glen-Allen/3508-Gwynn-s-Pl-23060/home/59601906,CVRMLS,2126472,N,Y,37.6564382,-77.5326302
PAST SALE,September-29-2021,Single Family Residential,9641 Wilshire Dr,Richmond,VA,23060,429000,5,2.5,Brittany,2344,13068,1994,67,183,,Sold,,,https://www.redfin.com/VA/Glen-Allen/9641-Wilshire-Dr-23060/home/59627573,CVRMLS,2124400,N,Y,37.6501911,-77.5262697
PAST SALE,,Single Family Residential,10545 Glencoe Rd,Glen Allen,VA,23060,275000,3,2.0,,2970,30996,1965,,93,,,,,https://www.redfin.com/VA/Glen-Allen/10545-Glencoe-Rd-23060/home/59616925,,,N,Y,37.6636643,-77.520984
PAST SALE,November-24-2020,Townhouse,549 Geese Lndg,Henrico,VA,23060,374000,3,3.5,West Broad Village,2220,1306,2010,376,168,215,Sold,,,https://www.redfin.com/VA/Glen-Allen/549-Geese-Lndg-23060/home/56532863,CVRMLS,2031153,N,Y,37.6453955,-77.6014526
PAST SALE,March-25-2021,Townhouse,10612 Marions Pl,Glen Allen,VA,23060,290000,3,2.5,Townes At Woodman,1532,2178,2016,255,189,116,Sold,,,https://www.redfin.com/VA/Glen-Allen/10612-Marions-Pl-23060/home/110308217,CVRMLS,2103693,N,Y,37.6618391,-77.4897838
PAST SALE,November-3-2020,Single Family Residential,2712 Rudwick Rd,Glen Allen,VA,23060,376000,4,2.5,Mountain Woods,2980,16117,2002,397,126,,Sold,,,https://www.redfin.com/VA/Glen-Allen/2712-Rudwick-Rd-23060/home/59597571,CVRMLS,2028349,N,Y,37.6651747,-77.4923114
PAST SALE,July-24-2020,Townhouse,10624 Marions Pl,Glen Allen,VA,23060,295000,3,3.5,Townes At Woodman,1914,2178,2016,499,154,101,Sold,,,https://www.redfin.com/VA/Glen-Allen/10624-Marions-Pl-23060/home/110308239,CVRMLS,2009661,N,Y,37.6621961,-77.4896715
PAST SALE,,Townhouse,10626 Marions Pl,Glen Allen,VA,23060,285000,3,3.5,,1911,1999,2016,,149,,,,,https://www.redfin.com/VA/Glen-Allen/10626-Marions-Pl-23060/home/110308246,,,N,Y,37.6622494,-77.4896547
PAST SALE,August-9-2021,Townhouse,2432 Marions Ln,Glen Allen,VA,23060,336000,3,3.5,Townes At Woodman,1913,3049,2015,118,176,116,Sold,,,https://www.redfin.com/VA/Glen-Allen/2432-Marions-Ln-23060/home/80188964,CVRMLS,2120665,N,Y,37.6625634,-77.4886982
PAST SALE,September-23-2020,Townhouse,2463 Marions Ln,Glen Allen,VA,23060,305000,3,3.5,Townes At Woodman,1911,2178,2016,438,160,116,Sold,,,https://www.redfin.com/VA/Glen-Allen/2463-Marions-Ln-23060/home/104487524,CVRMLS,2024020,N,Y,37.6623493,-77.4901005
PAST SALE,October-14-2021,Single Family Residential,2916 Barwood Rd,Henrico,VA,23060,280000,3,1.5,Laurel West,1580,19166,1973,52,177,,Sold,,,https://www.redfin.com/VA/Glen-Allen/2916-Barwood-Rd-23060/home/59617264,CVRMLS,2127236,N,Y,37.6715844,-77.4944621
PAST SALE,October-13-2021,Single Family Residential,10107 Contessa Dr,Glen Allen,VA,23060,334500,3,2.0,Tall Timbers,1831,15681,1983,53,183,15,Sold,,,https://www.redfin.com/VA/Glen-Allen/10107-Contessa-Dr-23060/home/59621485,CVRMLS,2127227,N,Y,37.6552621,-77.518005
PAST SALE,October-15-2021,Single Family Residential,3209 Forest Lodge Ct,Glen Allen,VA,23060,381000,4,2.5,Forest Lodge Acres,1932,24393,1986,51,197,,Sold,,,https://www.redfin.com/VA/Glen-Allen/3209-Forest-Lodge-Ct-23060/home/59616508,CVRMLS,2125803,N,Y,37.6677292,-77.5160119
PAST SALE,July-6-2021,Townhouse,2215 High Bush Cir,Glen Allen,VA,23060,205000,2,1.5,Mountain Laurel Townhouses,1188,1742,1991,152,173,180,Sold,,,https://www.redfin.com/VA/Glen-Allen/2215-High-Bush-Cir-23060/home/59617897,CVRMLS,2115091,N,Y,37.662654,-77.484557
PAST SALE,,Single Family Residential,10501 Meadowbrook Rd,Glen Allen,VA,23060,355000,3,2.0,,1932,88470,1960,,184,,,,,https://www.redfin.com/VA/Glen-Allen/10501-Meadowbrook-Rd-23060/home/59621326,,,N,Y,37.6609402,-77.5152276
PAST SALE,October-15-2021,Townhouse,2444 Marions Ln #2444,Glen Allen,VA,23060,345000,3,3.5,Townes At Woodman,1913,3049,2015,51,180,116,Sold,,,https://www.redfin.com/VA/Glen-Allen/2444-Marions-Ln-23060/home/93335420,CVRMLS,2126284,N,Y,37.6626802,-77.4891449
PAST SALE,October-15-2021,Single Family Residential,9909 Mountain Pl,Glen Allen,VA,23060,277500,3,2.5,North Run Ridge,1848,9583,1996,51,150,,Sold,,,https://www.redfin.com/VA/Glen-Allen/9909-Mountain-Pl-23060/home/59623274,CVRMLS,2127754,N,Y,37.6521223,-77.4734686
PAST SALE,March-15-2021,Townhouse,804 Geese Lndg,Glen Allen,VA,23060,575000,3,4.0,West Broad Village,2952,871,2014,265,195,250,Sold,,,https://www.redfin.com/VA/Glen-Allen/804-Geese-Lndg-23060/home/59610159,CVRMLS,2102747,N,Y,37.6465446,-77.6041418
PAST SALE,August-2-2021,Single Family Residential,2259 Thomas Kenney Dr,Glen Allen,VA,23060,391000,4,2.5,Spring Lake,2640,13068,2009,125,148,28,Sold,,,https://www.redfin.com/VA/Glen-Allen/2259-Thomas-Kenney-Dr-23060/home/59607174,CVRMLS,2118851,N,Y,37.6563482,-77.4836634
PAST SALE,September-9-2020,Condo/Co-op,9371 Manowar Ct Ct #1210,Glen Allen,VA,23060,177500,2,2.0,Laurel Lakes Condo,1050,979664,1988,452,169,205,Sold,,,https://www.redfin.com/VA/Glen-Allen/9371-Man-O-War-Ct-23060/unit-1210/home/59629126,CVRMLS,2024154,N,Y,37.6469016,-77.5111401
PAST SALE,June-15-2021,Townhouse,3808 Duckling Walk,Glen Allen,VA,23060,535000,5,4.5,West Broad Village,2952,,2011,173,181,250,Sold,,,https://www.redfin.com/VA/Glen-Allen/3808-Duckling-Walk-23060/home/59607959,CVRMLS,2108487,N,Y,37.6461286,-77.6025717
PAST SALE,,Vacant Land,3601 GRACIE LN,GLEN ALLEN,VA,23060,140000,,,,,,,,,,,,,https://www.redfin.com/VA/GLEN-ALLEN/3601-GRACIE-LN-23060/home/175019547,,,N,Y,37.6709,-77.5266
PAST SALE,June-24-2019,Condo/Co-op,10218 Wolfe Manor Ct #10,Glen Allen,VA,23228,148000,2,2.0,Landings At Laurel,1065,871,1992,895,139,213,Sold,,,https://www.redfin.com/VA/Glen-Allen/10218-Wolfe-Manor-Ct-23060/unit-310/home/59629521,CVRMLS,1914845,N,Y,37.6438357,-77.5109342
PAST SALE,,Single Family Residential,4700 Cedar Forest Rd,Glen Allen,VA,23060,391000,4,2.5,,2156,11595,1990,,181,,,,,https://www.redfin.com/VA/Glen-Allen/4700-Cedar-Forest-Rd-23060/home/59615251,,,N,Y,37.6648048,-77.5807252
PAST SALE,June-21-2019,Townhouse,10513 Mountain Gate Way,Henrico,VA,23060,209000,3,2.5,Mountain Road Townes,1440,1742,2006,898,145,155,Sold,,,https://www.redfin.com/VA/Glen-Allen/10513-Mountain-Gate-Way-23060/home/59602127,CVRMLS,1913089,N,Y,37.6603123,-77.4861839
PAST SALE,February-10-2020,Townhouse,9633 Springfield Woods Ct,Henrico,VA,23060,173000,3,1.5,Springfield Woods,1220,2613,1981,664,142,129,Sold,,,https://www.redfin.com/VA/Glen-Allen/9633-Springfield-Woods-Ct-23060/home/59625836,CVRMLS,1937580,N,Y,37.6456312,-77.5616232
PAST SALE,July-21-2021,Townhouse,2405 Valleymeade Pl,Henrico,VA,23060,245000,3,2.5,Mountain Laurel Townhouses,1286,1742,2000,137,191,140,Sold,,,https://www.redfin.com/VA/Glen-Allen/2405-Valleymeade-Pl-23060/home/59618249,CVRMLS,2118695,N,Y,37.66352,-77.4830922
PAST SALE,September-24-2021,Condo/Co-op,10207 Wolfe Manor #902 Ct #902,Glen Allen,VA,23060,175000,2,2.0,Landings At Laurel,1040,871,1994,72,168,216,Sold,,,https://www.redfin.com/VA/Glen-Allen/10207-Wolfe-Manor-Ct-23060/unit-902/home/59629454,CVRMLS,2125437,N,Y,37.6448637,-77.5102418
PAST SALE,,Single Family Residential,10702 Claytor Country Ln,Glen Allen,VA,23060,250000,3,2.0,,1428,43560,1950,,175,,,,,https://www.redfin.com/VA/Glen-Allen/10702-Claytor-Country-Ln-23060/home/59617238,,,N,Y,37.6669057,-77.4905191
PAST SALE,August-31-2021,Single Family Residential,9501 Willow Ridge Dr,Glen Allen,VA,23060,325000,3,2.5,Hungary Ridge,1712,9147,2001,96,190,10,Sold,,,https://www.redfin.com/VA/Glen-Allen/9501-Willow-Ridge-Dr-23060/home/59628164,CVRMLS,2123086,N,Y,37.6447198,-77.5221934
PAST SALE,April-23-2019,Townhouse,2278 High Bush Cir,Glen Allen,VA,23060,169000,3,1.5,Mountain Laurel Townhouses,1152,1742,1989,957,147,170,Sold,,,https://www.redfin.com/VA/Glen-Allen/2278-High-Bush-Cir-23060/home/59617917,CVRMLS,1904087,N,Y,37.663928,-77.4855566
PAST SALE,,Townhouse,3902 Village Townes Walk,Glen Allen,VA,23060,382500,3,2.5,,1956,1129,2013,,196,,,,,https://www.redfin.com/VA/Glen-Allen/3902-Village-Townes-Walk-23060/home/59610923,,,N,Y,37.6474309,-77.6067346
PAST SALE,December-9-2020,Single Family Residential,1106 New York Ave,Glen Allen,VA,23060,279950,3,2.5,Biltmore,1672,8712,2020,361,167,,Sold,,,https://www.redfin.com/VA/Glen-Allen/1106-New-York-Ave-23060/home/172979022,CVRMLS,2025987,N,Y,37.6521884,-77.4586655
PAST SALE,July-12-2021,Condo/Co-op,9352 Castle York Ct #2102,Henrico,VA,23060,170000,2,2.0,Laurel Lakes Condo,1040,,1989,146,163,216,Sold,,,https://www.redfin.com/VA/Glen-Allen/9352-Castle-York-Ct-23060/unit-2102/home/59627870,CVRMLS,2109992,N,Y,37.645762,-77.513037
PAST SALE,August-5-2021,Townhouse,4501 Hayloft Ct,Glen Allen,VA,23060,515100,3,3.5,Sadler Crossing,2756,3484,2018,122,187,155,Sold,,,https://www.redfin.com/VA/Glen-Allen/4501-Hayloft-Ct-23060/home/113276172,CVRMLS,2118547,N,Y,37.6592463,-77.5883339
PAST SALE,August-15-2019,Single Family Residential,4650 Fort Mchenry Pkwy,Glen Allen,VA,23060,350000,5,2.5,The Forest At Innsbrook,2447,11761,1989,843,143,8,Sold,,,https://www.redfin.com/VA/Glen-Allen/4650-Fort-Mchenry-Pkwy-23060/home/59615189,CVRMLS,1908997,N,Y,37.6635936,-77.5659048
PAST SALE,July-20-2020,Single Family Residential,9837 Brookemoor Pl,Glen Allen,VA,23060,387000,4,2.5,Tall Oaks,2358,13503,1996,503,164,,Sold,,,https://www.redfin.com/VA/Glen-Allen/9837-Brookemoor-Pl-23060/home/59622504,CVRMLS,2016555,N,Y,37.6521493,-77.5094968
