SALE TYPE,SOLD DATE,PROPERTY TYPE,ADDRESS,CITY,STATE OR PROVINCE,ZIP OR POSTAL CODE,PRICE,BEDS,BATHS,LOCATION,SQUARE FEET,LOT SIZE,YEAR BUILT,DAYS ON MARKET,$/SQUARE FEET,HOA/MONTH,STATUS,NEXT OPEN HOUSE START TIME,NEXT OPEN HOUSE END TIME,URL (SEE https://www.redfin.com/buy-a-home/comparative-market-analysis FOR INFO ON PRICING),SOURCE,MLS#,FAVORITE,INTERESTED,LATITUDE,LONGITUDE
PAST SALE,May-17-2019,Single Family Residential,4757 Carea Rd,White Hall,MD,21161,449000,4,2.5,NORRIS PROPERTY,2936,124582,2016,933,153,,Sold,,,https://www.redfin.com/MD/White-Hall/4757-Carea-Rd-21161/home/15267770,BRIGHT MLS,MDHR230664,N,Y,39.6855231,-76.4936389
PAST SALE,December-17-2020,Single Family Residential,4656 Norrisville Rd,White Hall,MD,21161,835000,4,4.0,OLD YORK MANOR,4447,561053,1998,353,188,,Sold,,,https://www.redfin.com/MD/White-Hall/4656-Norrisville-Rd-21161/home/14513417,BRIGHT MLS,MDHR251004,N,Y,39.652061,-76.556361
PAST SALE,October-24-2019,Single Family Residential,5431 Broadway Rd,White Hall,MD,21161,495000,3,2.5,HARFORD COUNTY,2512,223245,1995,773,197,,Sold,,,https://www.redfin.com/MD/White-Hall/5431-Broadway-Rd-21161/home/14494605,BRIGHT MLS,MDHR238308,N,Y,39.712424,-76.524278
MLS Listing,,Single Family Residential,20542 Green Rd,White Hall,MD,21161,320000,3,2.0,BALTIMORE COUNTY,864,135907,1985,30,370,,Active,,,https://www.redfin.com/MD/White-Hall/20542-Green-Rd-21161/home/9591450,BRIGHT MLS,MDBC2014578,N,Y,39.690104,-76.572592
MLS Listing,,Single Family Residential,17947 Doyle Farm Ln,White Hall,MD,21161,745000,3,2.5,WHITE HALL,2528,201683,1989,46,295,,Active,December-5-2021 09:00 AM,December-5-2021 05:00 PM,https://www.redfin.com/MD/White-Hall/17947-Doyle-Farm-Ln-21161/home/166100914,BRIGHT MLS,MDBC2013582,N,Y,39.614913,-76.640678
MLS Listing,,Vacant Land,2551 Urey Rd,White Hall,MD,21161,219900,,,LD CHANNELL PT,,638590,,158,,,Active,,,https://www.redfin.com/MD/White-Hall/2551-Urey-Rd-21161/home/172736120,BRIGHT MLS,MDHR2000764,N,Y,39.6862319,-76.514235
MLS Listing,,Vacant Land,Kirkwood Shop Rd,White Hall,MD,21161,84900,,,White Hall,,336719,,180,,,Active,,,https://www.redfin.com/MD/WHITE-HALL/KIRKWOOD-SHOP-RD-21161/home/9588371,BRIGHT MLS,MDBC532074,N,Y,39.678116,-76.573216
PAST SALE,October-15-2020,Single Family Residential,2433 Harkins Rd,White Hall,MD,21161,325000,5,4.0,LD CHANNEL W A,1842,175547,1978,416,176,,Sold,,,https://www.redfin.com/MD/White-Hall/2433-Harkins-Rd-21161/home/14533909,BRIGHT MLS,MDHR250872,N,Y,39.7028817,-76.5081078
PAST SALE,July-2-2020,Single Family Residential,2102 Hunter Mill Rd,White Hall,MD,21161,319900,3,2.0,WHITE HALL,1448,21780,2018,521,221,,Sold,,,https://www.redfin.com/MD/White-Hall/2102-Hunter-Mill-Rd-21161/home/9070832,BRIGHT MLS,MDBC491300,N,Y,39.6209562,-76.6049635
PAST SALE,December-6-2018,Single Family Residential,5621 Long Corner Rd,White Hall,MD,21161,555000,4,3.0,POND VALLEY FARM,3808,558047,1910,1095,146,,Sold,,,https://www.redfin.com/MD/White-Hall/5621-Long-Corner-Rd-21161/home/110058620,BRIGHT MLS,1009628338,N,Y,39.718689,-76.56447
PAST SALE,October-24-2019,Single Family Residential,20300 Kirkwood Shop Rd,White Hall,MD,21161,480000,4,2.5,WHITE HALL,2500,60984,2019,773,192,,Sold,,,https://www.redfin.com/MD/White-Hall/20300-Kirkwood-Shop-Rd-21161/home/9686387,BRIGHT MLS,MDBC433892,N,Y,39.68071,-76.576852
PAST SALE,,Single Family Residential,2122 Hunter Mill Rd,White Hall,MD,21161,375000,,1.5,,1950,551905,1853,,192,,,,,https://www.redfin.com/MD/White-Hall/2122-Hunter-Mill-Rd-21161/home/44630328,,,N,Y,39.621778,-76.6046269
PAST SALE,April-24-2019,Single Family Residential,1100 Bernoudy Rd,White Hall,MD,21161,301000,4,1.0,LILLIAN N WEAVER,1860,44431,1965,956,162,,Sold,,,https://www.redfin.com/MD/White-Hall/1100-Bernoudy-Rd-21161/home/9593083,BRIGHT MLS,1009985230,N,Y,39.6218999,-76.6412035
PAST SALE,,Single Family Residential,5332 Norrisville Rd,White Hall,MD,21161,225000,,2.5,,2640,19701,1845,,85,,,,,https://www.redfin.com/MD/White-Hall/5332-Norrisville-Rd-21161/home/14553697,,,N,Y,39.7036922,-76.5341882
PAST SALE,July-20-2020,Single Family Residential,2007 Wilson Rd,White Hall,MD,21161,485000,5,3.0,HEMLOCK HILL FARMS,2838,164657,1978,503,171,,Sold,,,https://www.redfin.com/MD/White-Hall/2007-Wilson-Rd-21161/home/9155393,BRIGHT MLS,MDBC481370,N,Y,39.6085388,-76.6082585
PAST SALE,January-23-2020,Single Family Residential,2209 Elliotts Chance Ct,White Hall,MD,21161,495000,4,2.5,ELLIOTT'S CHANCE,2696,56628,2000,682,184,17,Sold,,,https://www.redfin.com/MD/White-Hall/2209-Elliottschance-Ct-21161/home/9592891,BRIGHT MLS,MDBC478744,N,Y,39.6321041,-76.5983112
PAST SALE,August-24-2021,Single Family Residential,2735 Urey Rd,White Hall,MD,21161,890000,4,1.5,White Hall,2453,3408570,1923,103,363,,Sold,,,https://www.redfin.com/MD/White-Hall/2735-Urey-Rd-21161/home/172681866,BRIGHT MLS,MDHR249632,N,Y,39.6812542,-76.5250631
PAST SALE,September-13-2019,Single Family Residential,123 Graystone Farm Rd,White Hall,MD,21161,810000,4,4.0,GRAYSTONE FARMS ESTATES,4111,65340,1998,814,197,42,Sold,,,https://www.redfin.com/MD/White-Hall/123-Graystone-Farm-Rd-21161/home/9593017,BRIGHT MLS,MDBC100213,N,Y,39.6358501,-76.6347506
PAST SALE,,Single Family Residential,1525 Stablersville Rd,White Hall,MD,21161,545000,,2.0,,2179,213444,2001,,250,,,,,https://www.redfin.com/MD/White-Hall/1525-Stablersville-Rd-21161/home/9593074,,,N,Y,39.6498188,-76.6223853
PAST SALE,June-26-2020,Single Family Residential,1215 Bernoudy Rd,White Hall,MD,21161,550000,4,3.0,BALTIMORE COUNTY,2666,139392,2003,527,206,,Sold,,,https://www.redfin.com/MD/White-Hall/1215-Bernoudy-Rd-21161/home/9591125,BRIGHT MLS,MDBC494232,N,Y,39.6160495,-76.634886
PAST SALE,December-3-2019,Single Family Residential,2299 Walnut Springs Ct,White Hall,MD,21161,450000,4,2.5,FLETCHER'S WALNUT SPRING,3336,99317,2007,733,135,,Sold,,,https://www.redfin.com/MD/White-Hall/2299-Walnut-Springs-Ct-21161/home/14523726,BRIGHT MLS,MDHR239842,N,Y,39.6909574,-76.4949171
PAST SALE,,Single Family Residential,4549 Manor Hill Dr,White Hall,MD,21161,371000,,2.0,,1344,217800,1983,,276,,,,,https://www.redfin.com/MD/White-Hall/4549-Manor-Hill-Dr-21161/home/14527391,,,N,Y,39.6452998,-76.5407398
PAST SALE,January-6-2020,Single Family Residential,4527 Amos Rd,White Hall,MD,21161,395000,3,3.0,WOODSTON,2164,104544,2002,699,183,,Sold,,,https://www.redfin.com/MD/White-Hall/4527-Amos-Rd-21161/home/14491404,BRIGHT MLS,MDHR240316,N,Y,39.6710789,-76.5146574
PAST SALE,April-30-2020,Single Family Residential,4714 Chippewa Dr,White Hall,MD,21161,168000,2,1.0,INDIAN HILLS,1100,95832,1961,584,153,,Sold,,,https://www.redfin.com/MD/White-Hall/4714-Chippewa-Dr-21161/home/14486514,BRIGHT MLS,MDHR223038,N,Y,39.6813616,-76.5098694
PAST SALE,March-18-2020,Single Family Residential,5116 Meadowview Dr,White Hall,MD,21161,449500,4,3.0,MEADOWSTREAM,4222,45000,1988,627,106,12,Sold,,,https://www.redfin.com/MD/White-Hall/5116-Meadowview-Dr-21161/home/14542645,BRIGHT MLS,MDHR234174,N,Y,39.6885092,-76.5236683
PAST SALE,September-30-2019,Single Family Residential,4331 Harford Creamery Rd,White Hall,MD,21161,325000,3,1.5,White Hall,1669,43560,1969,797,195,,Sold,,,https://www.redfin.com/MD/White-Hall/4331-Harford-Creamery-Rd-21161/home/14540959,BRIGHT MLS,MDHR237766,N,Y,39.6354081,-76.5184515
PAST SALE,February-28-2019,Single Family Residential,3200 Troyer Rd,White Hall,MD,21161,350000,3,2.5,WHITE HALL,1840,67954,1976,1011,190,,Sold,,,https://www.redfin.com/MD/White-Hall/3200-Troyer-Rd-21161/home/14504611,BRIGHT MLS,1009986744,N,Y,39.6202757,-76.558238
PAST SALE,November-15-2021,Single Family Residential,5411 Norrisville Rd,White Hall,MD,21161,175000,2,1.0,NORRISVILLE,720,10890,1920,20,243,,Sold,,,https://www.redfin.com/MD/White-Hall/5411-Norrisville-Rd-21161/home/14542477,BRIGHT MLS,MDHR2000446,N,Y,39.7066906,-76.5351512
PAST SALE,January-13-2020,Single Family Residential,20410 Kirkwood Shop Rd,White Hall,MD,21161,402500,4,2.5,White Hall,3280,67954,1937,692,123,,Sold,,,https://www.redfin.com/MD/White-Hall/20410-Kirkwood-Shop-Rd-21161/home/9589718,BRIGHT MLS,MDBC431966,N,Y,39.6846795,-76.5795036
PAST SALE,October-15-2021,Vacant Land,Kirkwood Shop Rd,White Hall,MD,21161,195000,,,CHARLEMAYNE ESTATES,,247421,,51,,,Sold,,,https://www.redfin.com/MD/District-7/Kirkwood-Shop-Rd-21161/home/148120694,BRIGHT MLS,MDBC518652,N,Y,39.69091086,-76.58447516
PAST SALE,November-22-2021,Single Family Residential,2418 Amoss Mill Rd,White Hall,MD,21161,385000,4,2.5,White Hall,2160,29751,2002,13,178,,Sold,,,https://www.redfin.com/MD/White-Hall/2418-Amoss-Mill-Rd-21161/home/14548346,BRIGHT MLS,MDHR2000073,N,Y,39.701605,-76.503343
PAST SALE,November-22-2019,Single Family Residential,19425 Ensor Rd,White Hall,MD,21161,600000,3,3.0,HEREFORD ZONE,3380,1941034,1964,744,178,,Sold,,,https://www.redfin.com/MD/White-Hall/19425-Ensor-Rd-21161/home/169140632,BRIGHT MLS,MDBC472052,N,Y,39.656038,-76.620272
PAST SALE,,Single Family Residential,19622 Old York Rd,White Hall,MD,21161,310000,,2.5,,2100,69260,1978,,148,,,,,https://www.redfin.com/MD/White-Hall/19622-Old-York-Rd-21161/home/9590860,,,N,Y,39.663184,-76.5795488
PAST SALE,November-10-2021,Single Family Residential,2603 Bradenbaugh Rd,White Hall,MD,21161,505000,4,2.5,HARFORD MANOR FARMS,2178,141570,1978,25,232,,Sold,,,https://www.redfin.com/MD/White-Hall/2603-Bradenbaugh-Rd-21161/home/14553945,BRIGHT MLS,MDHR2001520,N,Y,39.6613543,-76.5067634
PAST SALE,,Single Family Residential,1708 White Hall Rd,White Hall,MD,21161,248200,,1.5,,1662,49658,1955,,149,,,,,https://www.redfin.com/MD/White-Hall/1708-White-Hall-Rd-21161/home/9588359,,,N,Y,39.6282827,-76.6208508
PAST SALE,May-20-2021,Single Family Residential,17746 Big Falls Rd,White Hall,MD,21161,645000,3,2.0,White Hall,2712,174240,1973,199,238,,Sold,,,https://www.redfin.com/MD/White-Hall/17746-Big-Falls-Rd-21161/home/9589976,BRIGHT MLS,MDBC525808,N,Y,39.6125559,-76.6348408
PAST SALE,September-30-2021,Single Family Residential,2807 Anderson Rd,White Hall,MD,21161,500000,3,2.5,SHANE VALLEY,2748,46609,1982,66,182,,Sold,,,https://www.redfin.com/MD/White-Hall/2807-Anderson-Rd-21161/home/9591001,BRIGHT MLS,MDBC531586,N,Y,39.6983595,-76.5780138
PAST SALE,August-14-2020,Single Family Residential,1521 Stablersville Rd,White Hall,MD,21161,470000,4,2.5,WHITE HALL,3928,218671,1999,478,120,,Sold,,,https://www.redfin.com/MD/White-Hall/1521-Stablersville-Rd-21161/home/9593070,BRIGHT MLS,MDBC497840,N,Y,39.6507689,-76.622333
PAST SALE,September-26-2019,Vacant Land,Old York,White Hall,MD,21161,130000,,,WHITE HALL,,148975,,801,,,Sold,,,https://www.redfin.com/MD/WHITE-HALL/OLD-YORK-21161/home/148172741,BRIGHT MLS,MDBC137798,N,Y,39.66524065,-76.58001798
PAST SALE,April-23-2019,Single Family Residential,4758 Norrisville Rd,White Hall,MD,21161,470000,3,3.5,White Hall,3048,331056,2001,957,154,,Sold,,,https://www.redfin.com/MD/White-Hall/4758-Norrisville-Rd-21161/home/44647897,BRIGHT MLS,MDHR202390,N,Y,39.6596246,-76.5442413
PAST SALE,September-28-2021,Single Family Residential,2431 Island Branch Rd,White Hall,MD,21161,560000,4,3.0,NESTLING WIND,2028,436471,1998,68,276,,Sold,,,https://www.redfin.com/MD/White-Hall/2431-Island-Branch-Rd-21161/home/176109609,BRIGHT MLS,MDHR2001810,N,Y,39.7073606,-76.5078367
PAST SALE,July-15-2021,Single Family Residential,4203 Norrisville Rd,White Hall,MD,21161,640000,5,3.0,LD ISENNOCK S E,3080,446054,1982,143,208,,Sold,,,https://www.redfin.com/MD/White-Hall/4203-Norrisville-Rd-21161/home/107688271,BRIGHT MLS,MDHR261304,N,Y,39.614051,-76.532616
PAST SALE,December-6-2019,Single Family Residential,4711 Chippewa Dr,White Hall,MD,21161,320000,4,2.0,INDIAN HILLS,2135,165092,1990,730,150,,Sold,,,https://www.redfin.com/MD/White-Hall/4711-Chippewa-Dr-21161/home/14539098,BRIGHT MLS,MDHR240164,N,Y,39.6804914,-76.510547
PAST SALE,January-7-2021,Vacant Land,4559 Amos Rd,White Hall,MD,21161,124900,,,WOODSTON,,193406,,332,,,Sold,,,https://www.redfin.com/MD/White-Hall/4559-Amos-Rd-21161/home/14520917,BRIGHT MLS,MDHR253132,N,Y,39.673673,-76.513012
PAST SALE,March-31-2021,Vacant Land,0 Burke Rd,White Hall,MD,21161,349000,,,WHITE HALL,,816314,,249,,,Sold,,,https://www.redfin.com/MD/WHITE-HALL/BURKE-RD-21161/home/9588442,BRIGHT MLS,MDBC510594,N,Y,39.65844,-76.596757
PAST SALE,June-26-2020,Single Family Residential,2707 Meadow Tree Dr,White Hall,MD,21161,395000,4,3.0,MEADOWSTREAM,2028,42652,1990,527,195,12,Sold,,,https://www.redfin.com/MD/White-Hall/2707-Meadow-Tree-Dr-21161/home/14541282,BRIGHT MLS,MDHR248626,N,Y,39.6884144,-76.5196711
PAST SALE,August-20-2021,Single Family Residential,20416 Old York Rd,White Hall,MD,21161,390000,3,2.0,HEREFORD ZONE,1869,46174,1977,107,209,,Sold,,,https://www.redfin.com/MD/White-Hall/20416-Old-York-Rd-21161/home/9590536,BRIGHT MLS,MDBC521992,N,Y,39.68671,-76.606564
PAST SALE,December-21-2020,Single Family Residential,2535 Urey Rd,White Hall,MD,21161,505000,5,2.5,LD CHANNELL PT,3608,94525,2007,349,140,,Sold,,,https://www.redfin.com/MD/White-Hall/2535-Urey-Rd-21161/home/14543279,BRIGHT MLS,MDHR253590,N,Y,39.6871958,-76.5133432
PAST SALE,January-30-2020,Single Family Residential,5017 Norrisville Rd,White Hall,MD,21161,555000,4,2.5,White Hall,3612,806339,1994,675,154,,Sold,,,https://www.redfin.com/MD/White-Hall/5017-Norrisville-Rd-21161/home/39991088,BRIGHT MLS,MDHR237244,N,Y,39.676544,-76.5331
PAST SALE,April-30-2021,Single Family Residential,4223 Harford Creamery Rd,White Hall,MD,21161,2500000,5,5.5,WHITE HALL,4556,2848388,2001,219,549,,Sold,,,https://www.redfin.com/MD/White-Hall/4223-Harford-Creamery-Rd-21161/home/14506427,BRIGHT MLS,MDHR255704,N,Y,39.627167,-76.518024
PAST SALE,July-10-2020,Vacant Land,Burke Rd,White Hall,MD,21161,339000,,,White Hall,,816314,,513,,,Sold,,,https://www.redfin.com/MD/WHITE-HALL/BURKE-RD-21161/home/44630747,BRIGHT MLS,MDBC494090,N,Y,39.654649,-76.595852
PAST SALE,May-3-2019,Single Family Residential,18340 Peters Ave,White Hall,MD,21161,249000,3,2.0,WHITEHALL,1626,43560,1885,947,153,,Sold,,,https://www.redfin.com/MD/White-Hall/18340-Peters-Ave-21161/home/9588340,BRIGHT MLS,MDBC432868,N,Y,39.6286755,-76.6350657
PAST SALE,,Single Family Residential,20332 W Liberty Rd,White Hall,MD,21161,310000,,2.0,,1970,87120,1852,,157,,,,,https://www.redfin.com/MD/White-Hall/20332-W-Liberty-Rd-21161/home/9588435,,,N,Y,39.686158,-76.598235
PAST SALE,,Vacant Land,19641 Graystone Rd,White Hall,MD,21161,135000,,,,,192100,,,,,,,,https://www.redfin.com/MD/White-Hall/19641-Graystone-Rd-21161/home/9589717,,,N,Y,39.6642166,-76.5998918
PAST SALE,September-24-2021,Single Family Residential,20012 Kirkwood Shop Rd,White Hall,MD,21161,485000,3,3.0,PLUMTREE,2589,140699,1972,72,187,,Sold,,,https://www.redfin.com/MD/White-Hall/20012-Kirkwood-Shop-Rd-21161/home/9589800,BRIGHT MLS,MDBC2008576,N,Y,39.6741985,-76.573183
PAST SALE,,Single Family Residential,2721 Garrett Rd,White Hall,MD,21161,510000,,2.5,,2880,235224,1983,,177,,,,,https://www.redfin.com/MD/White-Hall/2721-Garrett-Rd-21161/home/9590292,,,N,Y,39.6495764,-76.5801559
PAST SALE,,Other,20407 Kirkwood Shop Rd,White Hall,MD,21161,80100,,,,,87120,,,,,,,,https://www.redfin.com/MD/White-Hall/20407-Kirkwood-Shop-Rd-21161/home/9590398,,,N,Y,39.683773,-76.578128
PAST SALE,,Single Family Residential,2207 River Bend Ct,White Hall,MD,21161,689900,,4.0,,4260,48352,2004,,162,,,,,https://www.redfin.com/MD/White-Hall/2207-River-Bend-Ct-21161/home/9696324,,,N,Y,39.6270367,-76.5992555
PAST SALE,November-29-2021,Single Family Residential,5220 Muskrat Dr,White Hall,MD,21161,585500,6,3.5,WHITE HALL,3072,134165,1995,6,191,,Sold,,,https://www.redfin.com/MD/White-Hall/5220-Muskrat-Dr-21161/home/14523966,BRIGHT MLS,MDHR2004280,N,Y,39.6940089,-76.5675845
PAST SALE,November-30-2021,Single Family Residential,20325 Kirkwood Shop Rd,White Hall,MD,21161,425000,4,3.0,PEAKS HIL,1807,209524,1977,5,235,,Sold,,,https://www.redfin.com/MD/White-Hall/20325-Kirkwood-Shop-Rd-21161/home/9590472,BRIGHT MLS,MDBC2010416,N,Y,39.6837667,-76.5769528
PAST SALE,,Vacant Land,UREY RD,WHITE HALL,MD,21161,55000,,,,,958320,,,,,,,,https://www.redfin.com/MD/WHITE-HALL/UREY-RD-21161/home/14481578,,,N,Y,39.680511,-76.513102
PAST SALE,,Single Family Residential,19709 Old York Rd,White Hall,MD,21161,112000,,2.0,,1993,50965,1978,,56,,,,,https://www.redfin.com/MD/White-Hall/19709-Old-York-Rd-21161/home/9590895,,,N,Y,39.6642962,-76.5819415
PAST SALE,October-17-2021,Single Family Residential,3045 Bradenbaugh Rd,White Hall,MD,21161,225000,2,1.5,WHITE HALL,1404,43560,,49,160,,Sold,,,https://www.redfin.com/MD/White-Hall/3045-Bradenbaugh-Rd-21161/home/14505418,BRIGHT MLS,MDHR2003206,N,Y,39.6445116,-76.5475136
PAST SALE,March-31-2021,Vacant Land,Stablersville,White Hall,MD,21161,150000,,,White Hall,,453024,,249,,,Sold,,,https://www.redfin.com/MD/WHITE-HALL/STABLERSVILLE-RD-21161/home/9590727,BRIGHT MLS,MDBC520020,N,Y,39.653092,-76.616435
PAST SALE,January-31-2020,Vacant Land,2826 Hitchcock Rd,White Hall,MD,21161,100000,,,WRIGHTS PURCHASE,,97574,,674,,,Sold,,,https://www.redfin.com/MD/White-Hall/2826-Hitchcock-Rd-21161/home/104463747,BRIGHT MLS,1002775862,N,Y,39.665947,-76.5262791
PAST SALE,April-8-2020,Vacant Land,Amos Rd,White Hall,MD,21161,165000,,,White Hall,,914760,,606,,,Sold,,,https://www.redfin.com/MD/WHITE-HALL/AMOS-RD-21161/home/14511277,BRIGHT MLS,MDHR244108,N,Y,39.676488,-76.513626
PAST SALE,,Mobile/Manufactured Home,5138 Norrisville Rd,White Hall,MD,21161,100000,,2.0,,1344,104544,2019,,74,,,,,https://www.redfin.com/MD/White-Hall/5138-Norrisville-Rd-21161/home/14536740,,,N,Y,39.6882926,-76.5309601
PAST SALE,May-17-2019,Single Family Residential,20407 Kirkwood Shop Rd,White Hall,MD,21161,325000,4,2.0,WHITEHALL,2124,46173,1970,933,153,,Sold,,,https://www.redfin.com/MD/White-Hall/20407-Kirkwood-Shop-Rd-21161/home/9589870,BRIGHT MLS,MDBC436610,N,Y,39.683773,-76.578128
PAST SALE,December-28-2020,Single Family Residential,2904 Duncan Rd,White Hall,MD,21161,825000,4,4.0,LD JOHN MILLER,5690,2195860,2003,342,145,,Sold,,,https://www.redfin.com/MD/White-Hall/2904-Duncan-Rd-21161/home/143754577,BRIGHT MLS,MDHR252336,N,Y,39.7060443,-76.5426704
PAST SALE,,Mobile/Manufactured Home,2816 Troyer Rd,White Hall,MD,21161,225000,,2.0,,1620,3750952,2000,,139,,,,,https://www.redfin.com/MD/White-Hall/2816-Troyer-Rd-21161/home/166451757,,,N,Y,39.6359843,-76.5300464
PAST SALE,June-25-2020,Single Family Residential,2505 Mccomas Rd,White Hall,MD,21161,585000,5,4.5,WHITE HALL,5203,527512,1990,528,112,,Sold,,,https://www.redfin.com/MD/White-Hall/2505-McComas-Rd-21161/home/9157625,BRIGHT MLS,MDBC483988,N,Y,39.6116851,-76.5930936
PAST SALE,May-17-2021,Single Family Residential,2916 Troyer Rd,White Hall,MD,21161,1050000,3,2.5,FARMINGTON,2603,1742400,1920,202,403,,Sold,,,https://www.redfin.com/MD/White-Hall/2916-Troyer-Rd-21161/home/167129012,BRIGHT MLS,MDHR260208,N,Y,39.636538,-76.537519
PAST SALE,November-29-2019,Single Family Residential,5403 New Park Rd,White Hall,MD,21161,200000,5,1.0,WHITE HALL,2160,54014,1900,737,93,,Sold,,,https://www.redfin.com/MD/White-Hall/5403-New-Park-Rd-21161/home/14517575,BRIGHT MLS,MDHR241410,N,Y,39.705559,-76.5345302
PAST SALE,February-28-2020,Vacant Land,2313 Walnut Spring Ct,White Hall,MD,21161,100000,,,FLETCHER'S WALNUT SPRING,,708286,,646,,,Sold,,,https://www.redfin.com/MD/White-Hall/2313-Walnut-Springs-Ct-21161/home/14491173,BRIGHT MLS,MDHR234610,N,Y,39.688025,-76.4949199
PAST SALE,March-6-2020,Single Family Residential,20207 Kirkwood Shop Rd,White Hall,MD,21161,325000,3,2.5,WHITE HALL/PARKTON,1950,95396,,639,167,,Sold,,,https://www.redfin.com/MD/White-Hall/20207-Kirkwood-Shop-Rd-21161/home/9588395,BRIGHT MLS,MDBC468352,N,Y,39.6795259,-76.5747885
PAST SALE,,Vacant Land,19907 OLD YORK RD,LUTHERVILLE TIMONIUM,MD,21093,129000,,,,,291852,,,,,,,,https://www.redfin.com/MD/LUTHERVILLE-TIMONIUM/19907-OLD-YORK-RD-21093/home/9707092,,,N,Y,39.671376,-76.590805
PAST SALE,,Single Family Residential,2444 Bradenbaugh Rd,White Hall,MD,21161,280000,,2.0,,1536,169884,1980,,182,,,,,https://www.redfin.com/MD/White-Hall/2444-Bradenbaugh-Rd-21161/home/14521357,,,N,Y,39.6671354,-76.5016933
PAST SALE,February-1-2019,Single Family Residential,17744 Big Falls Rd,White Hall,MD,21161,440000,3,2.5,White Hall,2292,47916,1869,1038,192,,Sold,,,https://www.redfin.com/MD/White-Hall/17744-Big-Falls-Rd-21161/home/9588300,BRIGHT MLS,1003397762,N,Y,39.6127705,-76.6336224
PAST SALE,November-13-2020,Single Family Residential,4508 Jolly Acres Rd,White Hall,MD,21161,382000,3,2.5,White Hall,2300,101495,1962,387,166,,Sold,,,https://www.redfin.com/MD/White-Hall/4508-Jolly-Acres-Rd-21161/home/9588288,BRIGHT MLS,MDBC508436,N,Y,39.6610421,-76.5693905
PAST SALE,December-12-2019,Single Family Residential,2703 Meredith Rd,White Hall,MD,21161,250000,3,2.0,WHITE HALL,1342,74923,1917,724,186,,Sold,,,https://www.redfin.com/MD/White-Hall/2703-Meredith-Rd-21161/home/9588430,BRIGHT MLS,MDBC476642,N,Y,39.6833563,-76.5829911
PAST SALE,May-19-2021,Single Family Residential,18619 Vernon Rd,White Hall,MD,21161,475000,3,1.0,HEREFORD SCHOOL ZONE,1854,43560,1900,200,256,,Sold,,,https://www.redfin.com/MD/White-Hall/18619-Vernon-Rd-21161/home/9588448,BRIGHT MLS,MDBC525440,N,Y,39.636367,-76.597559
PAST SALE,November-7-2019,Single Family Residential,20528 Kirkwood Shop Rd,White Hall,MD,21161,223900,3,2.0,HEREFORD ZONE,1305,143748,1892,759,172,,Sold,,,https://www.redfin.com/MD/White-Hall/20528-Kirkwood-Shop-Rd-21161/home/9588465,BRIGHT MLS,MDBC469528,N,Y,39.6875437,-76.5813095
PAST SALE,February-28-2020,Single Family Residential,4500 Jolly Acres Rd,White Hall,MD,21161,345000,5,3.5,WHITE HALL,4260,116741,1882,646,81,,Sold,,,https://www.redfin.com/MD/White-Hall/4500-Jolly-Acres-Rd-21161/home/9588667,BRIGHT MLS,MDBC100504,N,Y,39.6607515,-76.5707111
PAST SALE,,Single Family Residential,1025 Wiseburg Rd,White Hall,MD,21161,375000,,2.0,,1750,87556,1966,,214,,,,,https://www.redfin.com/MD/White-Hall/1025-Wiseburg-Rd-21161/home/9588985,,,N,Y,39.626217,-76.6421963
PAST SALE,June-12-2020,Single Family Residential,20628 W Liberty Rd,White Hall,MD,21161,250000,3,2.0,White Hall,1521,119790,1965,541,164,,Sold,,,https://www.redfin.com/MD/White-Hall/20628-W-Liberty-Rd-21161/home/9589301,BRIGHT MLS,MDBC489772,N,Y,39.6911877,-76.5880811
PAST SALE,May-16-2019,Single Family Residential,18824 Graystone Rd,White Hall,MD,21161,405000,4,2.0,WHITE HALL,2113,156816,1974,934,192,,Sold,,,https://www.redfin.com/MD/White-Hall/18824-Graystone-Rd-21161/home/9589308,BRIGHT MLS,MDBC435090,N,Y,39.641459,-76.6283199
PAST SALE,June-25-2020,Single Family Residential,20310 W Liberty Rd,White Hall,MD,21161,293000,3,1.5,WHITE HALL/PARKTON,1188,39640,1954,528,247,,Sold,,,https://www.redfin.com/MD/White-Hall/20310-W-Liberty-Rd-21161/home/9589544,BRIGHT MLS,MDBC493032,N,Y,39.683872,-76.599706
PAST SALE,August-2-2019,Single Family Residential,18327 Peters Ave,White Hall,MD,21161,185575,3,1.5,WHITE HALL,1248,43560,1922,856,149,,Sold,,,https://www.redfin.com/MD/White-Hall/18327-Peters-Ave-21161/home/9589551,BRIGHT MLS,MDBC433494,N,Y,39.627618,-76.634983
PAST SALE,September-8-2020,Single Family Residential,18123 Schoolhouse Rd,White Hall,MD,21161,505000,4,4.0,WHITE HALL,2770,36590,1901,453,182,,Sold,,,https://www.redfin.com/MD/White-Hall/18123-School-House-Rd-21161/home/9589474,BRIGHT MLS,MDBC502080,N,Y,39.6217359,-76.6282522
PAST SALE,February-19-2021,Single Family Residential,1011 Wiseburg Rd,White Hall,MD,21161,480000,4,3.5,HEREFORD ZONE,3076,43996,1964,289,156,,Sold,,,https://www.redfin.com/MD/White-Hall/1011-Wiseburg-Rd-21161/home/9589737,BRIGHT MLS,MDBC502082,N,Y,39.6259596,-76.6444073
PAST SALE,January-24-2020,Single Family Residential,20104 Kirkwood Shop Rd,White Hall,MD,21161,315000,3,2.5,PLUMTREE,1642,96268,1970,681,192,,Sold,,,https://www.redfin.com/MD/White-Hall/20104-Kirkwood-Shop-Rd-21161/home/9589803,BRIGHT MLS,MDBC479522,N,Y,39.6761865,-76.5742666
PAST SALE,,Single Family Residential,19401 Ensor Rd,White Hall,MD,21161,850000,,3.5,,4119,582833,2007,,206,,,,,https://www.redfin.com/MD/White-Hall/19401-Ensor-Rd-21161/home/143779825,,,N,Y,39.655333,-76.622905
PAST SALE,December-21-2020,Single Family Residential,20316 Old York Rd,White Hall,MD,21161,370000,4,3.0,WHITE HALL/PARKTON,1996,46609,1970,349,185,,Sold,,,https://www.redfin.com/MD/White-Hall/20316-Old-York-Rd-21161/home/9590031,BRIGHT MLS,MDBC510122,N,Y,39.6841963,-76.6034289
PAST SALE,August-7-2020,Single Family Residential,2708 Garrett Rd,White Hall,MD,21161,485000,3,3.0,NOTTINGHAMSHIRE FARMS,2536,47916,1987,485,191,,Sold,,,https://www.redfin.com/MD/White-Hall/2708-Garrett-Rd-21161/home/9590272,BRIGHT MLS,MDBC496896,N,Y,39.6505262,-76.5823929
PAST SALE,October-29-2019,Single Family Residential,2712 Garrett Rd,White Hall,MD,21161,425000,4,2.5,NOTTINGHAMSHIRE FARMS,2539,52272,1985,768,167,,Sold,,,https://www.redfin.com/MD/White-Hall/2712-Garrett-Rd-21161/home/9590274,BRIGHT MLS,MDBC464936,N,Y,39.6509094,-76.5820617
PAST SALE,March-6-2019,Single Family Residential,6 Old Garrett Ct,White Hall,MD,21161,332000,3,2.0,NOTTINGHAMSHIRE FARMS,2135,182952,1979,1005,156,,Sold,,,https://www.redfin.com/MD/White-Hall/6-Old-Garrett-Ct-21161/home/9590276,BRIGHT MLS,MDBC332546,N,Y,39.6509701,-76.5856679
PAST SALE,February-21-2020,Single Family Residential,20608 Kirkwood Shop Rd,White Hall,MD,21161,430000,4,3.5,CHARLEMAYNE ESTATES,3136,234788,1980,653,137,,Sold,,,https://www.redfin.com/MD/White-Hall/20608-Kirkwood-Shop-Rd-21161/home/9590314,BRIGHT MLS,MDBC479166,N,Y,39.689271,-76.583155
PAST SALE,July-31-2019,Single Family Residential,2704 Anderson Rd,White Hall,MD,21161,370000,4,2.5,INDIAN MEADOWS,2986,47916,1984,858,124,,Sold,,,https://www.redfin.com/MD/White-Hall/2704-Anderson-Rd-21161/home/9590624,BRIGHT MLS,MDBC459064,N,Y,39.6982634,-76.5822575
PAST SALE,June-10-2021,Single Family Residential,2709 Anderson Rd,White Hall,MD,21161,580000,4,2.5,SHANE VALLEY,3011,59677,1995,178,193,,Sold,,,https://www.redfin.com/MD/White-Hall/2709-Anderson-Rd-21161/home/9590596,BRIGHT MLS,MDBC524966,N,Y,39.6970938,-76.5807168
PAST SALE,June-10-2021,Single Family Residential,9 Shane Valley Ct,White Hall,MD,21161,459000,4,3.5,SHANE VALLEY,1976,67082,1987,178,232,,Sold,,,https://www.redfin.com/MD/White-Hall/9-Shane-Valley-Ct-21161/home/9590607,BRIGHT MLS,MDBC524282,N,Y,39.696059,-76.578164
PAST SALE,June-30-2021,Single Family Residential,19710 Trunk Rd,White Hall,MD,21161,375000,4,2.5,EVERGREEN HILLS,1934,128502,1980,158,194,,Sold,,,https://www.redfin.com/MD/White-Hall/19710-Trunk-Rd-21161/home/9590973,BRIGHT MLS,MDBC2002448,N,Y,39.6670055,-76.5841084
PAST SALE,August-25-2020,Single Family Residential,10 Jordan Mill Ct,White Hall,MD,21161,440000,3,2.5,JORDAN MILL FARMS,2872,54450,1983,467,153,,Sold,,,https://www.redfin.com/MD/White-Hall/10-Jordan-Mill-Ct-21161/home/9590803,BRIGHT MLS,MDBC500268,N,Y,39.686569,-76.609183
PAST SALE,December-21-2018,Single Family Residential,19604 Old York Rd,White Hall,MD,21161,254900,4,2.5,WALNUT SPRINGS,2034,77537,1982,1080,125,,Sold,,,https://www.redfin.com/MD/White-Hall/19604-Old-York-Rd-21161/home/9590837,BRIGHT MLS,1005966869,N,Y,39.6624356,-76.5755307
PAST SALE,,Single Family Residential,19614 Old York Rd,White Hall,MD,21161,489000,,2.5,,2236,129373,1988,,219,,,,,https://www.redfin.com/MD/White-Hall/19614-Old-York-Rd-21161/home/9590847,,,N,Y,39.6624047,-76.5779686
PAST SALE,May-21-2021,Single Family Residential,19618 Old York Rd,White Hall,MD,21161,415000,3,2.5,WALNUT SPRINGS,1456,55757,1985,198,285,,Sold,,,https://www.redfin.com/MD/White-Hall/19618-Old-York-Rd-21161/home/9590854,BRIGHT MLS,MDBC524800,N,Y,39.6632971,-76.5781492
PAST SALE,October-29-2020,Single Family Residential,19629 Burke Rd,White Hall,MD,21161,443400,6,3.5,WALNUT SPRINGS,3566,61420,1978,402,124,,Sold,,,https://www.redfin.com/MD/White-Hall/19629-Burke-Rd-21161/home/9590877,BRIGHT MLS,MDBC504744,N,Y,39.6648702,-76.5865011
PAST SALE,November-18-2021,Single Family Residential,19625 Burke Rd,White Hall,MD,21161,466000,3,2.0,WALNUT SPRINGS,2312,68389,1978,17,202,,Sold,,,https://www.redfin.com/MD/White-Hall/19625-Burke-Rd-21161/home/9590881,BRIGHT MLS,MDBC2011170,N,Y,39.6639832,-76.5870428
PAST SALE,June-12-2019,Single Family Residential,19732 Graystone Rd,White Hall,MD,21161,410000,4,2.0,HEREFORD ZONE,1904,94961,1984,907,215,,Sold,,,https://www.redfin.com/MD/White-Hall/19732-Graystone-Rd-21161/home/9591157,BRIGHT MLS,MDBC458322,N,Y,39.6666144,-76.5973351
PAST SALE,September-23-2020,Single Family Residential,19920 Old York Rd,White Hall,MD,21161,413200,3,2.5,WHITE HALL,1800,73181,1883,438,230,,Sold,,,https://www.redfin.com/MD/White-Hall/19920-Old-York-Rd-21161/home/9592024,BRIGHT MLS,MDBC501990,N,Y,39.6707615,-76.5938593
PAST SALE,May-27-2021,Single Family Residential,2216 White Hall Rd,White Hall,MD,21161,560000,7,4.0,White Hall,3825,121532,2002,192,146,,Sold,,,https://www.redfin.com/MD/White-Hall/2216-White-Hall-Rd-21161/home/9592209,BRIGHT MLS,MDBC521956,N,Y,39.6374018,-76.6015782
PAST SALE,August-31-2021,Single Family Residential,2210 Elliottschance Ct,White Hall,MD,21161,725000,5,3.5,ELLIOTT'S CHANCE,4514,82764,2001,96,161,17,Sold,,,https://www.redfin.com/MD/White-Hall/2210-Elliottschance-Ct-21161/home/9592920,BRIGHT MLS,MDBC2001776,N,Y,39.6330049,-76.5987119
PAST SALE,June-19-2019,Single Family Residential,18505 Graystone Rd,White Hall,MD,21161,535000,4,3.5,GRAYSTONE FARMS ESTATES,4250,48352,2000,900,126,42,Sold,,,https://www.redfin.com/MD/White-Hall/18505-Graystone-Rd-21161/home/9592956,BRIGHT MLS,MDBC451604,N,Y,39.633249,-76.631599
PAST SALE,,Single Family Residential,18503 Graystone Rd,White Hall,MD,21161,580000,,3.5,,3268,47916,2001,,177,,,,,https://www.redfin.com/MD/White-Hall/18503-Graystone-Rd-21161/home/9592959,,,N,Y,39.6329655,-76.6318959
PAST SALE,November-8-2019,Single Family Residential,3 Keil Manor Ct,White Hall,MD,21161,640000,5,4.5,GRAYSTONE FARMS ESTATES,4916,52708,2002,758,130,42,Sold,,,https://www.redfin.com/MD/White-Hall/3-Keil-Manor-Ct-21161/home/9592977,BRIGHT MLS,MDBC467026,N,Y,39.6331887,-76.6341865
PAST SALE,July-12-2019,Single Family Residential,2 Keil Manor Ct,White Hall,MD,21161,595000,5,3.5,GRAYSTONE FARMS ESTATES,5050,47916,1999,877,118,42,Sold,,,https://www.redfin.com/MD/White-Hall/2-Keil-Manor-Ct-21161/home/9592997,BRIGHT MLS,MDBC432510,N,Y,39.6335739,-76.63545
PAST SALE,July-2-2020,Single Family Residential,104 Graystone Farm Rd,White Hall,MD,21161,660000,4,3.5,GRAYSTONE FARMS ESTATES,3730,45302,2000,521,177,42,Sold,,,https://www.redfin.com/MD/White-Hall/104-Graystone-Farm-Rd-21161/home/9593042,BRIGHT MLS,MDBC493930,N,Y,39.6341381,-76.6350213
PAST SALE,September-10-2020,Single Family Residential,2211 River Bend Ct,White Hall,MD,21161,621000,5,3.5,HUNTER MILL AT GREYSTONE,3804,43996,2004,451,163,4,Sold,,,https://www.redfin.com/MD/White-Hall/2211-River-Bend-Ct-21161/home/9696318,BRIGHT MLS,MDBC499908,N,Y,39.6274768,-76.5973779
PAST SALE,August-17-2020,Single Family Residential,2707 Garrett Rd,White Hall,MD,21161,498000,4,3.5,NOTTINGHAMSHIRE FARMS,2732,63162,2001,475,182,,Sold,,,https://www.redfin.com/MD/White-Hall/2707-Garrett-Rd-21161/home/17478950,BRIGHT MLS,MDBC485116,N,Y,39.6488951,-76.5811024
PAST SALE,September-25-2020,Single Family Residential,1701 White Hall Rd,White Hall,MD,21161,395200,4,2.0,WHITE HALL,1838,50094,1919,436,215,,Sold,,,https://www.redfin.com/MD/White-Hall/1701-White-Hall-Rd-21161/home/9589295,BRIGHT MLS,MDBC501440,N,Y,39.627679,-76.6215343
PAST SALE,,Single Family Residential,2 Little Falls Ct,Parkton,MD,21120,715000,,2.5,,3468,44431,2006,,206,,,,,https://www.redfin.com/MD/Parkton/2-Little-Falls-Ct-21120/home/9703426,,,N,Y,39.618291,-76.654096
PAST SALE,,Vacant Land,APACHE LN,WHITE HALL,MD,21161,17000,,,,,158994,,,,,,,,https://www.redfin.com/MD/WHITE-HALL/APACHE-LN-21161/home/14505738,,,N,Y,39.678708,-76.507121
PAST SALE,July-10-2020,Single Family Residential,4845 Norrisville Rd,White Hall,MD,21161,375000,4,3.0,IVORY KNOLL,2620,43560,1976,513,143,,Sold,,,https://www.redfin.com/MD/White-Hall/4845-Norrisville-Rd-21161/home/14488519,BRIGHT MLS,MDHR246560,N,Y,39.6698623,-76.5403108
PAST SALE,July-7-2021,Single Family Residential,19817 Graystone Rd,White Hall,MD,21161,465000,3,2.0,WHITE HALL,1784,75794,1988,151,261,,Sold,,,https://www.redfin.com/MD/White-Hall/19817-Graystone-Rd-21161/home/9591760,BRIGHT MLS,MDBC528608,N,Y,39.6676385,-76.5945816
PAST SALE,November-13-2020,Single Family Residential,1109 Bernoudy Rd,White Hall,MD,21161,499734,4,3.0,HEREFORD ZONE,2850,163350,1922,387,175,,Sold,,,https://www.redfin.com/MD/White-Hall/1109-Bernoudy-Rd-21161/home/9588712,BRIGHT MLS,MDBC506338,N,Y,39.620292,-76.642237
PAST SALE,December-29-2020,Single Family Residential,18902 Vernon Rd,White Hall,MD,21161,899790,6,2.5,HEREFORD ZONE,5645,1581228,1980,341,159,,Sold,,,https://www.redfin.com/MD/White-Hall/18902-Vernon-Rd-21161/home/143316709,BRIGHT MLS,MDBC509912,N,Y,39.641598,-76.602543
PAST SALE,July-17-2020,Single Family Residential,2212 River Bend Ct,White Hall,MD,21161,450000,3,2.5,WHITE HALL/PARKTON,2254,59677,1892,506,200,4,Sold,,,https://www.redfin.com/MD/White-Hall/2212-River-Bend-Ct-21161/home/9694716,BRIGHT MLS,MDBC491626,N,Y,39.628053,-76.599231
PAST SALE,August-10-2021,Single Family Residential,121 Graystone Farm Rd,White Hall,MD,21161,805000,5,3.5,GRAYSTONE FARMS ESTATES,4718,67518,1999,117,171,42,Sold,,,https://www.redfin.com/MD/White-Hall/121-Graystone-Farm-Rd-21161/home/9593014,BRIGHT MLS,MDBC530018,N,Y,39.6355924,-76.635089
PAST SALE,,Single Family Residential,4717 Chippewa Dr,White Hall,MD,21161,104000,,1.0,,384,152896,1972,,271,,,,,https://www.redfin.com/MD/White-Hall/4717-Chippewa-Dr-21161/home/14540301,,,N,Y,39.681134,-76.5092822
PAST SALE,April-22-2020,Single Family Residential,13 Jordan Mill Ct,White Hall,MD,21161,443000,4,2.5,JORDAN MILL FARMS,2052,72745,1978,592,216,,Sold,,,https://www.redfin.com/MD/White-Hall/13-Jordan-Mill-Ct-21161/home/9590792,BRIGHT MLS,MDBC485980,N,Y,39.684876,-76.607831
PAST SALE,July-10-2020,Single Family Residential,2210 River Bend Ct,White Hall,MD,21161,625000,5,5.5,WHITE HALL/PARKTON,7246,43560,2004,513,86,4,Sold,,,https://www.redfin.com/MD/White-Hall/2210-River-Bend-Ct-21161/home/9696342,BRIGHT MLS,MDBC493776,N,Y,39.6278845,-76.5997815
PAST SALE,,Vacant Land,2533 Urey Rd,White Hall,MD,21161,105000,,,,,101059,,,,,,,,https://www.redfin.com/MD/White-Hall/2533-Urey-Rd-21161/home/28503865,,,N,Y,39.6867111,-76.5127767
PAST SALE,,Other,2305 Walnut Springs Ct,White Hall,MD,21161,128500,,2.5,,2516,142877,2020,,51,,,,,https://www.redfin.com/MD/White-Hall/2305-Walnut-Springs-Ct-21161/home/14556666,,,N,Y,39.6925075,-76.4938697
PAST SALE,October-11-2019,Single Family Residential,2728 Meadow Tree Dr,White Hall,MD,21161,240000,3,2.5,MEADOWSTREAM,1796,44422,1978,786,134,12,Sold,,,https://www.redfin.com/MD/White-Hall/2728-Meadow-Tree-Dr-21161/home/14503117,BRIGHT MLS,MDHR237542,N,Y,39.6905646,-76.527846
PAST SALE,,Vacant Land,2819 Hitchcock Rd,White Hall,MD,21161,270000,,1.0,,920,130680,2006,,293,,,,,https://www.redfin.com/MD/White-Hall/2819-Hitchcock-Rd-21161/home/174798270,,,N,Y,39.6652933,-76.5241388
PAST SALE,July-31-2020,Single Family Residential,5127 Meadowview Dr,White Hall,MD,21161,411000,3,2.5,MEADOWSTREAM,2548,41639,1988,492,161,12,Sold,,,https://www.redfin.com/MD/White-Hall/5127-Meadowview-Dr-21161/home/14558894,BRIGHT MLS,MDHR246458,N,Y,39.691222,-76.5238489
PAST SALE,October-16-2020,Single Family Residential,5081 Norrisville Rd,White Hall,MD,21161,510000,4,2.5,NORRISVILLE HEIGHTS,2672,98881,2006,415,191,,Sold,,,https://www.redfin.com/MD/White-Hall/5081-Norrisville-Rd-21161/home/14514723,BRIGHT MLS,MDHR250756,N,Y,39.6814421,-76.5289714
PAST SALE,September-25-2020,Single Family Residential,2523 Harkins Rd,White Hall,MD,21161,295000,3,1.5,White Hall,768,452588,1920,436,384,,Sold,,,https://www.redfin.com/MD/White-Hall/2523-Harkins-Rd-21161/home/40021181,BRIGHT MLS,MDHR250488,N,Y,39.702624,-76.516435
PAST SALE,,Vacant Land,1618 Stablersville Rd,White Hall,MD,21161,150000,,,,,453024,,,,,,,,https://www.redfin.com/MD/White-Hall/1618-Stablersville-Rd-21161/home/9590819,,,N,Y,39.65223,-76.618789
PAST SALE,July-14-2021,Single Family Residential,19028 Graystone Rd,White Hall,MD,21161,400000,4,2.0,MOUNT GREYSTONE,2093,40511,1964,144,191,,Sold,,,https://www.redfin.com/MD/White-Hall/19028-Graystone-Rd-21161/home/9588662,BRIGHT MLS,MDBC531064,N,Y,39.6462849,-76.6226561
PAST SALE,August-6-2020,Single Family Residential,19704 Trunk Rd,White Hall,MD,21161,385000,4,2.5,EVERGREEN HILLS,1448,62726,1979,486,266,,Sold,,,https://www.redfin.com/MD/White-Hall/19704-Trunk-Rd-21161/home/9590970,BRIGHT MLS,MDBC490000,N,Y,39.6658684,-76.5831354
PAST SALE,,Single Family Residential,2633 Meredith Rd,White Hall,MD,21161,270000,,1.5,,1401,369824,1983,,193,,,,,https://www.redfin.com/MD/White-Hall/2633-Meredith-Rd-21161/home/9590835,,,N,Y,39.679137,-76.585382
PAST SALE,May-14-2021,Single Family Residential,5132 Meadowstream Garth,White Hall,MD,21161,550000,5,3.5,MEADOWSTREAM,2937,41678,1990,205,187,12,Sold,,,https://www.redfin.com/MD/White-Hall/5132-Meadowstream-Garth-21161/home/14553426,BRIGHT MLS,MDHR258422,N,Y,39.6908361,-76.5217487
PAST SALE,July-29-2021,Single Family Residential,18310 Railroad Ave,White Hall,MD,21161,152000,2,1.0,White Hall,1740,55757,1922,129,87,,Sold,,,https://www.redfin.com/MD/White-Hall/18310-Railroad-Ave-21161/home/9589490,BRIGHT MLS,MDBC2001598,N,Y,39.6278075,-76.6345137
PAST SALE,,Vacant Land,4862 Harford Creamery Rd,White Hall,MD,21161,104300,,,,,151153,,,,,,,,https://www.redfin.com/MD/White-Hall/4862-Harford-Creamery-Rd-21161/home/14481621,,,N,Y,39.670282,-76.534668
PAST SALE,,Single Family Residential,5448 Norrisville Rd,White Hall,MD,21161,275000,,1.0,,1912,43560,1930,,144,,,,,https://www.redfin.com/MD/White-Hall/5448-Norrisville-Rd-21161/home/14486647,,,N,Y,39.7108956,-76.5375108
PAST SALE,September-4-2020,Single Family Residential,5506 Long Corner Rd,White Hall,MD,21161,380000,3,2.5,WHITE HALL,1852,136778,1989,457,205,,Sold,,,https://www.redfin.com/MD/White-Hall/5506-Long-Corner-Rd-21161/home/14494645,BRIGHT MLS,MDHR249586,N,Y,39.7113036,-76.5601564
PAST SALE,,Single Family Residential,2448 Bradenbaugh Rd,White Hall,MD,21161,397000,,2.0,,2450,169448,1973,,162,,,,,https://www.redfin.com/MD/White-Hall/2448-Bradenbaugh-Rd-21161/home/14508430,,,N,Y,39.6659172,-76.5004284
PAST SALE,March-24-2019,Single Family Residential,3238 Dry Branch Rd,White Hall,MD,21161,325000,3,1.5,WHITE HALL,6500,442134,2008,987,50,,Sold,,,https://www.redfin.com/MD/White-Hall/3238-Dry-Branch-Rd-21161/home/14518696,BRIGHT MLS,MDHR222132,N,Y,39.6727626,-76.5493199
PAST SALE,,Single Family Residential,2296 Walnut Springs Ct,White Hall,MD,21161,127900,,2.5,,4232,155945,2020,,30,,,,,https://www.redfin.com/MD/White-Hall/2296-Walnut-Springs-Ct-21161/home/14537737,,,N,Y,39.692554,-76.4947476
PAST SALE,July-30-2020,Single Family Residential,2947 Bradenbaugh Rd,White Hall,MD,21161,425000,3,1.0,BRADENBAUGH MANOR,1590,221285,1880,493,267,,Sold,,,https://www.redfin.com/MD/White-Hall/2947-Bradenbaugh-Rd-21161/home/14542809,BRIGHT MLS,MDHR247566,N,Y,39.6507395,-76.537328
PAST SALE,April-12-2019,Single Family Residential,3038 Green Rd,White Hall,MD,21161,630000,3,2.0,White Hall,1900,2715530,1920,968,332,,Sold,,,https://www.redfin.com/MD/White-Hall/3038-Green-Rd-21161/home/14543735,BRIGHT MLS,1001527818,N,Y,39.6948728,-76.5470186
PAST SALE,September-30-2019,Single Family Residential,4565 Amos Rd,White Hall,MD,21161,410000,4,2.5,WOODSTON,2233,87120,1994,797,184,,Sold,,,https://www.redfin.com/MD/White-Hall/4565-Amos-Rd-21161/home/14550853,BRIGHT MLS,MDHR232576,N,Y,39.6745593,-76.5158042
PAST SALE,November-30-2020,Single Family Residential,2623 Urey Rd,White Hall,MD,21161,605000,3,3.5,BOVA PT,5800,522720,2004,370,104,,Sold,,,https://www.redfin.com/MD/White-Hall/2623-Urey-Rd-21161/home/14556823,BRIGHT MLS,MDHR253234,N,Y,39.6841067,-76.5156963
PAST SALE,,Other,5139 Jolly Acres Rd,White Hall,MD,21161,415000,,2.0,,2225,64469,2020,,187,,,,,https://www.redfin.com/MD/White-Hall/5139-Jolly-Acres-Rd-21161/home/14562006,,,N,Y,39.6937917,-76.5340786
PAST SALE,March-28-2019,Single Family Residential,5109 Meadowview Dr,White Hall,MD,21161,347000,3,2.5,MEADOWSTREAM,1824,44867,1988,983,190,12,Sold,,,https://www.redfin.com/MD/White-Hall/5109-Meadowview-Dr-21161/home/14510147,BRIGHT MLS,MDHR179506,N,Y,39.687327,-76.5222004
PAST SALE,December-9-2020,Single Family Residential,2711 Meredith Rd,White Hall,MD,21161,290000,3,1.0,WHITE HALL,1305,56628,1974,361,222,,Sold,,,https://www.redfin.com/MD/White-Hall/2711-Meredith-Rd-21161/home/9590077,BRIGHT MLS,MDBC509228,N,Y,39.6839148,-76.5817609
PAST SALE,June-21-2019,Single Family Residential,1609 Hicks Rd,White Hall,MD,21161,560000,3,2.0,WHITE HALL,3022,147233,1931,898,185,,Sold,,,https://www.redfin.com/MD/White-Hall/1609-Hicks-Rd-21161/home/9591168,BRIGHT MLS,MDBC382606,N,Y,39.6084695,-76.6222499
PAST SALE,July-31-2020,Vacant Land,19907 Old York Rd,Lutherville Timonium,MD,21093,129000,,,Lutherville Timonium,,291852,,492,,,Sold,,,https://www.redfin.com/MD/Lutherville-Timonium/19907-Old-York-RD-21093/home/177218115,BRIGHT MLS,MDBC496196,N,Y,39.66994402,-76.59233636
PAST SALE,July-12-2019,Single Family Residential,4840 Carea Rd,White Hall,MD,21161,257000,3,2.0,WINDSWEPT,2044,77101,1978,877,126,,Sold,,,https://www.redfin.com/MD/White-Hall/4840-Carea-Rd-21161/home/14516394,BRIGHT MLS,MDHR233770,N,Y,39.693346,-76.500067
PAST SALE,October-22-2019,Single Family Residential,3039 Troyer Rd,White Hall,MD,21161,242400,5,2.0,BLACK HORSE,1582,43560,1900,775,153,,Sold,,,https://www.redfin.com/MD/White-Hall/3039-Troyer-Rd-21161/home/14496953,BRIGHT MLS,MDHR234684,N,Y,39.6257294,-76.5464748
PAST SALE,May-29-2020,Single Family Residential,4847 Norrisville Rd,White Hall,MD,21161,349999,4,2.5,IVORY KNOLL,2752,43560,1986,555,127,,Sold,,,https://www.redfin.com/MD/White-Hall/4847-Norrisville-Rd-21161/home/14496850,BRIGHT MLS,MDHR245614,N,Y,39.6701897,-76.5404011
PAST SALE,May-31-2019,Single Family Residential,2752 E Church Ln,White Hall,MD,21161,335000,3,2.0,NORRISVILLE AREA,2610,42500,1971,919,128,,Sold,,,https://www.redfin.com/MD/White-Hall/2752-E-Church-Ln-21161/home/14496467,BRIGHT MLS,MDHR223022,N,Y,39.7050428,-76.529472
PAST SALE,February-28-2020,Vacant Land,4558 Shanklin Rd,White Hall,MD,21161,110000,,,LD SHANKLIN R E JR,,114127,,646,,,Sold,,,https://www.redfin.com/MD/White-Hall/4558-Shanklin-Rd-21161/home/14529036,BRIGHT MLS,MDHR238460,N,Y,39.642576,-76.545091
PAST SALE,August-10-2020,Single Family Residential,4437 Norrisville Rd,White Hall,MD,21161,365000,3,2.0,White Hall,1932,150282,1971,482,189,,Sold,,,https://www.redfin.com/MD/White-Hall/4437-Norrisville-Rd-21161/home/14522428,BRIGHT MLS,MDHR246600,N,Y,39.629498,-76.5524131
PAST SALE,August-27-2019,Single Family Residential,4866 Harford Creamery Rd,White Hall,MD,21161,410000,3,3.0,IVORY MILL FARMS,3016,307534,1977,831,136,,Sold,,,https://www.redfin.com/MD/White-Hall/4866-Harford-Creamery-Rd-21161/home/166459923,BRIGHT MLS,MDHR234296,N,Y,39.6707324,-76.5352528
PAST SALE,January-23-2019,Single Family Residential,4349 Norrisville Rd,White Hall,MD,21161,315000,3,2.0,WHITE HALL,2188,274428,1910,1047,144,,Sold,,,https://www.redfin.com/MD/White-Hall/4349-Norrisville-Rd-21161/home/147936899,BRIGHT MLS,1009948556,N,Y,39.6199488,-76.5469411
PAST SALE,June-30-2021,Single Family Residential,4684 Norrisville Rd,White Hall,MD,21161,565000,5,2.0,WHITE HALL,2320,540144,1972,158,244,,Sold,,,https://www.redfin.com/MD/White-Hall/4684-Norrisville-Rd-21161/home/35627699,BRIGHT MLS,MDHR256276,N,Y,39.6538096,-76.5534126
PAST SALE,May-7-2021,Single Family Residential,4543 Amos Rd,White Hall,MD,21161,495000,4,3.5,WHITE HALL,3110,95396,1984,212,159,,Sold,,,https://www.redfin.com/MD/White-Hall/4543-Amos-Rd-21161/home/14540896,BRIGHT MLS,MDHR257942,N,Y,39.6726898,-76.5155608
PAST SALE,,Single Family Residential,4539 Amos Rd,White Hall,MD,21161,125889,,2.5,,1980,91476,1984,,64,,,,,https://www.redfin.com/MD/White-Hall/4539-Amos-Rd-21161/home/14520468,,,N,Y,39.672229,-76.51669
PAST SALE,July-31-2020,Single Family Residential,2658 Bradenbaugh Rd,White Hall,MD,21161,367000,3,2.0,WHITE HALL,1806,148975,1976,492,203,,Sold,,,https://www.redfin.com/MD/White-Hall/2658-Bradenbaugh-Rd-21161/home/14552619,BRIGHT MLS,MDHR239536,N,Y,39.6590193,-76.5150526
PAST SALE,June-3-2021,Vacant Land,18930 Graystone Rd,White Hall,MD,21161,227500,,,WHITE HALL,,135036,,185,,,Sold,,,https://www.redfin.com/MD/White-Hall/18930-Graystone-Rd-21161/home/174917350,BRIGHT MLS,MDBC524580,N,Y,39.6420667,-76.6272762
PAST SALE,April-19-2019,Single Family Residential,4738 Norrisville Rd,White Hall,MD,21161,355000,3,2.0,White Hall,2550,153767,1976,961,139,,Sold,,,https://www.redfin.com/MD/White-Hall/4738-Norrisville-Rd-21161/home/14516829,BRIGHT MLS,MDHR222286,N,Y,39.6576336,-76.5468779
PAST SALE,January-29-2019,Single Family Residential,4611 Amoss Rd,White Hall,MD,21161,240000,2,1.0,WHITE HALL,1500,304920,1985,1041,160,,Sold,,,https://www.redfin.com/MD/White-Hall/4611-Amos-Rd-21161/home/14484478,BRIGHT MLS,1000370208,N,Y,39.6754434,-76.5110438
PAST SALE,May-8-2019,Single Family Residential,5140 Meadowview Dr,White Hall,MD,21161,398000,3,3.5,MEADOWSTREAM,2369,35028,1990,942,168,12,Sold,,,https://www.redfin.com/MD/White-Hall/5140-Meadowview-Dr-21161/home/14549044,BRIGHT MLS,MDHR186482,N,Y,39.6924595,-76.5224262
PAST SALE,June-22-2021,Single Family Residential,5132 Meadowview Dr,White Hall,MD,21161,500000,4,2.5,MEADOWSTREAM,2376,56628,1988,166,210,,Sold,,,https://www.redfin.com/MD/White-Hall/5132-Meadowview-Dr-21161/home/14489306,BRIGHT MLS,MDHR259674,N,Y,39.6924218,-76.5244587
PAST SALE,August-27-2020,Single Family Residential,2717 Meadow Tree Dr,White Hall,MD,21161,567000,4,3.5,MEADOWSTREAM,3240,42595,1990,465,175,12,Sold,,,https://www.redfin.com/MD/White-Hall/2717-Meadow-Tree-Dr-21161/home/14495893,BRIGHT MLS,MDHR249442,N,Y,39.6898762,-76.5223359
PAST SALE,February-23-2021,Single Family Residential,2710 Meadow Tree Dr,White Hall,MD,21161,490000,4,2.5,MEADOWSTREAM,2217,47916,1989,285,221,13,Sold,,,https://www.redfin.com/MD/White-Hall/2710-Meadow-Tree-Dr-21161/home/14524671,BRIGHT MLS,MDHR256000,N,Y,39.68984,-76.5203486
PAST SALE,August-6-2019,Single Family Residential,4185 Norrisville Rd,White Hall,MD,21161,338000,3,3.0,LD ISENNOCK S E,2814,100624,1985,852,120,,Sold,,,https://www.redfin.com/MD/White-Hall/4185-Norrisville-Rd-21161/home/14495518,BRIGHT MLS,MDHR234632,N,Y,39.6130427,-76.5290655
PAST SALE,August-11-2021,Single Family Residential,4787 Norrisville Rd,White Hall,MD,21161,445000,3,3.0,WHITE HALL,1411,130680,1926,116,315,,Sold,,,https://www.redfin.com/MD/White-Hall/4787-Norrisville-Rd-21161/home/14533680,BRIGHT MLS,MDHR2000306,N,Y,39.6619463,-76.5435397
PAST SALE,June-15-2020,Single Family Residential,2607 Bradenbaugh Rd,White Hall,MD,21161,540000,4,3.0,HARFORD MANOR FARMS,3594,153767,1988,538,150,,Sold,,,https://www.redfin.com/MD/White-Hall/2607-Bradenbaugh-Rd-21161/home/14556267,BRIGHT MLS,MDHR245680,N,Y,39.6608843,-76.5078859
PAST SALE,March-14-2019,Single Family Residential,2410 Island Branch Rd,White Hall,MD,21161,360000,3,2.5,NESTLING WIND,2364,436036,1979,997,152,,Sold,,,https://www.redfin.com/MD/White-Hall/2410-Island-Branch-Rd-21161/home/110039600,BRIGHT MLS,MDHR235238,N,Y,39.7095086,-76.5062557
PAST SALE,October-1-2020,Single Family Residential,4561 Shanklin Rd,White Hall,MD,21161,380000,5,2.0,LD SHANKLIN R E JR,3078,182952,1900,430,123,,Sold,,,https://www.redfin.com/MD/White-Hall/4561-Shanklin-Rd-21161/home/14557496,BRIGHT MLS,MDHR240932,N,Y,39.6439681,-76.5447338
PAST SALE,,Vacant Land,2973 Church Ln,White Hall,MD,21161,135000,,,,,218236,,,,,,,,https://www.redfin.com/MD/White-Hall/2973-Church-Ln-21161/home/64354868,,,N,Y,39.69723,-76.547327
PAST SALE,February-19-2019,Single Family Residential,5323 Norrisville Rd,White Hall,MD,21161,210000,4,2.5,White Hall,2086,14365,1845,1020,101,,Sold,,,https://www.redfin.com/MD/White-Hall/5323-Norrisville-Rd-21161/home/14527954,BRIGHT MLS,MDHR100464,N,Y,39.7029802,-76.5335143
PAST SALE,,Vacant Land,HARFORD CREAMERY RD,WHITE HALL,MD,21161,70000,,,,,90169,,,,,,,,https://www.redfin.com/MD/WHITE-HALL/HARFORD-CREAMERY-RD-21161/home/14513362,,,N,Y,39.668682,-76.532261
PAST SALE,August-30-2019,Single Family Residential,5402 Norrisville Rd,White Hall,MD,21161,210000,2,1.0,White Hall,946,21780,1942,828,222,,Sold,,,https://www.redfin.com/MD/White-Hall/5402-Norrisville-Rd-21161/home/14509805,BRIGHT MLS,MDHR234596,N,Y,39.7055094,-76.5351173
PAST SALE,June-13-2019,Single Family Residential,4819 Norrisville Rd,White Hall,MD,21161,305000,3,1.5,WHITE HALL,1248,72310,1949,906,244,,Sold,,,https://www.redfin.com/MD/White-Hall/4819-Norrisville-Rd-21161/home/14530012,BRIGHT MLS,MDHR232586,N,Y,39.6664025,-76.5415301
PAST SALE,February-6-2019,Single Family Residential,4448 Rose Ct,White Hall,MD,21161,385000,3,2.5,SHAWSVILLE ACRES,2814,23522,1968,1033,137,,Sold,,,https://www.redfin.com/MD/White-Hall/4448-Rose-Ct-21161/home/14483504,BRIGHT MLS,1009970846,N,Y,39.6313468,-76.5519615
PAST SALE,October-30-2019,Single Family Residential,5327 Broadway Rd,White Hall,MD,21161,415000,3,2.5,White Hall,1768,210395,1995,767,235,,Sold,,,https://www.redfin.com/MD/White-Hall/5327-Broadway-Rd-21161/home/14483319,BRIGHT MLS,MDHR238124,N,Y,39.7073688,-76.5191516
PAST SALE,August-18-2021,Mobile/Manufactured Home,5510 Long Corner Rd,White Hall,MD,21161,155000,3,1.0,White Hall,1074,101495,1975,109,144,,Sold,,,https://www.redfin.com/MD/White-Hall/5510-Long-Corner-Rd-21161/home/14556828,BRIGHT MLS,MDHR261240,N,Y,39.7093725,-76.5622566
PAST SALE,,Single Family Residential,5106 Norrisville Rd,White Hall,MD,21161,375000,,3.5,,3386,217800,1994,,111,,,,,https://www.redfin.com/MD/White-Hall/5106-Norrisville-Rd-21161/home/14505396,,,N,Y,39.6850285,-76.5278912
PAST SALE,April-5-2019,Single Family Residential,2863 Troyer Rd,White Hall,MD,21161,549000,3,2.0,LAKE VIEW FARMS,1860,249163,1988,975,295,,Sold,,,https://www.redfin.com/MD/White-Hall/2863-Troyer-Rd-21161/home/14492382,BRIGHT MLS,MDHR221596,N,Y,39.6291749,-76.5321293
PAST SALE,August-27-2021,Single Family Residential,4958 Carea Rd,White Hall,MD,21161,475000,3,2.5,LD BRINEGAR,2520,97139,1994,100,188,,Sold,,,https://www.redfin.com/MD/White-Hall/4958-Carea-Rd-21161/home/14503538,BRIGHT MLS,MDHR2000660,N,Y,39.7029471,-76.5029581
PAST SALE,July-9-2021,Single Family Residential,4028 Madonna Rd,Jarrettsville,MD,21084,490000,4,3.5,LD SUTTON,3396,91476,2000,149,144,,Sold,,,https://www.redfin.com/MD/Jarrettsville/4028-Madonna-Rd-21084/home/14520606,BRIGHT MLS,MDHR257934,N,Y,39.6233211,-76.5143864
PAST SALE,January-24-2019,Single Family Residential,3137 Green Rd,White Hall,MD,21161,540000,4,3.5,BRIANWOODS,3309,158994,2000,1046,163,,Sold,,,https://www.redfin.com/MD/White-Hall/3137-Green-Rd-21161/home/14551561,BRIGHT MLS,1002769990,N,Y,39.6899306,-76.5554385
PAST SALE,February-26-2019,Single Family Residential,5136 Norrisville Rd,White Hall,MD,21161,63000,3,1.0,WHITE HALL,1440,122839,1800,1013,44,,Sold,,,https://www.redfin.com/MD/White-Hall/5136-Norrisville-Rd-21161/home/14493271,BRIGHT MLS,MDHR180072,N,Y,39.6880385,-76.5299236
PAST SALE,January-24-2020,Single Family Residential,4532 Amos Rd,White Hall,MD,21161,420000,3,2.5,WOODSTON,2200,89298,2002,681,191,,Sold,,,https://www.redfin.com/MD/White-Hall/4532-Amos-Rd-21161/home/14552912,BRIGHT MLS,MDHR241668,N,Y,39.6733039,-76.5174127
PAST SALE,December-27-2018,Single Family Residential,4814 Amos Rd,White Hall,MD,21161,335450,4,2.0,LD CHANNELL PT,1316,97574,1994,1074,255,,Sold,,,https://www.redfin.com/MD/White-Hall/4814-Amos-Rd-21161/home/14533076,BRIGHT MLS,MDHR100344,N,Y,39.6914334,-76.5096887
PAST SALE,July-23-2021,Single Family Residential,17747 Troyer Rd,White Hall,MD,21161,440502,4,2.5,WHITE HALL,2438,87120,1980,135,181,,Sold,,,https://www.redfin.com/MD/White-Hall/17747-Troyer-Rd-21161/home/9077228,BRIGHT MLS,MDBC530608,N,Y,39.6110797,-76.571061
PAST SALE,January-29-2019,Vacant Land,2540 Urey Rd,White Hall,MD,21161,132500,,,LD CHANNELL PT,,158123,,1041,,,Sold,,,https://www.redfin.com/MD/White-Hall/2540-Urey-Rd-21161/home/40433256,BRIGHT MLS,1000110459,N,Y,39.6883321,-76.5148689
PAST SALE,March-22-2019,Single Family Residential,2523 Urey Rd,White Hall,MD,21161,450000,4,3.5,LD CHANNELL PT,2848,142441,2004,989,158,,Sold,,,https://www.redfin.com/MD/White-Hall/2523-Urey-Rd-21161/home/14531456,BRIGHT MLS,MDHR201976,N,Y,39.6876314,-76.5123538
PAST SALE,April-30-2021,Vacant Land,Urey Rd,White Hall,MD,21161,55000,,,White Hall,,958320,,219,,,Sold,,,https://www.redfin.com/MD/WHITE-HALL/UREY-RD-21161/home/14550065,BRIGHT MLS,MDHR258194,N,Y,39.688918,-76.512161
PAST SALE,May-22-2020,Single Family Residential,5015 Norrisville Rd,White Hall,MD,21161,410000,4,4.0,WHITE HALL,3235,361984,2000,562,127,,Sold,,,https://www.redfin.com/MD/White-Hall/5015-Norrisville-Rd-21161/home/14491803,BRIGHT MLS,MDHR240350,N,Y,39.6736713,-76.5331183
PAST SALE,October-4-2019,Single Family Residential,4020 Madonna Rd,Jarrettsville,MD,21084,480000,4,3.0,Jarrettsville,2326,152024,1996,793,206,,Sold,,,https://www.redfin.com/MD/Jarrettsville/4020-Madonna-Rd-21084/home/14500528,BRIGHT MLS,MDHR237954,N,Y,39.6221129,-76.5147252
PAST SALE,June-24-2020,Single Family Residential,2606 Hunter Mill Rd,White Hall,MD,21161,329900,3,2.0,White Hall,1260,47045,1972,529,262,,Sold,,,https://www.redfin.com/MD/White-Hall/2606-Hunter-Mill-Rd-21161/home/9152467,BRIGHT MLS,MDBC478722,N,Y,39.6236299,-76.5865011
PAST SALE,July-12-2019,Single Family Residential,5305 Long Corner Rd,White Hall,MD,21161,343500,3,2.5,White Hall,1456,87120,1998,877,236,,Sold,,,https://www.redfin.com/MD/White-Hall/5305-Long-Corner-Rd-21161/home/14505395,BRIGHT MLS,MDHR223074,N,Y,39.6980618,-76.5576059
PAST SALE,January-31-2019,Single Family Residential,2920 Duncan Rd,White Hall,MD,21161,562500,4,4.0,LD JOHN MILLER,3648,148540,1998,1039,154,,Sold,,,https://www.redfin.com/MD/White-Hall/2920-Duncan-Rd-21161/home/14555511,BRIGHT MLS,1002251700,N,Y,39.7055653,-76.5456847
PAST SALE,September-3-2019,Single Family Residential,2911 Duncan Rd,White Hall,MD,21161,487000,3,2.5,LD JOHN MILLER,2299,141134,2001,824,212,,Sold,,,https://www.redfin.com/MD/White-Hall/2911-Duncan-Rd-21161/home/14502990,BRIGHT MLS,MDHR236494,N,Y,39.7031899,-76.54433
PAST SALE,January-10-2020,Single Family Residential,4237 Norrisville Rd,White Hall,MD,21161,620000,4,4.5,WHITE HALL,4400,242194,2003,695,141,,Sold,,,https://www.redfin.com/MD/White-Hall/4237-Norrisville-Rd-21161/home/14493650,BRIGHT MLS,MDHR222706,N,Y,39.6156931,-76.5340786
PAST SALE,December-23-2020,Single Family Residential,2302 Walnut Spring Ct,White Hall,MD,21161,597480,4,2.5,FLETCHER'S WALNUT SPRING,2550,145490,2020,347,234,,Sold,,,https://www.redfin.com/MD/White-Hall/2302-Walnut-Springs-Ct-21161/home/14494467,BRIGHT MLS,MDHR252298,N,Y,39.6914752,-76.4963944
PAST SALE,May-10-2021,Vacant Land,2311 Walnut Springs Ct,White Hall,MD,21161,168400,,,FLETCHERS WALNUT,,211762,,209,,,Sold,,,https://www.redfin.com/MD/White-Hall/2311-Walnut-Springs-Ct-21161/home/14495366,BRIGHT MLS,1000110607,N,Y,39.6899697,-76.4939856
PAST SALE,May-31-2019,Single Family Residential,17525 Troyer Rd,White Hall,MD,21161,310000,4,2.0,WHITE HALL,2338,59242,1852,919,133,,Sold,,,https://www.redfin.com/MD/White-Hall/17525-Troyer-Rd-21161/home/9154001,BRIGHT MLS,1008115624,N,Y,39.605115,-76.577754
PAST SALE,June-28-2019,Single Family Residential,3109 Timber Ridge Cir,White Hall,MD,21161,600000,5,3.5,TIMBER RIDGE,4689,112820,2007,891,128,,Sold,,,https://www.redfin.com/MD/White-Hall/3109-Timber-Ridge-Cir-21161/home/14559576,BRIGHT MLS,MDHR134410,N,Y,39.6949648,-76.5588702
PAST SALE,March-30-2021,Single Family Residential,4759 Carea Rd,White Hall,MD,21161,570000,4,2.5,NORRIS PROPERTY,3140,131987,2017,250,182,,Sold,,,https://www.redfin.com/MD/White-Hall/4759-Carea-Rd-21161/home/15267544,BRIGHT MLS,MDHR256290,N,Y,39.6851565,-76.4928239
PAST SALE,June-12-2019,Single Family Residential,2000 Wilson Rd,White Hall,MD,21161,555000,4,4.5,HEMLOCK HILL FARMS,5051,246114,1857,907,110,,Sold,,,https://www.redfin.com/MD/White-Hall/2000-Wilson-Rd-21161/home/9155163,BRIGHT MLS,MDBC453222,N,Y,39.609165,-76.6093379
PAST SALE,April-12-2021,Vacant Land,2341 Walnut Spring Ct,White Hall,MD,21161,188900,,,FLETCHER'S WALNUT SPRING,,554954,,237,,,Sold,,,https://www.redfin.com/MD/White-Hall/2341-Walnut-Springs-Ct-21161/home/28503779,BRIGHT MLS,MDHR248610,N,Y,39.6894547,-76.4925552
PAST SALE,February-24-2020,Vacant Land,2301 Walnut Spring Ct,White Hall,MD,21161,125000,,,FLETCHERS WALNUT,,103237,,650,,,Sold,,,https://www.redfin.com/MD/White-Hall/2301-Walnut-Springs-Ct-21161/home/21504211,BRIGHT MLS,MDHR180242,N,Y,39.6912705,-76.493123
PAST SALE,June-21-2019,Single Family Residential,2316 Wilson Rd,White Hall,MD,21161,699900,4,3.5,MY LADY'S VIEW,5164,329749,1992,898,136,,Sold,,,https://www.redfin.com/MD/White-Hall/2316-Wilson-Rd-21161/home/9158029,BRIGHT MLS,MDBC101306,N,Y,39.609353,-76.59624
PAST SALE,October-25-2019,Single Family Residential,2700 Mccomas Rd,White Hall,MD,21161,595000,4,2.5,WHITE HALL,3514,245243,1997,772,169,,Sold,,,https://www.redfin.com/MD/White-Hall/2700-McComas-Rd-21161/home/9160710,BRIGHT MLS,MDBC462580,N,Y,39.608581,-76.583913
PAST SALE,September-14-2020,Single Family Residential,2604 Mccomas Rd,White Hall,MD,21161,445900,4,3.0,MY LADY'S MANOR,4680,46609,1975,447,95,,Sold,,,https://www.redfin.com/MD/White-Hall/2604-McComas-Rd-21161/home/9153476,BRIGHT MLS,MDBC499996,N,Y,39.6105192,-76.5875845
PAST SALE,March-11-2019,Single Family Residential,1310 Bernoudy Rd,White Hall,MD,21161,975000,5,4.5,BERNOUDY FARMS,4386,351529,2000,1000,222,,Sold,,,https://www.redfin.com/MD/White-Hall/1310-Bernoudy-Rd-21161/home/9592682,BRIGHT MLS,1002202650,N,Y,39.621162,-76.634986
PAST SALE,July-16-2021,Single Family Residential,115 Graystone Farm Rd,White Hall,MD,21161,537500,4,3.5,GRAYSTONE FARMS ESTATES,2898,55757,2002,142,185,42,Sold,,,https://www.redfin.com/MD/White-Hall/115-Graystone-Farm-Rd-21161/home/9593010,BRIGHT MLS,MDBC527924,N,Y,39.6365886,-76.636293
PAST SALE,August-31-2021,Single Family Residential,2618 Mccomas Rd,White Hall,MD,21161,826000,4,3.0,White Hall,2898,,1955,96,285,,Sold,,,https://www.redfin.com/MD/White-Hall/2618-McComas-Rd-21161/home/143410821,BRIGHT MLS,MDBC532620,N,Y,39.609836,-76.585795
PAST SALE,May-13-2019,Vacant Land,4226 Harford Creamery,White Hall,MD,21161,300000,,,White Hall,,365904,,937,,,Sold,,,https://www.redfin.com/MD/White-Hall/4226-Harford-Creamery-Rd-21161/home/18969424,BRIGHT MLS,1005934236,N,Y,39.62748,-76.522052
PAST SALE,January-14-2020,Single Family Residential,1127 Bernoudy Rd,White Hall,MD,21161,475000,4,2.0,WHITE HALL,1988,174240,1973,691,239,,Sold,,,https://www.redfin.com/MD/White-Hall/1127-Bernoudy-Rd-21161/home/9588704,BRIGHT MLS,MDBC478012,N,Y,39.6188924,-76.6419255
PAST SALE,,Single Family Residential,3108 Timber Ridge Cir,White Hall,MD,21161,605000,,3.5,,5797,282269,2006,,104,,,,,https://www.redfin.com/MD/White-Hall/3108-Timber-Ridge-Cir-21161/home/14490328,,,N,Y,39.696457,-76.559954
PAST SALE,May-14-2021,Single Family Residential,2500 Jolly Acres Rd,White Hall,MD,21161,165000,4,2.5,WHITEHALL,1735,206910,1940,205,95,,Sold,,,https://www.redfin.com/MD/White-Hall/2500-Jolly-Acres-Rd-21161/home/14512495,BRIGHT MLS,MDHR250762,N,Y,39.698943,-76.507245
PAST SALE,August-17-2020,Single Family Residential,3062 Daisy Ln,White Hall,MD,21161,387000,6,5.0,SHAWSVILLE ACRES,3016,39204,1991,475,128,,Sold,,,https://www.redfin.com/MD/White-Hall/3062-Daisy-Ln-21161/home/14490476,BRIGHT MLS,MDHR244908,N,Y,39.6319595,-76.5517809
PAST SALE,May-31-2019,Single Family Residential,4 Twig Ct,White Hall,MD,21161,430000,4,2.5,OAK VALLEY,3036,89298,1985,919,142,,Sold,,,https://www.redfin.com/MD/White-Hall/4-Twig-Ct-21161/home/9591184,BRIGHT MLS,MDBC333324,N,Y,39.662469,-76.5812192
PAST SALE,August-10-2020,Single Family Residential,4815 Norrisville Rd,White Hall,MD,21161,290000,2,1.0,WHITE HALL,1104,110642,1952,482,263,,Sold,,,https://www.redfin.com/MD/White-Hall/4815-Norrisville-Rd-21161/home/14533965,BRIGHT MLS,MDHR247172,N,Y,39.6659249,-76.5418462
PAST SALE,January-22-2021,Single Family Residential,2943 Bradenbaugh Rd,White Hall,MD,21161,410000,3,2.0,BRADENBAUGH MANOR,1743,117612,1974,317,235,,Sold,,,https://www.redfin.com/MD/White-Hall/2943-Bradenbaugh-Rd-21161/home/14518052,BRIGHT MLS,MDHR255096,N,Y,39.6514781,-76.5378721
PAST SALE,January-24-2020,Single Family Residential,5163 Norrisville Rd,White Hall,MD,21161,245000,5,3.0,WHITE HALL,2486,80586,1977,681,99,,Sold,,,https://www.redfin.com/MD/White-Hall/5163-Norrisville-Rd-21161/home/14512296,BRIGHT MLS,MDHR223252,N,Y,39.6912268,-76.5292687
PAST SALE,September-16-2021,Single Family Residential,5322 Norrisville Rd,White Hall,MD,21161,200000,5,2.0,WHITE HALL,2608,24088,1840,80,77,,Sold,,,https://www.redfin.com/MD/White-Hall/5322-Norrisville-Rd-21161/home/14503496,BRIGHT MLS,MDHR2002680,N,Y,39.702682,-76.533864
PAST SALE,September-3-2021,Single Family Residential,2200 Garrett Rd,White Hall,MD,21161,530000,4,3.0,WHITE HALL,3379,157252,2000,93,157,,Sold,,,https://www.redfin.com/MD/White-Hall/2200-Garrett-Rd-21161/home/9589478,BRIGHT MLS,MDBC2000536,N,Y,39.642356,-76.6000361
PAST SALE,,Single Family Residential,2757 E Church Ln,White Hall,MD,21161,285000,,1.0,,1736,130680,1973,,164,,,,,https://www.redfin.com/MD/White-Hall/2757-E-Church-Ln-21161/home/14561255,,,N,Y,39.7042597,-76.5298784
PAST SALE,April-7-2021,Single Family Residential,19742 Graystone Rd,White Hall,MD,21161,462300,4,2.5,WHITE HALL,1890,55321,2019,242,245,,Sold,,,https://www.redfin.com/MD/White-Hall/19742-Graystone-Rd-21161/home/9589487,BRIGHT MLS,MDBC404412,N,Y,39.667591,-76.597157
PAST SALE,August-30-2021,Single Family Residential,5135 Meadowstream Garth,White Hall,MD,21161,420000,3,2.0,MEADOWSTREAM,1978,43560,1990,97,212,14,Sold,,,https://www.redfin.com/MD/White-Hall/5135-Meadowstream-Garth-21161/home/14504142,BRIGHT MLS,MDHR2001088,N,Y,39.6912442,-76.5208454
PAST SALE,,Vacant Land,BURKE RD,WHITE HALL,MD,21161,349000,,,,,24829,,,,,,,,https://www.redfin.com/MD/WHITE-HALL/BURKE-RD-21161/home/44630730,,,N,Y,39.6594,-76.5694
PAST SALE,October-7-2019,Single Family Residential,2207 Elliottschance Ct,White Hall,MD,21161,560000,5,5.5,ELLIOTT'S CHANCE,2822,58370,2000,790,198,17,Sold,,,https://www.redfin.com/MD/White-Hall/2207-Elliottschance-Ct-21161/home/9592893,BRIGHT MLS,MDBC469264,N,Y,39.6317475,-76.5988022
PAST SALE,December-17-2020,Single Family Residential,4241 Norrisville Rd,White Hall,MD,21161,735000,4,4.5,WHITE HALL,5270,688248,2002,353,139,,Sold,,,https://www.redfin.com/MD/White-Hall/4241-Norrisville-Rd-21161/home/105540462,BRIGHT MLS,MDHR245082,N,Y,39.6147953,-76.5397886
