SALE TYPE,SOLD DATE,PROPERTY TYPE,ADDRESS,CITY,STATE OR PROVINCE,ZIP OR POSTAL CODE,PRICE,BEDS,BATHS,LOCATION,SQUARE FEET,LOT SIZE,YEAR BUILT,DAYS ON MARKET,$/SQUARE FEET,HOA/MONTH,STATUS,NEXT OPEN HOUSE START TIME,NEXT OPEN HOUSE END TIME,URL (SEE https://www.redfin.com/buy-a-home/comparative-market-analysis FOR INFO ON PRICING),SOURCE,MLS#,FAVORITE,INTERESTED,LATITUDE,LONGITUDE
PAST SALE,January-4-2021,Single Family Residential,117 Van Gogh Ter,Winchester,VA,22602,382000,4,4.0,SOVEREIGN VILLAGE,2088,12197,2004,335,183,21,Sold,,,https://www.redfin.com/VA/Winchester/117-Van-Gogh-Ter-22602/home/17051792,BRIGHT MLS,VAFV160602,N,Y,39.1641283,-78.1021623
PAST SALE,December-28-2020,Single Family Residential,101 Van Gogh Ter,Winchester,VA,22602,422000,5,2.5,SOVEREIGN VILLAGE,3592,20909,2002,342,117,21,Sold,,,https://www.redfin.com/VA/Winchester/101-Van-Gogh-Ter-22602/home/40291612,BRIGHT MLS,VAFV160428,N,Y,39.1646977,-78.1044978
PAST SALE,February-8-2019,Single Family Residential,163 Darby Dr,Winchester,VA,22602,360000,4,2.5,RAVENWING,3200,13068,2004,1031,113,13,Sold,,,https://www.redfin.com/VA/Winchester/163-Darby-Dr-22602/home/40542035,BRIGHT MLS,1001986238,N,Y,39.1626453,-78.1416783
PAST SALE,November-30-2020,Single Family Residential,124 Wickham Ter,Winchester,VA,22602,421000,5,4.0,SOVEREIGN VILLAGE,2913,12632,2003,370,145,22,Sold,,,https://www.redfin.com/VA/Winchester/124-Wickham-Ter-22602/home/102250905,BRIGHT MLS,VAFV159522,N,Y,39.1672991,-78.0997107
PAST SALE,March-31-2020,Single Family Residential,119 Darby Dr,Winchester,VA,22602,405000,4,3.5,RAVENWING,3518,11761,2001,614,115,13,Sold,,,https://www.redfin.com/VA/Winchester/119-Darby-Dr-22602/home/40111714,BRIGHT MLS,VAFV155440,N,Y,39.157163,-78.140312
PAST SALE,May-14-2019,Single Family Residential,152 Abrams Pointe Blvd,Winchester,VA,22602,478000,3,2.0,ABRAMS POINTE,2140,14375,2015,936,223,17,Sold,,,https://www.redfin.com/VA/Winchester/152-Abrams-Pointe-Blvd-22602/home/59299832,BRIGHT MLS,VAFV144978,N,Y,39.1757862,-78.1223765
PAST SALE,August-14-2020,Single Family Residential,120 Kinross Dr,Winchester,VA,22602,464900,4,4.5,RAVENWING,4200,11761,2002,478,111,13,Sold,,,https://www.redfin.com/VA/Winchester/120-Kinross-Dr-22602/home/28898654,BRIGHT MLS,VAFV157870,N,Y,39.1591597,-78.1389611
PAST SALE,May-14-2021,Single Family Residential,111 Orchid Ct,Winchester,VA,22602,365000,4,3.0,BRIARWOOD ESTATES,2162,13504,2000,205,169,13,Sold,,,https://www.redfin.com/VA/Winchester/111-Orchid-Ct-22602/home/75056663,BRIGHT MLS,VAFV162380,N,Y,39.1760767,-78.1172215
PAST SALE,November-23-2020,Single Family Residential,109 Woodys Pl,Winchester,VA,22602,290000,4,2.5,CARLISLE ESTATES,2332,,1988,377,124,33,Sold,,,https://www.redfin.com/VA/Winchester/109-Woodys-Pl-22602/home/49732014,BRIGHT MLS,VAFV160084,N,Y,39.1790414,-78.1179009
PAST SALE,November-30-2020,Townhouse,103 Trade Wind Ln,Winchester,VA,22602,214000,3,2.5,WINDSTONE,1488,2178,2004,370,144,60,Sold,,,https://www.redfin.com/VA/Winchester/103-Trade-Wind-Ln-22602/home/102250590,BRIGHT MLS,VAFV160534,N,Y,39.1806242,-78.1303527
PAST SALE,June-14-2019,Single Family Residential,208 Darby Dr,Winchester,VA,22602,419000,4,4.5,RAVENWING,3402,12197,2004,905,123,13,Sold,,,https://www.redfin.com/VA/Winchester/208-Darby-Dr-22602/home/105802125,BRIGHT MLS,VAFV127984,N,Y,39.1637606,-78.140832
PAST SALE,March-28-2019,Single Family Residential,109 Oak Ridge Ln,Winchester,VA,22602,265000,4,2.5,FAIRWAY ESTATES,2309,,1972,983,115,,Sold,,,https://www.redfin.com/VA/Winchester/109-Oak-Ridge-Ln-22602/home/28505458,BRIGHT MLS,VAFV129090,N,Y,39.1672025,-78.1407874
PAST SALE,November-22-2021,Single Family Residential,828 Merrimans Ln,Winchester,VA,22602,405000,4,3.5,MERRIMANS CHASE,2664,13504,2003,13,152,25,Sold,,,https://www.redfin.com/VA/Winchester/828-Merrimans-Ln-22602/home/26772027,BRIGHT MLS,VAFV2000149,N,Y,39.1794074,-78.2035301
PAST SALE,July-28-2020,Single Family Residential,101 Dewberry Dr,Winchester,VA,22602,429000,5,3.0,OAKDALE CROSSING,3280,16988,2000,495,131,,Sold,,,https://www.redfin.com/VA/Winchester/101-Dewberry-Dr-22602/home/22027534,BRIGHT MLS,VAFV157196,N,Y,39.1628857,-78.1370012
PAST SALE,August-27-2021,Single Family Residential,1021 Greenwood Rd,Winchester,VA,22602,340000,3,2.0,GREENWOOD HEIGHTS,3060,,1963,100,111,,Sold,,,https://www.redfin.com/VA/Winchester/1021-Greenwood-Rd-22602/home/75058144,BRIGHT MLS,VAFV164846,N,Y,39.1635744,-78.1214985
PAST SALE,November-12-2021,Townhouse,157 Little River Dr,Winchester,VA,22602,175000,2,1.0,BROOKLAND HEIGHTS,900,,1989,23,194,50,Sold,,,https://www.redfin.com/VA/Winchester/157-Little-River-Dr-22602/home/22017023,BRIGHT MLS,VAFV2001636,N,Y,39.180135,-78.12721
PAST SALE,May-7-2020,Single Family Residential,217 Canyon Rd,Winchester,VA,22602,316000,3,3.0,SENSENY GLEN,2193,,1997,577,144,6,Sold,,,https://www.redfin.com/VA/Winchester/217-Canyon-Rd-22602/home/28646391,BRIGHT MLS,VAFV155790,N,Y,39.163008,-78.093387
PAST SALE,July-16-2021,Single Family Residential,1061 Greenwood Rd,Winchester,VA,22602,250000,3,1.5,GREENWOOD HEIGHTS,1336,,1956,142,187,,Sold,,,https://www.redfin.com/VA/Winchester/1061-Greenwood-Rd-22602/home/75058141,BRIGHT MLS,VAFV163864,N,Y,39.1624832,-78.1214094
PAST SALE,August-30-2019,Single Family Residential,214 Heath Ct,Winchester,VA,22602,395000,4,2.5,TWIN LAKES OVERLOOK,4732,11326,2006,828,83,74,Sold,,,https://www.redfin.com/VA/Winchester/214-Heath-Ct-22602/home/22024548,BRIGHT MLS,VAFV149838,N,Y,39.1676299,-78.0934052
PAST SALE,August-18-2021,Single Family Residential,107 Teaberry Dr,Winchester,VA,22602,500000,4,3.5,BRIARWOOD ESTATES,3128,11761,2003,109,160,13,Sold,,,https://www.redfin.com/VA/Winchester/107-Teaberry-Dr-22602/home/18288340,BRIGHT MLS,VAFV2000452,N,Y,39.1716771,-78.1126324
PAST SALE,July-31-2020,Single Family Residential,100 Tilford Dr,Winchester,VA,22602,415000,5,4.5,SOVEREIGN VILLAGE,3756,18295,2004,492,110,22,Sold,,,https://www.redfin.com/VA/Winchester/100-Tilford-Dr-22602/home/102251089,BRIGHT MLS,VAFV157596,N,Y,39.1642027,-78.1024235
MLS Listing,,Single Family Residential,440 Covey Ln,Winchester,VA,22602,659000,3,2.5,QUAIL HILL,,87120,2022,1,,,Active,,,https://www.redfin.com/VA/Winchester/440-Covey-Ln-22602/home/167765097,BRIGHT MLS,VAFV2003002,N,Y,39.115319,-78.133885
MLS Listing,,Single Family Residential,457 Canyon Rd,Winchester,VA,22602,485000,4,3.5,SOVEREIGN VILLAGE,2550,12197,2007,2,190,22,Active,,,https://www.redfin.com/VA/Winchester/457-Canyon-Rd-22602/home/22016345,BRIGHT MLS,VAFV2003028,N,Y,39.1700481,-78.1003345
MLS Listing,,Vacant Land,368 Miller Rd,Winchester,VA,22602,1199000,,,TAVISTOCK ESTATES,,2439360,,2,,,Active,,,https://www.redfin.com/VA/Winchester/368-Miller-Rd-22602/home/45495727,BRIGHT MLS,VAFV2002788,N,Y,39.164266,-78.2495749
MLS Listing,,Single Family Residential,440 Canyon Rd,Winchester,VA,22602,465000,5,3.0,SOVEREIGN VILLAGE,2462,12632,2010,3,189,22,Active,,,https://www.redfin.com/VA/Winchester/440-Canyon-Rd-22602/home/28634743,BRIGHT MLS,VAFV2002928,N,Y,39.1703778,-78.0977054
MLS Listing,,Single Family Residential,114 Meadowview Ct,Winchester,VA,22602,399000,4,2.5,GREENWOOD HEIGHTS,1900,12698,1989,3,210,6,Active,,,https://www.redfin.com/VA/Winchester/114-Meadowview-Ct-22602/home/75058382,BRIGHT MLS,VAFV2002920,N,Y,39.1643193,-78.1248398
MLS Listing,,Single Family Residential,114 Inca Trl,Winchester,VA,22602,249900,2,2.0,SHAWNEELAND,1566,100188,1976,3,160,,Active,,,https://www.redfin.com/VA/Winchester/114-Inca-Trl-22602/home/26847906,BRIGHT MLS,VAFV2002916,N,Y,39.211266,-78.334255
MLS Listing,,Vacant Land,0000 Dogwood Rd,Winchester,VA,22602,100000,,,Winchester,,14505,,3,,,Active,,,https://www.redfin.com/VA/Winchester/Dogwood-Rd-22602/home/143756291,BRIGHT MLS,VAFV2002982,N,Y,39.18566381,-78.11736615
MLS Listing,,Single Family Residential,100 Heath Ct,Winchester,VA,22602,519500,3,2.5,TWIN LAKES OVERLOOK,2925,12632,2006,4,178,75,Active,,,https://www.redfin.com/VA/Winchester/100-Heath-Ct-22602/home/105805374,BRIGHT MLS,VAFV2002458,N,Y,39.1703086,-78.0929596
MLS Listing,,Single Family Residential,623 Cardinal Dr,Winchester,VA,22602,245000,2,2.0,MOUNTAIN FALLS PARK,1480,261360,1965,4,166,50,Active,,,https://www.redfin.com/VA/Winchester/623-Cardinal-Dr-22602/home/75056749,BRIGHT MLS,VAFV2002956,N,Y,39.1601825,-78.3896745
MLS Listing,,Single Family Residential,602 Remington,Winchester,VA,22602,342000,3,2.5,WILDE ACRES,1500,22651,2022,6,228,33,Active,,,https://www.redfin.com/VA/Winchester/602-Remington-Dr-22602/home/162531140,BRIGHT MLS,VAFV2002174,N,Y,39.150317,-78.399883
MLS Listing,,Single Family Residential,104 Tonto Trl,Winchester,VA,22602,220000,3,1.0,SHAWNEELAND,1407,37462,1968,7,156,,Active,,,https://www.redfin.com/VA/Winchester/104-Tonto-Trl-22602/home/40432035,BRIGHT MLS,VAFV2002734,N,Y,39.186118,-78.352368
MLS Listing,,Single Family Residential,103 Nutmeg Ln,Winchester,VA,22602,342000,2,2.0,CROSS CREEK VILLAGE,1683,435,2003,7,203,185,Active,,,https://www.redfin.com/VA/Winchester/103-Nutmeg-Ln-22602/home/102250054,BRIGHT MLS,VAFV2002884,N,Y,39.136596,-78.196403
MLS Listing,,Vacant Land,0 Comanche Trl,Winchester,VA,22602,20000,,,Winchester,,22497,,8,,,Active,,,https://www.redfin.com/VA/Back-Creek/Comanche-Trl-22602/home/22016783,BRIGHT MLS,VAFV2002832,N,Y,39.19296038,-78.34156992
MLS Listing,,Single Family Residential,219 Stanley Dr,Winchester,VA,22602,525000,5,4.5,RAVENWING,3834,15246,2003,12,137,,Active,,,https://www.redfin.com/VA/Winchester/219-Stanley-Dr-22602/home/40445969,BRIGHT MLS,VAFV2002550,N,Y,39.1600551,-78.1422128
MLS Listing,,Vacant Land,Inca Trl,Winchester,VA,22602,7995,,,SHAWNEELAND,,22009,,12,,,Active,,,https://www.redfin.com/VA/Back-Creek/Inca-Trl-22602/home/144233589,BRIGHT MLS,VAFV2002850,N,Y,39.20532149,-78.33982442
MLS Listing,,Vacant Land,0 Falcon Dr,Winchester,VA,22602,25000,,,WILDE ACRES,,22651,,18,,25,Active,,,https://www.redfin.com/VA/Back-Creek/Falcon-Dr-22602/home/160312723,BRIGHT MLS,VAFV2002288,N,Y,39.14026118,-78.39056533
MLS Listing,,Vacant Land,0 Cardinal Dr,Winchester,VA,22602,7500,,,WILDE ACRES,,11254,,18,,11,Active,,,https://www.redfin.com/VA/Winchester/0-Cardinal-Dr-22601/home/147105327,BRIGHT MLS,VAFV2002554,N,Y,39.15838779,-78.38993657
MLS Listing,,Vacant Land,0 Wardensville Grade,Winchester,VA,22602,105000,,,Winchester,,359806,,19,,,Active,,,https://www.redfin.com/VA/Winchester/1800-Wardensville-Grade-22602/home/169762603,BRIGHT MLS,VAFV2002736,N,Y,39.1726044,-78.2963925
MLS Listing,,Vacant Land,Cochise Trl Lot 63,Winchester,VA,22602,7500,,,SHAWNEELAND,,14810,,20,,,Active,,,https://www.redfin.com/VA/Winchester/63-Cochise-Trl-22602/unit-63/home/177203635,BRIGHT MLS,VAFV2002740,N,Y,39.2085593,-78.3257522
MLS Listing,,Single Family Residential,213 Glenridge Dr,Winchester,VA,22602,315000,3,2.0,GLENMONT VILLAGE,912,,1986,26,345,13,Active,,,https://www.redfin.com/VA/Winchester/213-Glenridge-Dr-22602/home/17383775,BRIGHT MLS,VAFV2002644,N,Y,39.1604606,-78.0959412
MLS Listing,,Single Family Residential,300 Elk Trl,Winchester,VA,22602,260000,3,2.0,MOUNTAIN FALLS,1232,11325,2021,26,211,47,Active,,,https://www.redfin.com/VA/Winchester/300-Elk-Trl-22602/home/162544299,BRIGHT MLS,VAFV2002640,N,Y,39.147288,-78.409917
MLS Listing,,Vacant Land,0 Elk Way,Winchester,VA,22602,135000,,,GREAT NORTH MOUNTAIN WILDERNESS,,3049200,,26,,,Active,,,https://www.redfin.com/VA/Winchester/Elk-Way-22602/home/143747292,BRIGHT MLS,VAFV2002658,N,Y,39.20985762,-78.34897609
MLS Listing,,Single Family Residential,1041 Greenwood Rd,Winchester,VA,22602,285000,3,1.0,GREENWOOD HEIGHTS,1512,23522,1962,27,188,,Active,,,https://www.redfin.com/VA/Winchester/1041-Greenwood-Rd-22602/home/75057758,BRIGHT MLS,VAFV2002306,N,Y,39.1630088,-78.1214539
MLS Listing,,Single Family Residential,Abrams Pointe Blvd- Hemingway,Winchester,VA,22602,536990,4,2.5,ABRAMS POINTE,2523,12632,2022,34,213,17,Active,,,https://www.redfin.com/VA/Winchester/101-Abrams-Pointe-Blvd-22602/home/162530706,BRIGHT MLS,VAFV2002544,N,Y,39.173269,-78.1210883
MLS Listing,,Single Family Residential,125 Skyjes Ln,Winchester,VA,22602,750000,4,3.5,SHADY ELM FARMS,3800,89733,2021,37,197,,Active,,,https://www.redfin.com/VA/Winchester/125-Skyjes-Ln-22602/home/162533235,BRIGHT MLS,VAFV2002516,N,Y,39.115459,-78.214941
MLS Listing,,Vacant Land,905 Archwood Trl,Winchester,VA,22602,59900,,,SHAWNEELAND,,40075,,38,,,Active,,,https://www.redfin.com/VA/Winchester/905-Archwood-Trl-22602/home/162528938,BRIGHT MLS,VAFV2002420,N,Y,39.185433,-78.37613
MLS Listing,,Single Family Residential,Rotz Ct,Winchester,VA,22602,1120655,4,4.5,Winchester,5266,87120,,40,213,,Active,,,https://www.redfin.com/VA/Unknown/Unknown-Unknown/home/172600710,BRIGHT MLS,VAFV2002408,N,Y,39.15553687,-78.21865228
MLS Listing,,Single Family Residential,121 Garber Ln,Winchester,VA,22602,250000,3,1.5,Winchester,1409,16117,1935,43,177,,Active,,,https://www.redfin.com/VA/Winchester/121-Garber-Ln-22602/home/21656745,BRIGHT MLS,VAFV2002418,N,Y,39.156379,-78.1610526
MLS Listing,,Single Family Residential,116 Wilkins Dr,Winchester,VA,22602,375000,4,2.5,GREEN ACRES,2288,10018,1978,44,164,,Active,,,https://www.redfin.com/VA/Winchester/116-Wilkins-Dr-22602/home/75054853,BRIGHT MLS,VAFV2002412,N,Y,39.178965,-78.1421682
MLS Listing,,Single Family Residential,Robinson Dr,Winchester,VA,22602,1295000,6,5.5,ROSCOMMON,5278,219542,2001,45,245,,Active,,,https://www.redfin.com/VA/Winchester/Robinson-Dr-22602/home/143770819,BRIGHT MLS,VAFV2000055,N,Y,39.16917,-78.22359
MLS Listing,,Single Family Residential,114 Meadow Way,Winchester,VA,22602,349900,3,2.5,HIGHVIEW MANOR,1711,15000,2021,45,205,,Active,,,https://www.redfin.com/VA/Winchester/114-Meadow-Way-22602/home/176841193,BRIGHT MLS,VAFV2002390,N,Y,39.1621093,-78.3235411
MLS Listing,,Single Family Residential,Quail Dr,Winchester,VA,22602,289999,3,2.0,WILDE  ACRES,1217,11323,,45,238,46,Active,,,https://www.redfin.com/VA/Winchester/Quail-Dr-22645/home/159691591,BRIGHT MLS,VAFV2002104,N,Y,39.15557,-78.39628
MLS Listing,,Single Family Residential,114 Etnam St,Winchester,VA,22602,349900,3,2.5,PEMBRIDGE HEIGHTS,1748,,1993,46,200,5,Active,,,https://www.redfin.com/VA/Winchester/114-Etnam-St-22602/home/40038850,BRIGHT MLS,VAFV2002302,N,Y,39.1600137,-78.1464888
MLS Listing,,Vacant Land,Lot 9 Rotz Ct,Winchester,VA,22602,219000,,,Winchester,,87120,,46,,,Active,,,https://www.redfin.com/VA/Unknown/Lot-9-Rotz-Ct-22602/home/176800233,BRIGHT MLS,VAFV2002374,N,Y,39.15554425,-78.21866439
MLS Listing,,Vacant Land,233 Eddys,Winchester,VA,22602,2499995,,,Winchester,,546242,,48,,,Active,,,https://www.redfin.com/VA/Winchester/233-Eddys-Ln-22602/home/22175509,BRIGHT MLS,VAFV2002320,N,Y,39.176498,-78.082976
MLS Listing,,Townhouse,112 Brockham Lot 26,Winchester,VA,22602,337900,2,2.5,SOVEREIGN VILLAGE,555,3485,2021,55,609,22,Active,,,https://www.redfin.com/VA/Winchester/112-Brockham-Ct-22602/unit-26/home/176994514,BRIGHT MLS,VAFV2000111,N,Y,39.1667449,-78.1051154
MLS Listing,,Vacant Land,128 Rappahannock Trl,Winchester,VA,22602,12500,,,SHAWNEELAND,,13939,,57,,,Active,,,https://www.redfin.com/VA/Winchester/128-Rappahannock-Trl-22602/home/57220630,BRIGHT MLS,VAFV2000085,N,Y,39.1853229,-78.339084
MLS Listing,,Single Family Residential,135 Doonbeg Ct,Winchester,VA,22602,439900,3,2.5,COTTAGE GLEN,,,2021,59,,100,Active,,,https://www.redfin.com/VA/Winchester/135-Doonbeg-CT-22601/home/176674464,BRIGHT MLS,VAFV2000071,N,Y,39.13526061,-78.19468491
MLS Listing,,Vacant Land,Fishel Rd,Winchester,VA,22602,85000,,,Winchester,,89298,,60,,,Active,,,https://www.redfin.com/VA/Back-Creek/Fishel-Rd-22602/home/17529452,BRIGHT MLS,VAFV2000041,N,Y,39.15615758,-78.34033262
MLS Listing,,Vacant Land,Cedar Creek Grade,Winchester,VA,22602,125000,,,Winchester,,261360,,61,,,Active,,,https://www.redfin.com/VA/Winchester/Cedar-Creek-Grade-Unknown/home/147528204,BRIGHT MLS,VAFV2002114,N,Y,39.09663663,-78.3224519
MLS Listing,,Single Family Residential,R-240 Rockwood Trl,Winchester,VA,22602,325875,3,2.0,SHAWNEE LAND,1369,,2022,67,238,,Active,,,https://www.redfin.com/VA/Winchester/240-Rockwood-Trl-22602/home/176563141,BRIGHT MLS,VAFV2002158,N,Y,39.2025065,-78.3603884
MLS Listing,,Single Family Residential,2754 & 2744 Millwood Pike,Winchester,VA,22602,496000,3,3.0,Winchester,2553,127195,1953,68,194,,Active,,,https://www.redfin.com/VA/Winchester/2744-Millwood-Pike-22602/home/176554895,BRIGHT MLS,VAFV2002012,N,Y,39.1226248,-78.1197456
MLS Listing,,Vacant Land,Back Mountain Rd Lot 7,Winchester,VA,22602,92000,,,BACK MOUNTAIN RIDGE ESTATES,,341510,,79,,,Active,,,https://www.redfin.com/VA/Winchester/Back-Mountain-Rd-22602/unit-7/home/176447242,BRIGHT MLS,VAFV2001820,N,Y,39.153551,-78.37416518
MLS Listing,,Vacant Land,Lot 238 Inca Trl,Winchester,VA,22601,9250,,,SHAWNEELAND,,19099,,80,,,Active,,,https://www.redfin.com/VA/Winchester/238-Inca-Trl-22602/home/173719038,BRIGHT MLS,VAFV2001900,N,Y,39.2030708,-78.3425677
MLS Listing,,Vacant Land,Lot 237 Inca Trl,Winchester,VA,22601,9250,,,SHAWNEELAND,,19648,,80,,,Active,,,https://www.redfin.com/VA/Winchester/237-Inca-Trl-22602/home/173719351,BRIGHT MLS,VAFV2001898,N,Y,39.2030262,-78.3413154
MLS Listing,,Single Family Residential,2677 Senseny Rd,Winchester,VA,22602,499000,6,2.0,Winchester,3024,87120,1967,81,165,,Active,,,https://www.redfin.com/VA/Winchester/2677-Senseny-Rd-22602/home/75057841,BRIGHT MLS,VAFV2001814,N,Y,39.1618432,-78.0938286
MLS Listing,,Vacant Land,Rockwood Trl,Winchester,VA,22602,17850,,,SHAWNEELAND,,,,81,,16,Active,,,https://www.redfin.com/VA/Back-Creek/Rockwood-Trl-22602/home/147271899,BRIGHT MLS,VAFV2001866,N,Y,39.19707,-78.36368
MLS Listing,,Single Family Residential,5522 Cedar Creek GRADE,Winchester,VA,22602,2999999,3,3.5,Winchester,4180,10496217,2003,87,718,,Active,,,https://www.redfin.com/VA/Winchester/5522-Cedar-Creek-Grade-22602/home/75061124,BRIGHT MLS,VAFV2001742,N,Y,39.0942728,-78.3225864
MLS Listing,,Single Family Residential,229 Garber Ln,Winchester,VA,22602,399900,3,1.0,Winchester,2529,71874,,93,158,,Active,,,https://www.redfin.com/VA/Winchester/229-Garber-Ln-22602/home/75057459,BRIGHT MLS,VAFV2001648,N,Y,39.1591816,-78.1598502
MLS Listing,,Single Family Residential,120 Cardinal Ln,Winchester,VA,22602,344900,3,1.5,SHENANDOAH HILLS,1958,,1963,103,176,,Active,,,https://www.redfin.com/VA/Winchester/120-Cardinal-Ln-22602/home/22019307,BRIGHT MLS,VAFV2001426,N,Y,39.1864564,-78.116865
MLS Listing,,Vacant Land,Fox Trl,Winchester,VA,22602,25000,,,WILDE  ACRES,,67082,,109,,50,Active,,,https://www.redfin.com/VA/Winchester/Fox-Trl-22602/home/144283230,BRIGHT MLS,VAFV2001344,N,Y,39.14355197,-78.41664199
MLS Listing,,Single Family Residential,Stagg Trl,Winchester,VA,22602,309000,3,2.0,MOUNTAIN FALLS PARK,,130680,2021,111,,46,Active,,,https://www.redfin.com/VA/WINCHESTER/STAGG-Trl-22603/home/147362395,BRIGHT MLS,VAFV2000886,N,Y,39.14833,-78.41181
MLS Listing,,Single Family Residential,TBD Ratification Ct Unit HOMESITE 66,Winchester,VA,22602,520990,4,2.5,FREEDOM MANOR,2974,8200,2021,118,175,50,Active,,,https://www.redfin.com/VA/Winchester/TBD-Ratification-CT-22601/unit-HOMESITE-66/home/176056330,BRIGHT MLS,VAFV2001152,N,Y,39.13058723,-78.16657704
MLS Listing,,Vacant Land,Lot 1 Tavistock,Winchester,VA,22602,400000,,,TAVISTOCK ESTATES,,500504,,121,,,Active,,,https://www.redfin.com/VA/Unknown/Lot-1-Tavistock-Dr-22602/home/176027341,BRIGHT MLS,VAFV2001116,N,Y,39.17311,-78.24792
MLS Listing,,Vacant Land,Lot 16 Tavistock,Winchester,VA,22602,305900,,,TAVISTOCK ESTATES,,334976,,121,,,Active,,,https://www.redfin.com/VA/Unknown/Lot-16-Tavistock-Dr-22602/home/176027111,BRIGHT MLS,VAFV2001114,N,Y,39.17311,-78.24792
MLS Listing,,Vacant Land,Lot 13 Tavistock,Winchester,VA,22602,629000,,,TAVISTOCK ESTATES,,783209,,121,,,Active,,,https://www.redfin.com/VA/Unknown/Lot-13-Tavistock-Dr-22602/home/176027102,BRIGHT MLS,VAFV2001112,N,Y,39.16690094,-78.24626433
MLS Listing,,Vacant Land,Lot 13a Fox Trl,Winchester,VA,22602,12900,,,WILDE ACRES,,23522,,121,,25,Active,,,https://www.redfin.com/VA/Winchester/13-Fox-Trl-22602/home/147426621,BRIGHT MLS,VAFV2001102,N,Y,39.1426348,-78.4176048
MLS Listing,,Vacant Land,106 Mate Ct,Winchester,VA,22602,105000,,,RED FOX RUN II,,11761,,122,,10,Active,,,https://www.redfin.com/VA/Winchester/106-Mate-Ct-22602/home/95964317,BRIGHT MLS,VAFV2001090,N,Y,39.1349792,-78.1513232
MLS Listing,,Vacant Land,Meadow Way,Winchester,VA,22602,39000,,,HIGHVIEW MANOR,,15000,,123,,,Active,,,https://www.redfin.com/VA/Unknown/Unknown-Unknown/home/162568854,BRIGHT MLS,VAFV2000994,N,Y,39.161388,-78.32377
MLS Listing,,Vacant Land,5a Fox Trail - Mountain Falls Park,Winchester,VA,22602,13900,,,WILDE ACRES,,43560,,140,,8,Active,,,https://www.redfin.com/VA/Winchester/5-Fox-Trl-22602/home/175737031,BRIGHT MLS,VAFV2000712,N,Y,39.1426348,-78.4176048
MLS Listing,,Vacant Land,Stagg Trl,Winchester,VA,22601,52500,,,MOUNTAIN FALLS PARK,,130680,,142,,,Active,,,https://www.redfin.com/VA/Winchester/Mountain-Falls-PARK-22601/home/175721940,BRIGHT MLS,VAFV2000666,N,Y,39.14833,-78.41181
MLS Listing,,Single Family Residential,116 Harold Ct,Winchester,VA,22602,639999,4,3.0,ABRAMS POINTE,3469,12712,2021,144,184,200,Active,December-5-2021 11:00 AM,December-5-2021 04:00 PM,https://www.redfin.com/VA/Winchester/116-Harold-Ct-22602/home/162543772,BRIGHT MLS,VAFV2000570,N,Y,39.174894,-78.119605
MLS Listing,,Vacant Land,0 Timber Ridge Trl,Winchester,VA,22603,16500,,,SHAWNEELAND,,20037,,152,,,Active,,,https://www.redfin.com/VA/Winchester/0-Timber-Ridge-TRL-22603/home/172321493,BRIGHT MLS,VAFV2000438,N,Y,39.19632,-78.36906
MLS Listing,,Vacant Land,415 Dusty Ln,Winchester,VA,22602,999900,,,Winchester,,5023339,,165,,,Active,,,https://www.redfin.com/VA/Winchester/415-Dusty-Ln-22602/home/16879967,BRIGHT MLS,VAFV2000198,N,Y,39.145429,-78.361394
MLS Listing,,Vacant Land,50-A-26C Back Creek District,Winchester,VA,22602,148000,,,Winchester,,1063735,,167,,,Active,,,https://www.redfin.com/VA/Winchester/50-A-26C-Back-Creek-District-22601/home/176283812,BRIGHT MLS,VAFV2000148,N,Y,39.17505864,-78.30971705
MLS Listing,,Vacant Land,Dogwood And Tomahawk Trl,Winchester,VA,22602,59000,,,Winchester,,,,172,,,Active,,,https://www.redfin.com/VA/Back-Creek/Tomahawk-Trl-22602/home/22049494,BRIGHT MLS,VAFV2000080,N,Y,39.19060161,-78.33236859
MLS Listing,,Vacant Land,Lot 14 Gazelle Trl,Winchester,VA,22602,22000,,,WILDE ACRES,,24866,,174,,5,Active,,,https://www.redfin.com/VA/Winchester/14-Gazelle-Trl-22602/home/175413064,BRIGHT MLS,VAFV164830,N,Y,39.1494581,-78.4026132
MLS Listing,,Single Family Residential,Lenore Ln,Winchester,VA,22602,459867,4,2.0,RAVEN OAKS,1799,6401,2021,177,256,100,Active,December-5-2021 11:00 AM,December-5-2021 04:00 PM,https://www.redfin.com/VA/Unknown/Lenore-Ln-22602/home/177178423,BRIGHT MLS,VAFV164804,N,Y,39.15753837,-78.13548134
MLS Listing,,Single Family Residential,131 Lenore Ln,Winchester,VA,22602,539386,4,2.5,RAVEN OAKS,,5227,,177,,100,Active,December-5-2021 11:00 AM,December-5-2021 04:00 PM,https://www.redfin.com/VA/Unknown/131-LENORE-LN-Unknown/home/175403297,BRIGHT MLS,VAFV164794,N,Y,39.158912,-78.133411
MLS Listing,,Vacant Land,lot 3 Cody Dr,Winchester,VA,22602,109900,,,Winchester,,327571,,184,,,Active,,,https://www.redfin.com/VA/Winchester/3-Cody-Dr-22602/home/173718942,BRIGHT MLS,VAFV164662,N,Y,39.1901243,-78.2644934
MLS Listing,,Single Family Residential,G-105 Graywolf Trl,Winchester,VA,22602,319900,3,2.0,SHAWNEELAND,1500,12632,2021,188,213,,Active,,,https://www.redfin.com/VA/Winchester/105-Graywolf-Trl-22602/home/40391836,BRIGHT MLS,VAFV164542,N,Y,39.2100762,-78.3300912
MLS Listing,,Vacant Land,NA Perry Rd/cedar Creek Grade,Winchester,VA,22602,135000,,,Winchester,,87120,,193,,,Active,,,https://www.redfin.com/VA/Unknown/NA-22602/home/175566797,BRIGHT MLS,VAFV164420,N,Y,39.15525499,-78.27858819
MLS Listing,,Single Family Residential,116 Carter,Winchester,VA,22602,389900,3,2.5,ROLLING FIELDS,1660,21344,2021,199,235,,Active,,,https://www.redfin.com/VA/Winchester/116-Carter-Pl-22602/home/173494960,BRIGHT MLS,VAFV164262,N,Y,39.1723005,-78.1384616
MLS Listing,,Vacant Land,Lot 4 Saddleback Ln Lot 4,Winchester,VA,22602,155000,,,SHERIDANS MISS,,339768,,204,,33,Active,,,https://www.redfin.com/VA/Winchester/4-Saddleback-Ln-22602/unit-4/home/175140700,BRIGHT MLS,VAFV164140,N,Y,39.114145,-78.2902045
MLS Listing,,Single Family Residential,Lot 95 Four Wheel Dr,Winchester,VA,22602,599900,4,3.0,FURNACE RUN,2211,263974,2021,205,271,,Active,,,https://www.redfin.com/VA/Winchester/95-Four-Wheel-Dr-22602/home/175022943,BRIGHT MLS,VAFV164118,N,Y,39.1165936,-78.3758959
MLS Listing,,Single Family Residential,111 Huron Trl,Winchester,VA,22602,319900,3,2.0,SHAWNEELAND,1500,13068,2021,218,213,,Active,,,https://www.redfin.com/VA/Winchester/111-Huron-Trl-22602/home/162528646,BRIGHT MLS,VAFV163840,N,Y,39.194038,-78.349979
MLS Listing,,Vacant Land,101 Meadow Way,Winchester,VA,22602,325000,,,HIGHVIEW MANOR,,226512,,219,,,Active,,,https://www.redfin.com/VA/Winchester/101-Meadow-Way-22602/home/148582642,BRIGHT MLS,VAFV163822,N,Y,39.16257,-78.3230816
MLS Listing,,Single Family Residential,S-2 Skyjes Ln,Winchester,VA,22602,599900,5,3.0,SHADY ELM FARMS,2800,87120,2021,227,214,,Active,,,https://www.redfin.com/VA/Back-Creek/S-2-Skyjes-Ln-22602/home/174998033,BRIGHT MLS,VAFV163640,N,Y,39.11688916,-78.21453597
MLS Listing,,Single Family Residential,Cody Dr,Winchester,VA,22602,590870,4,2.5,Winchester,2200,327571,2020,231,269,,Active,,,https://www.redfin.com/VA/Back-Creek/Cody-Dr-22602/home/17895147,BRIGHT MLS,VAFV163560,N,Y,39.19106,-78.26475
MLS Listing,,Single Family Residential,Inverlee Way- Yorktown,Winchester,VA,22602,503990,4,2.5,RAVEN OAKS,2930,5800,2022,248,172,100,Active,December-5-2021 11:00 AM,December-5-2021 04:00 PM,https://www.redfin.com/VA/Winchester/Inverlee-Way-22602/home/176307730,BRIGHT MLS,VAFV162916,N,Y,39.15815703,-78.1354987
MLS Listing,,Single Family Residential,Inverlee Way- Alexandrite,Winchester,VA,22602,439990,3,2.0,RAVEN OAKS,1799,5800,2022,249,245,100,Active,December-5-2021 11:00 AM,December-5-2021 04:00 PM,https://www.redfin.com/VA/Winchester/105-Lenore-Ln-22602/home/176307711,BRIGHT MLS,VAFV162918,N,Y,39.1588942,-78.1334649
MLS Listing,,Vacant Land,LOT 109 Cub Trl,Winchester,VA,22603,40000,,,Winchester,,40075,,255,,,Active,,,https://www.redfin.com/VA/Winchester/LOT-109-Cub-TRL-22603/home/174780646,BRIGHT MLS,VAFV162854,N,Y,39.20521396,-78.35880825
MLS Listing,,Vacant Land,Lot 64 Gravenstein,Winchester,VA,22602,189900,,,STONYMEADE,,92347,,262,,,Active,,,https://www.redfin.com/VA/Winchester/64-Gravenstein-Ct-22602/home/143415849,BRIGHT MLS,VAFV162772,N,Y,39.1437166,-78.2484423
MLS Listing,,Vacant Land,Lot 62 Gravenstein Ct,Winchester,VA,22602,189900,,,STONYMEADE,,92347,,262,,,Active,,,https://www.redfin.com/VA/Winchester/62-Gravenstein-Ct-22602/home/143415725,BRIGHT MLS,VAFV162770,N,Y,39.1437166,-78.2484423
MLS Listing,,Vacant Land,Lot 61 Gravenstein,Winchester,VA,22602,189900,,,STONYMEADE,,97574,,262,,,Active,,,https://www.redfin.com/VA/Back-Creek/Lot-61-Gravenstein-Ct-22602/home/174715492,BRIGHT MLS,VAFV162766,N,Y,39.14705289,-78.25145195
MLS Listing,,Vacant Land,Lot 60 Gravenstein Ct,Winchester,VA,22602,189900,,,STONYMEADE,,104108,,262,,,Active,,,https://www.redfin.com/VA/Winchester/60-Gravenstein-Ct-22602/home/143415405,BRIGHT MLS,VAFV162760,N,Y,39.1437166,-78.2484423
MLS Listing,,Vacant Land,Marathon Dr,Stephens City,VA,22655,421000,,,BATTLEFIELD PARTNERSHIP,,52272,,268,,,Active,,,https://www.redfin.com/VA/Stephens-City/Marathon-DR-22655/home/174926666,BRIGHT MLS,VAFV162648,N,Y,39.11395094,-78.199094
MLS Listing,,Single Family Residential,D-7 Dogwood,Winchester,VA,22602,319900,3,2.5,SHAWNEELAND,1660,17424,2021,280,193,,Active,,,https://www.redfin.com/VA/Unknown/D-7-Dogwood-Rd-22602/home/175588764,BRIGHT MLS,VAFV162368,N,Y,39.20586443,-78.34135915
MLS Listing,,Vacant Land,Apple Valley Rd. And Rt. 37 Rd,Winchester,VA,22602,2874000,,,APPLE VALLEY ROAD,,3092760,,284,,,Active,,,https://www.redfin.com/VA/Winchester/37-Apple-Valley-Rd-22602/home/146259099,BRIGHT MLS,VAFV2000006,N,Y,39.1338103,-78.1915173
MLS Listing,,Vacant Land,Crow Dr,Winchester,VA,22602,12500,,,WILDE ACRES,,22651,,289,,21,Active,,,https://www.redfin.com/VA/Winchester/Crow-Dr-22603/home/160486155,BRIGHT MLS,VAFV162262,N,Y,39.158214,-78.387562
MLS Listing,,Single Family Residential,118 Meade Dr,Winchester,VA,22602,389900,3,2.5,ROLLING FIELDS,1660,40510,2021,300,235,,Active,,,https://www.redfin.com/VA/Winchester/118-Meade-Dr-22602/home/174394265,BRIGHT MLS,VAFV162114,N,Y,39.1729977,-78.1386502
MLS Listing,,Single Family Residential,116 Meade Dr,Winchester,VA,22602,389900,3,3.0,ROLLING FIELDS,1850,32670,2021,300,211,,Active,,,https://www.redfin.com/VA/Winchester/116-Meade-Dr-22602/home/174394235,BRIGHT MLS,VAFV162112,N,Y,39.1727545,-78.1388894
MLS Listing,,Single Family Residential,114 Meade Dr,Winchester,VA,22602,389900,3,2.0,ROLLING FIELDS,1500,29620,2021,300,260,,Active,,,https://www.redfin.com/VA/Winchester/114-Meade-Dr-22602/home/174394215,BRIGHT MLS,VAFV162110,N,Y,39.1727767,-78.1394832
MLS Listing,,Single Family Residential,511 Rainbow Falls Trl,Winchester,VA,22602,319900,3,2.5,SHAWNEELAND,1660,16552,2021,310,193,,Active,,,https://www.redfin.com/VA/Winchester/511-Rainbow-Falls-Trl-22602/home/162552453,BRIGHT MLS,VAFV161972,N,Y,39.195898,-78.339414
MLS Listing,,Single Family Residential,146 Huron Trl,Winchester,VA,22602,319900,3,2.0,SHAWNEELAND,1300,24829,2021,311,246,,Active,,,https://www.redfin.com/VA/Winchester/146-Huron-Trl-22602/home/162566411,BRIGHT MLS,VAFV161952,N,Y,39.197002,-78.34695
MLS Listing,,Vacant Land,Buck Ct,Winchester,VA,22602,10500,,,WILDE ACRES,,11293,,337,,10,Active,,,https://www.redfin.com/VA/Winchester/Buck-Ct-22602/home/109319377,BRIGHT MLS,VAFV161526,N,Y,39.1454092,-78.39833047
MLS Listing,,Vacant Land,0 Mountain Falls Trl,Winchester,VA,22602,6500,,,SHAWNEELAND,,20037,,339,,,Active,,,https://www.redfin.com/VA/Winchester/0-Mountain-Falls-TRL-22603/home/171739102,BRIGHT MLS,VAFV161554,N,Y,39.19224633,-78.36631342
MLS Listing,,Vacant Land,0 Archwood Trl,Winchester,VA,22602,20000,,,SHAWNEELAND,,40075,,339,,,Active,,,https://www.redfin.com/VA/WINCHESTER/ARCHWOOD-TRL-22602/home/22173611,BRIGHT MLS,VAFV161512,N,Y,39.186641,-78.375647
MLS Listing,,Vacant Land,0 Bear Trl,Winchester,VA,22602,16500,,,SHAWNEELAND,,20037,,339,,,Active,,,https://www.redfin.com/VA/Winchester/0-Bear-TRL-22603/home/171557454,BRIGHT MLS,VAFV161516,N,Y,39.21009,-78.35011
MLS Listing,,Vacant Land,0 Cub Trl,Winchester,VA,22602,16500,,,SHAWNEELAND,,20037,,339,,,Active,,,https://www.redfin.com/VA/Winchester/0-Cub-TRL-22603/home/171552253,BRIGHT MLS,VAFV161502,N,Y,39.20548,-78.35773
MLS Listing,,Vacant Land,0 Cub Trl,Winchester,VA,22602,11500,,,SHAWNEELAND,,15681,,339,,,Active,,,https://www.redfin.com/VA/Winchester/Cub-Trl-22602/home/143788779,BRIGHT MLS,VAFV161500,N,Y,39.20548,-78.35773
MLS Listing,,Vacant Land,0 Firetower Trl,Winchester,VA,22602,11500,,,SHAWNEELAND,,20037,,339,,,Active,,,https://www.redfin.com/VA/WINCHESTER/361-FIRE-TOWER-TRL-22602/home/162565006,BRIGHT MLS,VAFV161498,N,Y,39.220348,-78.337268
MLS Listing,,Vacant Land,0 Timber Ridge Trl,Winchester,VA,22602,40000,,,SHAWNEELAND,,40075,,339,,,Active,,,https://www.redfin.com/VA/Winchester/300-Timber-Ridge-Trl-22602/home/75054206,BRIGHT MLS,VAFV161510,N,Y,39.2017248,-78.3616817
MLS Listing,,Vacant Land,Bluebird Dr,Winchester,VA,22601,12000,,,WILDE ACRES,,26136,,347,,33,Active,,,https://www.redfin.com/VA/WINCHESTER/BLUEBIRD-Dr-22602/home/147273109,BRIGHT MLS,VAFV161440,N,Y,39.15542416,-78.39817729
MLS Listing,,Single Family Residential,D-6 Dogwood Trl,Winchester,VA,22602,319900,3,3.0,SHAWNEELAND,1850,18295,2021,353,173,,Active,,,https://www.redfin.com/VA/Unknown/D-6-Dogwood-Trl-22602/home/175581211,BRIGHT MLS,VAFV161352,N,Y,39.20509666,-78.34223334
MLS Listing,,Vacant Land,White Pine Ln,Winchester,VA,22602,34900,,,Winchester,,108464,,395,,,Active,,,https://www.redfin.com/VA/WINCHESTER/WHITE-PINE-Ln-22603/home/147383150,BRIGHT MLS,VAFV160722,N,Y,39.19152,-78.28992
MLS Listing,,Single Family Residential,M-7 Meade Dr,Winchester,VA,22602,389900,3,3.0,ROLLING FIELDS,1850,29025,2021,395,211,,Active,,,https://www.redfin.com/VA/Winchester/7-Meade-Dr-22602/home/173494568,BRIGHT MLS,VAFV160718,N,Y,39.1713057,-78.1414379
MLS Listing,,Vacant Land,Frogale,Winchester,VA,22602,1700000,,,Winchester,,737035,,409,,,Active,,,https://www.redfin.com/VA/Winchester/119-Arbor-Ct-22602/home/173493866,BRIGHT MLS,VAFV160452,N,Y,39.144069,-78.129222
MLS Listing,,Vacant Land,Front Royal,Winchester,VA,22602,2687000,,,Winchester,,1062864,,425,,,Active,,,https://www.redfin.com/VA/Winchester/Front-Royal-Pike-22602/home/143770551,BRIGHT MLS,VAFV160164,N,Y,39.15427873,-78.15993727
MLS Listing,,Vacant Land,Ewell Dr,Winchester,VA,22602,350000,,,Winchester,,2634944,,430,,,Active,,,https://www.redfin.com/VA/Back-Creek/Ewell-Dr-22602/home/143314500,BRIGHT MLS,VAFV160050,N,Y,39.16730853,-78.27781527
MLS Listing,,Vacant Land,5067 Wardensville Grade,Winchester,VA,22602,105000,,,Winchester,,217800,,450,,,Active,,,https://www.redfin.com/VA/Winchester/5067-Wardensville-Grade-22602/home/173144083,BRIGHT MLS,VAFV159716,N,Y,39.1223992,-78.3858533
MLS Listing,,Vacant Land,Lot 9 Dogwood Trl,Winchester,VA,22602,11000,,,SHAWNEELAND,,,,495,,,Active,,,https://www.redfin.com/VA/Winchester/9-Dogwood-Trl-22602/home/40325965,BRIGHT MLS,VAFV158830,N,Y,39.205066,-78.3426691
MLS Listing,,Vacant Land,Lot 101 Dogwood Trl,Winchester,VA,22602,11000,,,SHAWNEELAND,,23958,,495,,,Active,,,https://www.redfin.com/VA/Winchester/101-Dogwood-Trl-22602/unit-101/home/40325970,BRIGHT MLS,VAFV158828,N,Y,39.205066,-78.3426691
MLS Listing,,Vacant Land,Lot 102 Dogwood Trl,Winchester,VA,22602,10000,,,SHAWNEELAND,,,,495,,,Active,,,https://www.redfin.com/VA/Winchester/102-Dogwood-Trl-22602/home/169489404,BRIGHT MLS,VAFV158826,N,Y,39.2048997,-78.3437647
MLS Listing,,Vacant Land,Lot 103 Tomahawk Trl,Winchester,VA,22602,12000,,,SHAWNEELAND,,29185,,495,,,Active,,,https://www.redfin.com/VA/Winchester/103-Tomahawk-Trl-22602/home/172609539,BRIGHT MLS,VAFV158824,N,Y,39.1914195,-78.3321371
MLS Listing,,Vacant Land,Lot 132 Tomahawk Trl,Winchester,VA,22602,11000,,,SHAWNEELAND,,20037,,495,,,Active,,,https://www.redfin.com/VA/Winchester/132-Tomahawk-Trl-22602/unit-132/home/40325969,BRIGHT MLS,VAFV158822,N,Y,39.1887832,-78.3398478
MLS Listing,,Vacant Land,Lot 133 Tomahawk Trl,Winchester,VA,22602,10000,,,SHAWNEELAND,,20037,,495,,,Active,,,https://www.redfin.com/VA/Winchester/133-Tomahawk-Trl-22602/unit-133/home/40325966,BRIGHT MLS,VAFV158820,N,Y,39.189164,-78.335448
MLS Listing,,Vacant Land,Lot 40 Huron Trl,Winchester,VA,22602,8500,,,SHAWNEELAND,,12632,,495,,,Active,,,https://www.redfin.com/VA/Winchester/40-Huron-Trl-22602/home/22175970,BRIGHT MLS,VAFV158814,N,Y,39.193007,-78.3502176
MLS Listing,,Vacant Land,Lot 15 Red Fox Trl,Winchester,VA,22602,12000,,,SHAWNEELAND,,20000,,495,,,Active,,,https://www.redfin.com/VA/Winchester/15-Red-Fox-Trl-22602/home/172608847,BRIGHT MLS,VAFV158808,N,Y,39.1913834,-78.3479462
MLS Listing,,Vacant Land,0 Mountain Falls Trl,Winchester,VA,22602,6200,,,SHAWNEELAND,,20037,,545,,,Active,,,https://www.redfin.com/VA/Winchester/Mountain-Falls-Trl-22602/home/143709804,BRIGHT MLS,VAFV157834,N,Y,39.19153392,-78.36657097
MLS Listing,,Vacant Land,Back Mountain Rd,Winchester,VA,22602,346600,,,BACK CREEK DISTRICT,,1798156,,555,,,Active,,,https://www.redfin.com/VA/WINCHESTER/BACK-MOUNTAIN-RD-22602/home/147132822,BRIGHT MLS,VAFV157708,N,Y,39.152497,-78.365308
MLS Listing,,Vacant Land,Lot 156 Bobcat Trl,Winchester,VA,22602,38000,,,SHAWNEELAND,,42689,,591,,,Active,,,https://www.redfin.com/VA/Winchester/156-Bobcat-Trl-22602/home/113963500,BRIGHT MLS,VAFV157008,N,Y,39.206437,-78.3554933
MLS Listing,,Vacant Land,606 and 608 Panther Dr,Winchester,VA,22602,8000,,,WILDE ACRES,,21780,,706,,18,Active,,,https://www.redfin.com/VA/Back-Creek/606-and-608-Panther-Dr-22602/home/174289949,BRIGHT MLS,VAFV154918,N,Y,39.16095,-78.21184
MLS Listing,,Vacant Land,139 Commonwealth Ct,Winchester,VA,22602,439000,,,Winchester,,43560,,755,,,Active,,,https://www.redfin.com/VA/Winchester/139-Commonwealth-Ct-22602/home/18828656,BRIGHT MLS,VAFV154226,N,Y,39.127196,-78.191633
MLS Listing,,Single Family Residential,690 Shady Elm Rd,Winchester,VA,22602,2500000,2,2.0,Winchester,1750,2665872,,838,1429,,Active,,,https://www.redfin.com/VA/Winchester/690-Shady-Elm-Rd-22602/home/75058842,BRIGHT MLS,VAFV152572,N,Y,39.123334,-78.213672
MLS Listing,,Vacant Land,Lot 4 Whistlewood Ln,Winchester,VA,22602,78900,,,ROYAL OAKS,,105415,,893,,,Active,,,https://www.redfin.com/VA/Winchester/Lot-4-Whistlewood-LN-22601/home/174915276,BRIGHT MLS,VAFV151530,N,Y,39.1381,-78.29695423
MLS Listing,,Vacant Land,Farmington Blvd,Winchester,VA,22602,1290000,,,SOVEREIGN VILLAGE,,522720,,992,,,Active,,,https://www.redfin.com/VA/WINCHESTER/FARMINGTON-Blvd-22601/home/148349320,BRIGHT MLS,VAFV145556,N,Y,39.16721955,-78.10625746
MLS Listing,,Vacant Land,0 Prosperity Dr,Winchester,VA,22602,1100000,,,Winchester,,103673,,1012,,,Active,,,https://www.redfin.com/VA/Back-Creek/Prosperity-Dr-22602/home/143788332,BRIGHT MLS,VAFV145002,N,Y,39.11864759,-78.19892999
MLS Listing,,Vacant Land,3248 Valley Pike,Winchester,VA,22602,650000,,,Winchester,,32670,,1088,,,Active,,,https://www.redfin.com/VA/Winchester/3248-Valley-Pike-22602/home/75057199,BRIGHT MLS,VAFV124886,N,Y,39.1373339,-78.1909534
MLS Listing,,Vacant Land,3 Dawson Dr,Winchester,VA,22602,1165800,,,DAWSON IND PARK,,350222,,1390,,,Active,,,https://www.redfin.com/VA/Winchester/3-Dawson-Dr-22602/home/144874495,BRIGHT MLS,1000152514,N,Y,39.1300119,-78.2018462
MLS Listing,,Vacant Land,0 Getty Ln,Winchester,VA,22602,239900,,,Winchester,,27878,,1494,,,Active,,,https://www.redfin.com/VA/Winchester/156-Cole-Ln-22602/home/160749620,BRIGHT MLS,1004010249,N,Y,39.184274,-78.1250402
MLS Listing,,Vacant Land,1237 Millwood Pike,Winchester,VA,22602,469000,,,ROSENBERGER,,124146,,1619,,,Active,,,https://www.redfin.com/VA/Winchester/1237-Millwood-Pike-22602/home/17904407,BRIGHT MLS,1000139435,N,Y,39.1580177,-78.146177
MLS Listing,,Vacant Land,1186 Millwood Pike,Winchester,VA,22602,875000,,,Winchester,,60113,,1655,,,Active,,,https://www.redfin.com/VA/Winchester/1186-Millwood-Pike-22602/home/114022039,BRIGHT MLS,1000139351,N,Y,39.1578943,-78.1484251
MLS Listing,,Vacant Land,368 Victory Rd,Winchester,VA,22602,6671000,,,Winchester,,830254,,1696,,,Active,,,https://www.redfin.com/VA/Winchester/368-Victory-Rd-22602/home/75057354,BRIGHT MLS,1000139155,N,Y,39.1415703,-78.1292947
MLS Listing,,Vacant Land,0 Windy Hill Ln,Winchester,VA,22602,1550000,,,Winchester,,273121,,1703,,,Active,,,https://www.redfin.com/VA/Winchester/Windy-Hill-Ln-22602/home/167066145,BRIGHT MLS,1000138955,N,Y,39.15497623,-78.16422558
New Construction Home,,Single Family Residential,Homesite 66 Ratification Ct,Winchester,VA,22602,520990,4,2.5,Freedom Manor Single Family Homes,2879,,2021,117,181,,Active,,,https://www.redfin.com/VA/Winchester/Homesite-66-Ratification-CT-22601/home/176073948,NewHomeSource.com,2065277,N,Y,39.150074,-78.268988
New Construction Plan,,Single Family Residential,Alexandrite,Winchester,VA,22602,439990,3,2.0,Raven Oaks,1790,,,,246,,Active,,,https://www.redfin.com/VA/Unknown/Raven-Oaks/Alexandrite/home/177169632,NewHomeSource.com,Plan-171871726,N,Y,39.158912,-78.133411
New Construction Plan,,Single Family Residential,Lapis,Winchester,VA,22602,445990,3,2.5,Raven Oaks,2180,,,,205,,Active,,,https://www.redfin.com/VA/Unknown/Raven-Oaks/Lapis/home/177169633,NewHomeSource.com,Plan-171871725,N,Y,39.158912,-78.133411
New Construction Plan,,Single Family Residential,Hopewell,Winchester,VA,22602,488990,3,2.5,Raven Oaks,2680,,,,182,,Active,,,https://www.redfin.com/VA/Unknown/Raven-Oaks/Hopewell/home/177169636,NewHomeSource.com,Plan-171871722,N,Y,39.158912,-78.133411
New Construction Plan,,Single Family Residential,Yorktown,Winchester,VA,22602,503990,4,2.5,Raven Oaks,2930,,,,172,,Active,,,https://www.redfin.com/VA/Unknown/Raven-Oaks/Yorktown/home/177169635,NewHomeSource.com,Plan-171871723,N,Y,39.158912,-78.133411
New Construction Plan,,Single Family Residential,Pearl,Winchester,VA,22602,448990,3,2.5,Raven Oaks,2390,,,,188,,Active,,,https://www.redfin.com/VA/Unknown/Raven-Oaks/Pearl/home/177169634,NewHomeSource.com,Plan-171871724,N,Y,39.158912,-78.133411
New Construction Plan,,Single Family Residential,Arlington,Winchester,VA,22602,476990,3,2.0,Raven Oaks,1950,,,,245,,Active,,,https://www.redfin.com/VA/Unknown/Raven-Oaks/Arlington/home/177169637,NewHomeSource.com,Plan-171871721,N,Y,39.158912,-78.133411
New Construction Plan,,Single Family Residential,Hemingway,Winchester,VA,22602,483990,4,2.5,Raven Oaks,2520,,,,192,,Active,,,https://www.redfin.com/VA/Unknown/Raven-Oaks/Hemingway/home/177169638,NewHomeSource.com,Plan-171871720,N,Y,39.158912,-78.133411
New Construction Plan,,Townhouse,Litchfield II,Winchester,VA,22602,294990,3,2.5,Freedom Manor Townhomes,1612,,,,183,,Active,,,https://www.redfin.com/VA/Winchester/Freedom-Manor-Townhomes/Litchfield-II/home/177064608,NewHomeSource.com,Plan-171776794,N,Y,39.1322425,-78.1637692
New Construction Plan,,Single Family Residential,Decker,Winchester,VA,22602,528990,2,2.0,Abrams Pointe,2000,,,,264,,Active,,,https://www.redfin.com/VA/Winchester/Abrams-Pointe/Decker/home/177063821,NewHomeSource.com,Plan-171879480,N,Y,39.173269,-78.1210883
PAST SALE,May-8-2019,Single Family Residential,701 Hickory Trl,Winchester,VA,22602,241900,3,2.5,SHAWNEELAND,1660,14500,2019,942,146,,Sold,,,https://www.redfin.com/VA/Winchester/701-Hickory-Trl-22602/home/162540745,BRIGHT MLS,1001644141,N,Y,39.2023739,-78.3342449
PAST SALE,May-30-2019,Single Family Residential,542 Cardinal,Winchester,VA,22602,215000,3,2.5,WILDE ACRES,1912,22651,2009,920,112,33,Sold,,,https://www.redfin.com/VA/Winchester/542-Cardinal-Dr-22602/home/75062377,BRIGHT MLS,VAFV149862,N,Y,39.1567086,-78.3915924
PAST SALE,September-29-2021,Single Family Residential,C-57 Cornstalk Trl,Winchester,VA,22602,280000,3,2.5,SHAWNEELAND,1660,13452,2021,67,169,,Sold,,,https://www.redfin.com/VA/Winchester/57-Cornstalk-Trl-22602/home/143430849,BRIGHT MLS,VAFV161868,N,Y,39.1861038,-78.3518951
PAST SALE,September-13-2019,Vacant Land,301 Smelter Ln,Winchester,VA,22602,64000,,,CEDAR CREEK VALLEY EST,,483951,,814,,,Sold,,,https://www.redfin.com/VA/Winchester/301-Smelter-Ln-22602/home/75058386,BRIGHT MLS,VAFV150272,N,Y,39.108972,-78.377273
PAST SALE,November-24-2021,Single Family Residential,293 Fox Run Ln,Winchester,VA,22602,203000,3,2.0,MOUNTAIN FALLS PARK,1040,130680,2001,11,195,28,Sold,,,https://www.redfin.com/VA/Winchester/293-Fox-Run-Ln-22602/home/105807213,BRIGHT MLS,VAFV2002350,N,Y,39.15646,-78.399186
PAST SALE,August-6-2020,Vacant Land,125 Assateague Trl,Winchester,VA,22601,6000,,,SHAWNEELAND,,12817,,486,,,Sold,,,https://www.redfin.com/VA/Winchester/125-Assateague-Trl-22602/home/171572505,BRIGHT MLS,VAFV157268,N,Y,39.1846115,-78.3392114
PAST SALE,May-10-2019,Single Family Residential,625 Round Hl,Winchester,VA,22602,110000,2,1.0,Winchester,902,26572,1941,940,122,,Sold,,,https://www.redfin.com/VA/Winchester/625-Round-Hill-Rd-22602/home/75054311,BRIGHT MLS,VAFV145312,N,Y,39.1905279,-78.2267763
PAST SALE,May-10-2019,Vacant Land,LOT 2 Magic Mountain Rd,Winchester,VA,22602,55000,,,THE WOODS AT MAGIC MOUNTAIN,,220414,,940,,33,Sold,,,https://www.redfin.com/VA/Winchester/LOT-2-Magic-Mountain-Rd-22602/home/148432103,BRIGHT MLS,VAFV121600,N,Y,39.20618696,-78.26283229
PAST SALE,March-12-2021,Vacant Land,0 Skyjes Ln,Winchester,VA,22602,79900,,,SHADY ELM FARMS,,130244,,268,,,Sold,,,https://www.redfin.com/VA/Winchester/3343-Valley-Pike-22602/home/176469431,BRIGHT MLS,VAFV161124,N,Y,39.1347072,-78.1907916
PAST SALE,August-31-2021,Vacant Land,Lot 28 Jalapa Trl,Winchester,VA,22602,3000,,,SHAWNEELAND,,14887,,96,,,Sold,,,https://www.redfin.com/VA/Winchester/28-Jalapa-Trl-22602/home/175531337,BRIGHT MLS,VAFV2000108,N,Y,39.1958224,-78.3514738
PAST SALE,March-29-2019,Single Family Residential,121 Bentpath,Winchester,VA,22602,551952,4,3.5,TWIN LAKES OVERLOOK,3810,11326,2019,982,145,75,Sold,,,https://www.redfin.com/VA/Winchester/121-Bentpath-Ct-22602/home/162554723,BRIGHT MLS,VAFV151276,N,Y,39.1681389,-78.096135
PAST SALE,December-1-2020,Single Family Residential,0-B Buffalo Trl,Winchester,VA,22602,236800,3,2.5,SHAWNEELAND,1660,21250,2020,369,143,,Sold,,,https://www.redfin.com/VA/Back-Creek/0-B-Buffalo-Trl-22602/home/148441775,BRIGHT MLS,VAFV155952,N,Y,39.18829,-78.34317
PAST SALE,April-27-2021,Vacant Land,"Lots 33, 34, 35 Meade Dr",Winchester,VA,22602,169900,,,ROLLING FIELDS,,98010,,222,,,Sold,,,https://www.redfin.com/VA/Winchester/Lots-33-34-35-Meade-DR-22602/home/173113351,BRIGHT MLS,VAFV159686,N,Y,39.17305114,-78.13825418
PAST SALE,January-2-2019,Single Family Residential,100 Wickham Ter,Winchester,VA,22602,355000,4,4.5,SOVEREIGN VILLAGE,2902,18731,2004,1068,122,22,Sold,,,https://www.redfin.com/VA/Winchester/100-Wickham-Ter-22602/home/40035625,BRIGHT MLS,VAFV100200,N,Y,39.1670474,-78.1030972
PAST SALE,November-15-2021,Single Family Residential,136 Doonbeg Ct,Winchester,VA,22602,438878,3,2.5,COTTAGE GLEN,2012,4498,2021,20,218,100,Sold,,,https://www.redfin.com/VA/WINCHESTER/136-DOONBEG-CT-22602/home/162556022,BRIGHT MLS,VAFV163592,N,Y,39.134969,-78.194651
PAST SALE,February-14-2020,Vacant Land,1514 Berryville Pike,Winchester,VA,22603,4000000,,,Winchester,,385942,,660,,,Sold,,,https://www.redfin.com/VA/Winchester/1514-Berryville-Pike-22603/home/45391688,BRIGHT MLS,1000160931,N,Y,39.184624,-78.130501
PAST SALE,October-10-2019,Townhouse,119 Brockham Ct Lot 10,Winchester,VA,22602,250000,2,2.5,SOVEREIGN VILLAGE,,3485,,787,,22,Sold,,,https://www.redfin.com/VA/Winchester/119-Brockham-Ct-22602/unit-10/home/147553565,BRIGHT MLS,1009911994,N,Y,39.1670288,-78.1052017
PAST SALE,February-28-2020,Single Family Residential,110 Atoka Dr,Winchester,VA,22602,360000,4,2.5,SARATOGA MEADOWS,2856,16117,1997,646,126,,Sold,,,https://www.redfin.com/VA/Winchester/110-Atoka-Dr-22602/home/40112922,BRIGHT MLS,VAFV152082,N,Y,39.1661064,-78.1239042
PAST SALE,October-26-2021,Single Family Residential,2882 Wardensville GRADE,Winchester,VA,22602,160000,3,2.0,Winchester,1400,145055,1987,40,114,,Sold,,,https://www.redfin.com/VA/Winchester/2882-Wardensville-Grade-22602/home/75057054,BRIGHT MLS,VAFV2000744,N,Y,39.1570991,-78.3283583
PAST SALE,,Single Family Residential,102 Apache Trl,Winchester,VA,22602,212000,3,2.5,,2323,48352,1967,,91,,,,,https://www.redfin.com/VA/Winchester/102-Apache-Trl-22602/home/75054283,,,N,Y,39.1897479,-78.339129
PAST SALE,March-5-2021,Condo/Co-op,123-4 Brookland Ct,Winchester,VA,22602,165000,2,2.0,PARKPLACE,1173,,2003,275,141,185,Sold,,,https://www.redfin.com/VA/Winchester/123-Brookland-Ct-22602/home/75055310,BRIGHT MLS,VAFV161926,N,Y,39.182271,-78.128998
PAST SALE,November-18-2021,Single Family Residential,748 Laurel Grove Rd,Winchester,VA,22602,749900,4,4.5,QUAKER HILL,4520,218236,2003,17,166,,Sold,,,https://www.redfin.com/VA/Winchester/748-Laurel-Grove-Rd-22602/home/59789543,BRIGHT MLS,VAFV2000292,N,Y,39.115365,-78.287368
PAST SALE,June-4-2019,Single Family Residential,0-C Cochise Trl,Winchester,VA,22602,231900,3,3.0,SHAWNEELAND,1850,15937,2019,915,125,,Sold,,,https://www.redfin.com/VA/Back-Creek/0-C-Cochise-Trl-22602/home/148441774,BRIGHT MLS,1002217922,N,Y,39.19829,-78.33823
PAST SALE,June-21-2019,Townhouse,251 Waterford Ln,Winchester,VA,22602,166000,3,1.5,BROOKLAND HEIGHTS,1200,,1990,898,138,42,Sold,,,https://www.redfin.com/VA/Winchester/251-Waterford-Ln-22602/home/21958144,BRIGHT MLS,VAFV145510,N,Y,39.1795555,-78.1276381
PAST SALE,July-21-2020,Vacant Land,Shagbark Ridge Rd,Winchester,VA,22602,240000,,,Winchester,,2526480,,502,,,Sold,,,https://www.redfin.com/VA/Back-Creek/Shagbark-Ridge-Ln-22602/home/174344072,BRIGHT MLS,VAFV162018,N,Y,39.146673,-78.357008
PAST SALE,December-20-2019,Single Family Residential,1279 Tecumseh Trl,Winchester,VA,22602,239083,3,2.0,SHAWNEELAND,1500,23958,2019,716,159,,Sold,,,https://www.redfin.com/VA/Winchester/1279-Tecumseh-Trl-22602/home/162528767,BRIGHT MLS,1000460158,N,Y,39.2121528,-78.335826
PAST SALE,,Vacant Land,229 Graywolf Trl,Winchester,VA,22602,8000,,,,,14380,,,,,,,,https://www.redfin.com/VA/Winchester/229-Graywolf-Trl-22602/home/162552440,,,N,Y,39.200984,-78.339775
PAST SALE,March-29-2019,Vacant Land,Parkins Ml,Winchester,VA,22602,640000,,,QUAIL HILL ESTATES,,4373424,,982,,,Sold,,,https://www.redfin.com/VA/Shawnee/E-Parkins-Mill-Rd-22602/home/53103659,BRIGHT MLS,1000201579,N,Y,39.10795228,-78.13402702
PAST SALE,April-30-2019,Vacant Land,Springdale Rd,Winchester,VA,22602,65000,,,Winchester,,334976,,950,,,Sold,,,https://www.redfin.com/VA/Winchester/Springdale-Rd-22602/home/18490816,BRIGHT MLS,1008662604,N,Y,39.10515,-78.23134
PAST SALE,February-24-2021,Single Family Residential,136 Falcon Trl,Winchester,VA,22602,269900,3,3.0,SHAWNEELAND,1850,13068,2019,284,146,,Sold,,,https://www.redfin.com/VA/Winchester/136-Falcon-Trl-22602/home/162540575,BRIGHT MLS,VAFV153528,N,Y,39.206993,-78.332673
PAST SALE,,Single Family Residential,228 Amberwood Ln,Winchester,VA,22602,400000,3,3.0,,2089,217800,1976,,191,,,,,https://www.redfin.com/VA/Winchester/228-Amberwood-Ln-22602/home/64234451,,,N,Y,39.122473,-78.123836
PAST SALE,,Vacant Land,101 Equity Way,Winchester,VA,22602,87000,,,,,10890,,,,,,,,https://www.redfin.com/VA/Winchester/101-Equity-Way-22602/home/175403360,,,N,Y,39.1308939,-78.1625616
PAST SALE,,Single Family Residential,1570 Gough Rd,Winchester,VA,22602,200000,4,,,2274,233482,1906,,88,,,,,https://www.redfin.com/VA/Winchester/1570-Gough-Rd-22602/home/75056631,,,N,Y,39.130696,-78.303859
PAST SALE,January-28-2020,Vacant Land,290 Eddys Ln,Winchester,VA,22603,147000,,,Winchester,,154638,,677,,,Sold,,,https://www.redfin.com/VA/Winchester/290-Eddys-Ln-22602/home/105802075,BRIGHT MLS,VAFV145566,N,Y,39.1755561,-78.0861151
PAST SALE,February-7-2020,Single Family Residential,114 Killaney Ct,Winchester,VA,22602,399000,4,3.5,RAVEN POINTE,3472,16117,2005,667,115,8,Sold,,,https://www.redfin.com/VA/Winchester/114-Killaney-Ct-22602/home/18984766,BRIGHT MLS,VAFV154052,N,Y,39.1588173,-78.1381116
PAST SALE,May-13-2019,Single Family Residential,235 Aspen Trl,Winchester,VA,22602,255000,4,3.0,EMERALD LAKE,2640,103673,1998,937,97,,Sold,,,https://www.redfin.com/VA/Winchester/235-Aspen-Trl-22602/home/17877020,BRIGHT MLS,VAFV145512,N,Y,39.195967,-78.334676
PAST SALE,March-5-2019,Single Family Residential,121 Alpine Meadow Rd,Winchester,VA,22602,307000,4,2.5,APPLE RIDGE,1950,,1990,1006,157,4,Sold,,,https://www.redfin.com/VA/Winchester/121-Alpine-Meadow-Rd-22602/home/21681897,BRIGHT MLS,1010008120,N,Y,39.165798,-78.0968142
PAST SALE,February-8-2021,Single Family Residential,115 Meadow Way,Winchester,VA,22602,274900,3,2.5,HIGHVIEW MANOR,1591,15000,2020,300,173,,Sold,,,https://www.redfin.com/VA/Winchester/115-Meadow-Way-22602/home/162555931,BRIGHT MLS,VAFV157620,N,Y,39.160722,-78.324384
PAST SALE,December-29-2020,Townhouse,112 Alderman Way,Winchester,VA,22602,265823,3,3.5,FREEDOM MANOR,1671,2000,2020,341,159,75,Sold,,,https://www.redfin.com/VA/Winchester/112-Alderman-WAY-22601/home/171780325,BRIGHT MLS,VAFV157488,N,Y,39.1183215,-78.1597307
PAST SALE,September-4-2020,Single Family Residential,101 Pinto Trl,Winchester,VA,22602,190000,2,2.0,SHAWNEELAND,1046,15246,1995,457,182,,Sold,,,https://www.redfin.com/VA/Winchester/101-Pinto-Trl-22602/home/25702340,BRIGHT MLS,VAFV158036,N,Y,39.2080878,-78.3199167
PAST SALE,May-23-2019,Single Family Residential,105 Trent Ct,Winchester,VA,22602,339500,4,2.5,RED FOX RUN,2210,16117,2005,927,154,10,Sold,,,https://www.redfin.com/VA/Winchester/105-Trent-Ct-22602/home/16857041,BRIGHT MLS,VAFV149614,N,Y,39.1356443,-78.1527688
PAST SALE,February-4-2020,Single Family Residential,113 Edgewood Dr,Winchester,VA,22602,225000,3,1.5,GLENMONT VILLAGE,1522,,1985,670,148,11,Sold,,,https://www.redfin.com/VA/Winchester/113-Edgewood-Dr-22602/home/40146896,BRIGHT MLS,VAFV154398,N,Y,39.1619804,-78.0995261
PAST SALE,July-10-2020,Single Family Residential,109 Pinto Trl,Winchester,VA,22602,195000,3,2.0,SHAWNEELAND,1696,,1994,513,115,,Sold,,,https://www.redfin.com/VA/Winchester/109-Pinto-Trl-22602/home/75053670,BRIGHT MLS,VAFV155608,N,Y,39.2071515,-78.3206325
PAST SALE,September-13-2019,Single Family Residential,107 Caribou Trl,Winchester,VA,22602,175000,2,2.5,SHAWNEELAND,1100,,2008,814,159,,Sold,,,https://www.redfin.com/VA/Winchester/107-Caribou-Trl-22602/home/58638464,BRIGHT MLS,VAFV152294,N,Y,39.206326,-78.327106
PAST SALE,July-10-2020,Single Family Residential,102 Orkney Dr,Winchester,VA,22602,450000,4,3.5,RAVENWING,5060,12197,2004,513,89,13,Sold,,,https://www.redfin.com/VA/Winchester/102-Orkney-Dr-22602/home/21491802,BRIGHT MLS,VAFV156266,N,Y,39.1645324,-78.1428809
PAST SALE,July-26-2019,Single Family Residential,121 Doe Trl,Winchester,VA,22602,179900,2,2.0,SHAWNEELAND,1516,14976,1978,863,119,,Sold,,,https://www.redfin.com/VA/Winchester/121-Doe-Trl-22602/home/75053659,BRIGHT MLS,VAFV150894,N,Y,39.2069347,-78.3299701
PAST SALE,August-22-2019,Single Family Residential,100 Caribou Trl,Winchester,VA,22602,189900,2,2.0,SHAWNEELAND,1430,,1976,836,133,,Sold,,,https://www.redfin.com/VA/Winchester/100-Caribou-Trl-22602/home/75053694,BRIGHT MLS,VAFV151320,N,Y,39.206428,-78.328397
PAST SALE,April-2-2020,Single Family Residential,144 Cochise Trl,Winchester,VA,22602,244000,3,2.0,SHAWNEELAND,1500,13068,2020,612,163,,Sold,,,https://www.redfin.com/VA/Winchester/144-Cochise-Trl-22602/home/162552426,BRIGHT MLS,VAFV155026,N,Y,39.204566,-78.331832
PAST SALE,June-22-2019,Single Family Residential,136 Doe Trl,Winchester,VA,22602,238000,3,2.5,SHAWNEELAND,2200,,2008,897,108,,Sold,,,https://www.redfin.com/VA/Winchester/136-Doe-Trl-22602/home/17317123,BRIGHT MLS,VAFV149972,N,Y,39.205674,-78.332403
PAST SALE,November-12-2021,Single Family Residential,105 Caribou Trl,Winchester,VA,22602,161500,3,2.0,SHAWNEELAND,1196,,1974,23,135,,Sold,,,https://www.redfin.com/VA/Winchester/105-Caribou-Trl-22602/home/75053687,BRIGHT MLS,VAFV2002116,N,Y,39.2064801,-78.3274116
PAST SALE,October-21-2019,Single Family Residential,229 Hawk Trl,Winchester,VA,22602,193500,3,2.0,SHAWNEELAND,1146,,2007,776,169,,Sold,,,https://www.redfin.com/VA/Winchester/229-Hawk-Trl-22602/home/22045810,BRIGHT MLS,VAFV152626,N,Y,39.2016046,-78.3410318
PAST SALE,December-29-2018,Single Family Residential,1000 Hickory Trl,Winchester,VA,22602,178100,3,2.0,SHAWNEELAND,1288,15000,2001,1072,138,,Sold,,,https://www.redfin.com/VA/Winchester/1000-Hickory-Trl-22602/home/75059722,BRIGHT MLS,1001190646,N,Y,39.204666,-78.3368457
PAST SALE,July-22-2021,Single Family Residential,154 Falcon Trl,Winchester,VA,22602,255000,3,2.0,SHAWNEELAND,2088,51401,1998,136,122,,Sold,,,https://www.redfin.com/VA/Winchester/154-Falcon-Trl-22602/home/40112609,BRIGHT MLS,VAFV2000140,N,Y,39.2051155,-78.3346454
PAST SALE,December-7-2020,Single Family Residential,151 Falcon Trl,Winchester,VA,22602,252000,3,3.0,SHAWNEELAND,1661,,2015,363,152,,Sold,,,https://www.redfin.com/VA/Winchester/151-Falcon-Trl-22602/home/85688156,BRIGHT MLS,VAFV160158,N,Y,39.2052187,-78.3335294
PAST SALE,January-7-2020,Single Family Residential,167 Falcon Trl,Winchester,VA,22602,229900,3,2.0,SHAWNEELAND,1470,30056,2007,698,156,,Sold,,,https://www.redfin.com/VA/Winchester/167-Falcon-Trl-22602/home/16850372,BRIGHT MLS,VAFV154152,N,Y,39.2037504,-78.3352194
PAST SALE,April-26-2019,Single Family Residential,1001 Hickory Trl,Winchester,VA,22602,220000,3,3.0,SHAWNEELAND,1952,,2000,954,113,,Sold,,,https://www.redfin.com/VA/Winchester/1001-Hickory-Trl-22602/home/162540685,BRIGHT MLS,VAFV142218,N,Y,39.2043012,-78.3371916
PAST SALE,May-11-2020,Single Family Residential,100 Aztec Trl,Winchester,VA,22602,249900,3,2.5,SHAWNEELAND,,23087,2020,573,,,Sold,,,https://www.redfin.com/VA/Winchester/100-Aztec-Trl-22602/home/162528180,BRIGHT MLS,VAFV152820,N,Y,39.206732,-78.322468
PAST SALE,January-15-2021,Single Family Residential,159 Hawk Trl,Winchester,VA,22602,209000,3,1.0,SHAWNEELAND,1122,21780,1976,324,186,,Sold,,,https://www.redfin.com/VA/Winchester/159-Hawk-Trl-22602/home/22019295,BRIGHT MLS,VAFV160510,N,Y,39.2058676,-78.3363425
PAST SALE,November-8-2019,Single Family Residential,311 Falcon Trl,Winchester,VA,22602,251900,3,2.0,SHAWNEELAND,1500,14810,2019,758,168,,Sold,,,https://www.redfin.com/VA/Winchester/311-Falcon-Trl-22602/home/162540692,BRIGHT MLS,VAFV143076,N,Y,39.198145,-78.341217
PAST SALE,September-8-2020,Single Family Residential,203 Hawk,Winchester,VA,22602,239900,4,3.0,SHAWNEELAND,2340,20000,2006,453,103,,Sold,,,https://www.redfin.com/VA/Winchester/203-Hawk-Trl-22602/home/102250580,BRIGHT MLS,VAFV153180,N,Y,39.2044229,-78.3378969
PAST SALE,June-29-2020,Single Family Residential,304 Cochise Trl,Winchester,VA,22602,250500,2,1.0,SHAWNEELAND,300,500,2014,524,835,,Sold,,,https://www.redfin.com/VA/Winchester/304-Cochise-Trl-22602/home/56573208,BRIGHT MLS,VAFV157510,N,Y,39.1978053,-78.3391383
PAST SALE,February-28-2020,Single Family Residential,310 Beaver Trl,Winchester,VA,22602,218700,3,2.0,SHAWNEELAND,1482,21780,2008,646,148,31,Sold,,,https://www.redfin.com/VA/Winchester/310-Beaver-Trl-22602/home/17135969,BRIGHT MLS,VAFV154478,N,Y,39.1965973,-78.3389321
PAST SALE,May-22-2020,Single Family Residential,302 Doe Trl,Winchester,VA,22602,157200,2,1.0,SHAWNEELAND,1228,,1971,562,128,,Sold,,,https://www.redfin.com/VA/Winchester/302-Doe-Trl-22602/home/39914894,BRIGHT MLS,VAFV155878,N,Y,39.1987158,-78.3399231
PAST SALE,June-19-2021,Single Family Residential,305 Falcon Trl,Winchester,VA,22602,300000,3,2.0,SHAWNEELAND,1500,14374,2021,169,200,,Sold,,,https://www.redfin.com/VA/Winchester/305-Falcon-Trl-22602/home/162528218,BRIGHT MLS,VAFV157766,N,Y,39.198753,-78.340544
PAST SALE,May-27-2020,Single Family Residential,300 Graywolf Trl,Winchester,VA,22602,250000,3,2.5,SHAWNEELAND,1432,14204,2004,557,175,55,Sold,,,https://www.redfin.com/VA/Winchester/300-Graywolf-Trl-22602/home/102251225,BRIGHT MLS,VAFV156448,N,Y,39.2001309,-78.3416115
PAST SALE,May-15-2020,Single Family Residential,233 Falcon Trl,Winchester,VA,22602,197000,3,2.0,SHAWNEELAND,1164,14810,2007,569,169,,Sold,,,https://www.redfin.com/VA/Winchester/233-Falcon-Trl-22602/home/22021124,BRIGHT MLS,VAFV155626,N,Y,39.199895,-78.3392404
PAST SALE,December-17-2018,Single Family Residential,223 Falcon Trl,Winchester,VA,22602,178000,3,3.0,SHAWNEELAND,1232,44431,1999,1084,144,,Sold,,,https://www.redfin.com/VA/Winchester/223-Falcon-Trl-22602/home/57076344,BRIGHT MLS,1008343960,N,Y,39.2010513,-78.338052
PAST SALE,October-23-2020,Single Family Residential,224 Falcon Trl,Winchester,VA,22602,159000,2,1.0,SHAWNEELAND,1080,12632,1972,408,147,,Sold,,,https://www.redfin.com/VA/Winchester/224-Falcon-Trl-22602/home/52340930,BRIGHT MLS,VAFV159646,N,Y,39.2011323,-78.3389384
PAST SALE,April-26-2021,Single Family Residential,228 Falcon,Winchester,VA,22602,249900,3,2.0,SHAWNEELAND,1424,33106,2019,223,175,55,Sold,,,https://www.redfin.com/VA/Winchester/228-Falcon-Trl-22602/home/145979143,BRIGHT MLS,VAFV162408,N,Y,39.2007577,-78.3393319
PAST SALE,May-22-2020,Single Family Residential,507 Rainbow Fls,Winchester,VA,22602,246900,3,2.5,SHAWNEELAND,1647,,2020,562,150,,Sold,,,https://www.redfin.com/VA/Winchester/507-Rainbow-Falls-Trl-22602/home/162528230,BRIGHT MLS,VAFV152818,N,Y,39.195537,-78.338874
PAST SALE,September-15-2021,Single Family Residential,236 Falcon Trl,Winchester,VA,22602,303000,3,2.0,SHAWNEELAND,1330,,2016,81,228,,Sold,,,https://www.redfin.com/VA/Winchester/236-Falcon-Trl-22602/home/108994768,BRIGHT MLS,VAFV2000710,N,Y,39.1998893,-78.3403052
PAST SALE,March-26-2021,Single Family Residential,234 Graywolf Trl,Winchester,VA,22602,220600,3,2.0,SHAWNEELAND,1128,,2010,254,196,,Sold,,,https://www.redfin.com/VA/Winchester/234-Graywolf-Trl-22602/home/105805260,BRIGHT MLS,VAFV161942,N,Y,39.20076,-78.3410748
PAST SALE,August-14-2020,Single Family Residential,304 Falcon Trl,Winchester,VA,22602,255000,3,3.0,SHAWNEELAND,1850,13068,2020,478,138,,Sold,,,https://www.redfin.com/VA/Winchester/304-Falcon-Trl-22602/home/162528221,BRIGHT MLS,VAFV152800,N,Y,39.199117,-78.341092
PAST SALE,March-19-2021,Single Family Residential,705 Rainbow Fls,Winchester,VA,22602,257293,3,3.5,SHAWNEELAND,,,2021,261,,,Sold,,,https://www.redfin.com/VA/Winchester/705-Rainbow-Falls-Trl-22602/home/162540703,BRIGHT MLS,VAFV158798,N,Y,39.196943,-78.340974
PAST SALE,September-30-2019,Single Family Residential,501 Rainbow Fls,Winchester,VA,22602,229900,3,2.5,SHAWNEELAND,1553,15000,2019,797,148,,Sold,,,https://www.redfin.com/VA/Winchester/501-Rainbow-Falls-Trl-22602/home/162540710,BRIGHT MLS,VAFV152366,N,Y,39.1950218,-78.3380739
PAST SALE,January-29-2020,Single Family Residential,309 Beaver Trl,Winchester,VA,22602,250000,4,3.0,SHAWNEELAND,2160,14810,2008,676,116,55,Sold,,,https://www.redfin.com/VA/Winchester/309-Beaver-Trl-22602/home/105801165,BRIGHT MLS,VAFV154568,N,Y,39.1963808,-78.3380499
PAST SALE,August-29-2019,Single Family Residential,407 Hickory Trl,Winchester,VA,22602,183000,2,2.0,SHAWNEELAND,1594,30056,1974,829,115,,Sold,,,https://www.redfin.com/VA/Winchester/407-Hickory-Trl-22602/home/75053791,BRIGHT MLS,VAFV151882,N,Y,39.200527,-78.331598
PAST SALE,October-2-2019,Single Family Residential,312 Aspen Trl,Winchester,VA,22602,259900,4,2.5,SHAWNEELAND,1783,30056,2019,795,146,,Sold,,,https://www.redfin.com/VA/Winchester/312-Aspen-Trl-22602/home/162552456,BRIGHT MLS,VAFV152444,N,Y,39.1957953,-78.3381406
PAST SALE,April-29-2019,Single Family Residential,501 Hickory Trl,Winchester,VA,22602,230000,4,3.0,SHAWNEELAND,2425,30000,1994,951,95,,Sold,,,https://www.redfin.com/VA/Winchester/501-Hickory-Trl-22602/home/16858665,BRIGHT MLS,VAFV144736,N,Y,39.20121,-78.332507
PAST SALE,July-26-2019,Single Family Residential,152 Doe Trl,Winchester,VA,22602,163000,2,2.0,SHAWNEELAND,1573,17424,1977,863,104,55,Sold,,,https://www.redfin.com/VA/Winchester/152-Doe-Trl-22602/home/75053778,BRIGHT MLS,VAFV150922,N,Y,39.2039852,-78.3341855
PAST SALE,February-15-2019,Single Family Residential,146 Doe Trl,Winchester,VA,22602,201500,3,2.5,SHAWNEELAND,2008,45302,2002,1024,100,,Sold,,,https://www.redfin.com/VA/Winchester/146-Doe-Trl-22602/home/75054284,BRIGHT MLS,VAFV124890,N,Y,39.2047387,-78.3332207
PAST SALE,April-30-2021,Single Family Residential,101 Hemlock Trl,Winchester,VA,22602,245700,3,1.5,SHAWNEELAND,1552,218671,1978,219,158,,Sold,,,https://www.redfin.com/VA/Winchester/101-Hemlock-Trl-22602/home/75053821,BRIGHT MLS,VAFV162972,N,Y,39.2020182,-78.3284271
PAST SALE,May-15-2020,Single Family Residential,115 Hemlock Trl,Winchester,VA,22602,255000,3,2.5,SHAWNEELAND,1608,,2019,569,159,,Sold,,,https://www.redfin.com/VA/Winchester/115-Hemlock-Trl-22602/home/162552467,BRIGHT MLS,VAFV149938,N,Y,39.200301,-78.32995
PAST SALE,November-12-2020,Single Family Residential,117 Hemlock,Winchester,VA,22602,255000,3,2.5,SHAWNEELAND,1608,20000,2020,388,159,,Sold,,,https://www.redfin.com/VA/Winchester/117-Hemlock-Trl-22602/home/162528245,BRIGHT MLS,VAFV157112,N,Y,39.200094,-78.330178
PAST SALE,June-4-2021,Single Family Residential,703 Hickory Trl,Winchester,VA,22602,262000,3,2.0,SHAWNEELAND,1260,14810,2008,184,208,,Sold,,,https://www.redfin.com/VA/Winchester/703-Hickory-Trl-22602/home/102250540,BRIGHT MLS,VAFV163474,N,Y,39.2025818,-78.3345888
PAST SALE,July-5-2019,Single Family Residential,216 Cochise Trl,Winchester,VA,22602,199900,3,2.0,SHAWNEELAND,1164,10890,2008,884,172,,Sold,,,https://www.redfin.com/VA/Winchester/216-Cochise-Trl-22602/home/17164913,BRIGHT MLS,VAFV145716,N,Y,39.2007567,-78.3361296
PAST SALE,June-19-2021,Single Family Residential,102 Aztec Trl,Winchester,VA,22602,300000,3,3.0,SHAWNEELAND,1850,20473,2020,169,162,,Sold,,,https://www.redfin.com/VA/Winchester/102-Aztec-Trl-22602/home/162552422,BRIGHT MLS,VAFV161130,N,Y,39.206955,-78.322238
PAST SALE,November-24-2020,Single Family Residential,202 Doe Trl,Winchester,VA,22602,261000,3,2.0,SHAWNEELAND,1337,15214,2017,376,195,,Sold,,,https://www.redfin.com/VA/Winchester/202-Doe-Trl-22602/home/145397375,BRIGHT MLS,VAFV159944,N,Y,39.2028024,-78.3354132
PAST SALE,October-29-2021,Vacant Land,0 Hawk Trl Lot 314,Winchester,VA,22602,10000,,,SHAWNEELAND,,20185,,37,,,Sold,,,https://www.redfin.com/VA/Winchester/314-Hawk-Trl-22602/unit-314/home/176490637,BRIGHT MLS,VAFV2001952,N,Y,39.2001706,-78.343073
PAST SALE,September-3-2020,Single Family Residential,109 Shelby Ct,Winchester,VA,22602,340000,3,2.5,CHAPEL HILL,2412,,2001,458,141,17,Sold,,,https://www.redfin.com/VA/Winchester/109-Shelby-Ct-22602/home/40111712,BRIGHT MLS,VAFV158780,N,Y,39.1353873,-78.1549512
PAST SALE,November-9-2021,Condo/Co-op,127 Brookland #10,Winchester,VA,22602,180000,2,2.0,PARKVIEW,1173,,2001,26,153,185,Sold,,,https://www.redfin.com/VA/Winchester/127-Brookland-Ter-22602/unit-10/home/177150761,BRIGHT MLS,VAFV2002148,N,Y,39.1818491,-78.1321729
PAST SALE,July-16-2021,Single Family Residential,115 Buckskin Trl,Winchester,VA,22602,291844,3,2.5,SHAWNEELAND,1608,,2021,142,181,,Sold,,,https://www.redfin.com/VA/Winchester/115-Buckskin-Trl-22602/home/162552418,BRIGHT MLS,VAFV160736,N,Y,39.206176,-78.326036
PAST SALE,,Vacant Land,104 Brave Heart Trl,Winchester,VA,22602,12000,,,,,18649,,,,,,,,https://www.redfin.com/VA/Winchester/104-Brave-Heart-Trl-22602/home/162540614,,,N,Y,39.2081,-78.322893
PAST SALE,June-30-2020,Single Family Residential,106 Tey Ct,Winchester,VA,22602,460000,3,2.5,OAKDALE CROSSING,2668,15246,2003,523,172,,Sold,,,https://www.redfin.com/VA/Winchester/106-Tey-Ct-22602/home/102251535,BRIGHT MLS,VAFV157440,N,Y,39.1624835,-78.1387409
PAST SALE,March-9-2020,Single Family Residential,104 Aztec Trl,Winchester,VA,22602,132500,2,1.0,SHAWNEELAND,1190,18730,1972,636,111,,Sold,,,https://www.redfin.com/VA/Winchester/104-Aztec-Trl-22602/home/105801970,BRIGHT MLS,VAFV154976,N,Y,39.207195,-78.3220429
PAST SALE,September-11-2020,Single Family Residential,Lot 4 Buckskin Trl,Winchester,VA,22602,255000,3,2.5,SHAWNEELAND,1608,25964,2020,450,159,,Sold,,,https://www.redfin.com/VA/Winchester/107-Buckskin-Trl-22602/home/162540607,BRIGHT MLS,VAFV155524,N,Y,39.207072,-78.325193
PAST SALE,June-6-2019,Single Family Residential,118 Anne Glass Rd,Winchester,VA,22602,529000,5,3.5,STONEBROOK FARMS,4096,43560,1988,913,129,,Sold,,,https://www.redfin.com/VA/Winchester/118-Anne-Glass-Rd-22602/home/102251695,BRIGHT MLS,VAFV150128,N,Y,39.1401715,-78.2490123
PAST SALE,,Vacant Land,4600 Cedar Creek Grade,Winchester,VA,22602,200000,,,,,3297928,,,,,,,,https://www.redfin.com/VA/Winchester/4600-Cedar-Creek-Grade-22602/home/162560801,,,N,Y,39.120166,-78.316665
PAST SALE,October-13-2021,Single Family Residential,120 Powhatan Trl,Winchester,VA,22602,304000,3,2.0,SHAWNEELAND,1344,20037,2021,53,226,,Sold,,,https://www.redfin.com/VA/Winchester/120-Powhatan-Trl-22602/home/162552416,BRIGHT MLS,VAFV164278,N,Y,39.207549,-78.318547
PAST SALE,April-28-2020,Single Family Residential,121 Powhatan Trl,Winchester,VA,22602,234900,4,2.0,SHAWNEELAND,2016,65776,1999,586,117,,Sold,,,https://www.redfin.com/VA/Winchester/121-Powhatan-Trl-22602/home/75053216,BRIGHT MLS,VAFV155710,N,Y,39.2078599,-78.319288
PAST SALE,October-22-2021,Townhouse,125 Brockham Ct,Winchester,VA,22602,340000,3,2.5,SOVEREIGN VILLAGE,2106,2614,2015,44,161,22,Sold,,,https://www.redfin.com/VA/Winchester/125-Brockham-Ct-22602/home/64361112,BRIGHT MLS,VAFV2000618,N,Y,39.1672726,-78.1050685
PAST SALE,,Single Family Residential,124 Pocahontas Trl,Winchester,VA,22602,247500,3,2.0,,2048,66647,1975,,121,,,,,https://www.redfin.com/VA/Winchester/124-Pocahontas-Trl-22602/home/75053214,,,N,Y,39.207838,-78.3166961
PAST SALE,June-10-2019,Single Family Residential,105 Cochise Trl,Winchester,VA,22602,149900,2,2.0,SHAWNEELAND,1472,20000,1976,909,102,,Sold,,,https://www.redfin.com/VA/Winchester/105-Cochise-Trl-22602/home/105805744,BRIGHT MLS,VAFV150266,N,Y,39.2081465,-78.3264313
PAST SALE,January-29-2021,Vacant Land,0 Huron Trl,Winchester,VA,22602,7500,,,SHAWNEELAND,,,,310,,,Sold,,,https://www.redfin.com/VA/Back-Creek/Huron-Trl-22602/home/147839394,BRIGHT MLS,VAFV159538,N,Y,39.19343551,-78.35026417
PAST SALE,,Vacant Land,276 Fisher Ct,Star Tannery,VA,22654,10000,,,,,219978,,,,,,,,https://www.redfin.com/VA/Star-Tannery/276-Fisher-Ct-22654/home/162533001,,,N,Y,39.10166,-78.382954
PAST SALE,,Single Family Residential,202 Crestwood Ln,Winchester,VA,22602,275000,2,2.0,,1584,3920,2000,,174,,,,,https://www.redfin.com/VA/Winchester/202-Crestwood-Ln-22602/home/75057244,,,N,Y,39.1379913,-78.1960065
PAST SALE,January-15-2021,Single Family Residential,114 Buckskin Trl,Winchester,VA,22602,235900,3,2.0,SHAWNEELAND,1444,40075,1998,324,163,,Sold,,,https://www.redfin.com/VA/Winchester/114-Buckskin-Trl-22602/home/40111605,BRIGHT MLS,VAFV160430,N,Y,39.2068024,-78.3268403
PAST SALE,July-26-2019,Single Family Residential,118 Pocahontas Trl,Winchester,VA,22602,229900,3,2.5,SHAWNEELAND,2061,,2013,863,112,,Sold,,,https://www.redfin.com/VA/Winchester/118-Pocahontas-Trl-22602/home/105805050,BRIGHT MLS,VAFV151296,N,Y,39.2069295,-78.3172529
PAST SALE,July-15-2021,Vacant Land,Lot C Tomahawk Trl,Winchester,VA,22602,6000,,,SHAWNEELAND,,15681,,143,,,Sold,,,https://www.redfin.com/VA/Unknown/LOT-C-Tomahawk-Trl-22602/home/147374196,BRIGHT MLS,VAFV158816,N,Y,39.16142,-78.21302
PAST SALE,August-27-2021,Single Family Residential,1001 Tecumseh Trl,Winchester,VA,22602,227500,3,1.0,SHAWNEELAND,1048,33541,1966,100,217,,Sold,,,https://www.redfin.com/VA/Winchester/1001-Tecumseh-Trl-22602/home/40457333,BRIGHT MLS,VAFV2000166,N,Y,39.2109221,-78.3301035
PAST SALE,April-22-2021,Single Family Residential,145 Graywolf Trl,Winchester,VA,22602,267900,3,2.5,SHAWNEELAND,1660,11745,2020,227,161,,Sold,,,https://www.redfin.com/VA/Winchester/145-Graywolf-Trl-22602/home/21903950,BRIGHT MLS,VAFV157740,N,Y,39.206767,-78.333645
PAST SALE,July-30-2020,Condo/Co-op,117-12 Brookland Ter,Winchester,VA,22602,155000,2,2.0,PARKVIEW,1173,,2000,493,132,185,Sold,,,https://www.redfin.com/VA/Winchester/117-Brookland-Ter-22602/unit-12/home/21684797,BRIGHT MLS,VAFV158508,N,Y,39.181664,-78.13099
PAST SALE,,Vacant Land,,,VA,,5000,,,,,26294,,,,,,,,https://www.redfin.com/VA/Unknown/Unknown-Unknown/home/162541347,,,N,Y,39.198282,-78.366801
PAST SALE,May-14-2019,Single Family Residential,124 Graywolf Trl,Winchester,VA,22602,211000,3,2.0,SHAWNEELAND,1166,25700,2007,936,181,,Sold,,,https://www.redfin.com/VA/Winchester/124-Graywolf-Trl-22602/home/105801188,BRIGHT MLS,VAFV127786,N,Y,39.208847,-78.332364
PAST SALE,December-14-2018,Single Family Residential,127 Graywolf Trl,Winchester,VA,22602,171000,2,2.0,SHAWNEELAND,1547,25700,1976,1087,111,,Sold,,,https://www.redfin.com/VA/Winchester/127-Graywolf-Trl-22602/home/75053181,BRIGHT MLS,VAFV100248,N,Y,39.2083609,-78.331888
PAST SALE,May-12-2020,Townhouse,215 Monticello Sq,Winchester,VA,22602,227500,3,2.5,BROOKLAND MANOR,1760,2178,2011,572,129,58,Sold,,,https://www.redfin.com/VA/Winchester/215-Monticello-Sq-22602/home/105806816,BRIGHT MLS,VAFV156576,N,Y,39.1783389,-78.1290719
PAST SALE,June-3-2020,Single Family Residential,121 Graywolf Trl,Winchester,VA,22602,206500,4,2.5,SHAWNEELAND,1582,12800,1996,550,131,,Sold,,,https://www.redfin.com/VA/Winchester/121-Graywolf-Trl-22602/home/40163437,BRIGHT MLS,VAFV155986,N,Y,39.2086472,-78.3316554
PAST SALE,,Single Family Residential,108 Graywolf Trl,Winchester,VA,22602,80000,2,1.0,,720,13185,1968,,111,,,,,https://www.redfin.com/VA/Winchester/108-Graywolf-Trl-22602/home/105802520,,,N,Y,39.2101874,-78.330916
PAST SALE,,Vacant Land,115 Opossum Trl,Winchester,VA,22602,5000,,,,,11743,,,,,,,,https://www.redfin.com/VA/Winchester/115-Opossum-Trl-22602/home/162531193,,,N,Y,39.148877,-78.404751
PAST SALE,,Vacant Land,,,VA,,5750,,,,,12244,,,,,,,,https://www.redfin.com/VA/Unknown/Unknown-Unknown/home/162544339,,,N,Y,39.146907,-78.401721
PAST SALE,May-13-2020,Townhouse,120 Scirocco Ln,Winchester,VA,22602,189900,2,1.5,WINDSTONE,1854,1752,2005,571,102,60,Sold,,,https://www.redfin.com/VA/Winchester/120-Scirocco-Ln-22602/home/22719435,BRIGHT MLS,VAFV156312,N,Y,39.1799419,-78.1321902
PAST SALE,December-14-2018,Vacant Land,0 Carpers Valley Rd,Winchester,VA,22602,207786,,,Winchester,,2382296,,1087,,,Sold,,,https://www.redfin.com/VA/Winchester/874-Carpers-Valley-Rd-22602/home/75060807,BRIGHT MLS,VAFV100168,N,Y,39.124268,-78.105568
PAST SALE,December-10-2019,Single Family Residential,280 Amberwood Ln,Winchester,VA,22602,249900,3,2.0,SHENANDOAH POOLS,1216,70567,1979,726,206,,Sold,,,https://www.redfin.com/VA/Winchester/280-Amberwood-Ln-22602/home/16850238,BRIGHT MLS,VAFV152628,N,Y,39.121868,-78.1220093
PAST SALE,August-10-2020,Single Family Residential,1908 Front Royal Pike,Winchester,VA,22602,350000,3,3.0,Winchester,3232,217800,1818,482,108,,Sold,,,https://www.redfin.com/VA/Winchester/1908-Front-Royal-Pike-22602/home/75060462,BRIGHT MLS,VAFV152998,N,Y,39.109604,-78.1575359
PAST SALE,April-26-2019,Single Family Residential,119 Graywolf Trl,Winchester,VA,22602,197500,3,2.0,SHAWNEELAND,1760,25600,1990,954,112,47,Sold,,,https://www.redfin.com/VA/Winchester/119-Graywolf-Trl-22602/home/75053183,BRIGHT MLS,VAFV135922,N,Y,39.209031,-78.331147
PAST SALE,July-15-2020,Single Family Residential,144 Falcon Trl,Winchester,VA,22602,194500,3,2.5,SHAWNEELAND,1534,,2009,508,127,,Sold,,,https://www.redfin.com/VA/Winchester/144-Falcon-Trl-22602/home/18740732,BRIGHT MLS,VAFV156784,N,Y,39.2062716,-78.333348
PAST SALE,January-16-2021,Vacant Land,0 Elk Trl,Winchester,VA,22602,8000,,,WILDE ACRES,,39204,,323,,16,Sold,,,https://www.redfin.com/VA/Back-Creek/Elk-Trl-22602/home/17893900,BRIGHT MLS,VAFV157758,N,Y,39.14592,-78.41124
PAST SALE,October-30-2020,Single Family Residential,121 Hawk Trl,Winchester,VA,22602,258000,3,2.0,SHAWNEELAND,1546,25700,2011,401,167,,Sold,,,https://www.redfin.com/VA/Winchester/121-Hawk-Trl-22602/home/105802401,BRIGHT MLS,VAFV159794,N,Y,39.209002,-78.3329342
PAST SALE,April-10-2020,Single Family Residential,150 Graywolf Trl,Winchester,VA,22602,177500,3,2.0,SHAWNEELAND,1962,38333,2006,604,90,,Sold,,,https://www.redfin.com/VA/Winchester/150-Graywolf-Trl-22602/home/40133431,BRIGHT MLS,VAFV155220,N,Y,39.206913,-78.335003
PAST SALE,November-23-2021,Single Family Residential,122 Pocahontas,Winchester,VA,22602,332000,4,3.0,SHAWNEELAND,2575,25264,2011,12,129,,Sold,,,https://www.redfin.com/VA/Winchester/122-Pocahontas-Trl-22602/home/105803933,BRIGHT MLS,VAFV2002250,N,Y,39.2074544,-78.3168972
PAST SALE,,Single Family Residential,477 Valley Mill Rd,Winchester,VA,22602,250000,3,2.0,,1546,22216,1962,,162,,,,,https://www.redfin.com/VA/Winchester/477-Valley-Mill-Rd-22602/home/17318800,,,N,Y,39.1812141,-78.1215876
PAST SALE,,Single Family Residential,108 Navajo Trl,Winchester,VA,22602,133100,2,1.0,,884,21390,1972,,151,,,,,https://www.redfin.com/VA/Winchester/108-Navajo-Trl-22602/home/39537806,,,N,Y,39.2029927,-78.3206784
PAST SALE,October-15-2021,Single Family Residential,102 Navajo Trl,Winchester,VA,22602,294350,3,2.0,SHAWNEELAND,1343,32670,2013,51,219,,Sold,,,https://www.redfin.com/VA/Winchester/102-Navajo-Trl-22602/home/105806928,BRIGHT MLS,VAFV2001038,N,Y,39.2026378,-78.3199278
PAST SALE,October-10-2019,Single Family Residential,107 Kay,Winchester,VA,22602,385000,4,3.5,STEEPLECHASE,2248,12632,2008,787,171,7,Sold,,,https://www.redfin.com/VA/Winchester/107-Kay-Ct-22602/home/105808082,BRIGHT MLS,VAFV152166,N,Y,39.1691977,-78.1185135
PAST SALE,August-6-2019,Single Family Residential,116 Falcon Trl,Winchester,VA,22602,194900,3,2.0,SHAWNEELAND,1584,21780,1993,852,123,,Sold,,,https://www.redfin.com/VA/Winchester/116-Falcon-Trl-22602/home/28956526,BRIGHT MLS,VAFV151330,N,Y,39.2087162,-78.3308974
PAST SALE,October-12-2021,Single Family Residential,118 Navajo Trl,Winchester,VA,22602,227000,3,1.0,SHAWNEELAND,1200,20037,1970,54,189,,Sold,,,https://www.redfin.com/VA/Winchester/118-Navajo-Trl-22602/home/21996166,BRIGHT MLS,VAFV2001460,N,Y,39.2034119,-78.32194
PAST SALE,January-31-2019,Single Family Residential,205 Senseny Glen Dr,Winchester,VA,22602,284900,4,3.0,SENSENY GLEN,2634,,1999,1039,108,6,Sold,,,https://www.redfin.com/VA/Winchester/205-Senseny-Glen-Dr-22602/home/40114044,BRIGHT MLS,1002001844,N,Y,39.1641977,-78.0952458
PAST SALE,December-17-2019,Condo/Co-op,110 Brookland Ct #9,Winchester,VA,22602,141500,2,2.0,PARKPLACE,1173,,2001,719,121,183,Sold,,,https://www.redfin.com/VA/Winchester/110-Brookland-Ct-22602/unit-9/home/167110345,BRIGHT MLS,VAFV154260,N,Y,39.181819,-78.12967
PAST SALE,March-29-2019,Single Family Residential,137 Falcon Trl,Winchester,VA,22602,214900,3,3.0,SHAWNEELAND,1704,43560,2016,982,126,,Sold,,,https://www.redfin.com/VA/Winchester/137-Falcon-Trl-22602/home/114098908,BRIGHT MLS,VAFV144686,N,Y,39.2066686,-78.3317355
PAST SALE,June-25-2021,Single Family Residential,118 Hawk Trl,Winchester,VA,22602,294900,3,3.0,SHAWNEELAND,1850,12168,2020,163,159,,Sold,,,https://www.redfin.com/VA/Winchester/118-Hawk-Trl-22602/home/162528149,BRIGHT MLS,VAFV161882,N,Y,39.209723,-78.333101
PAST SALE,March-6-2020,Vacant Land,Lot 83 Tom Tom,Winchester,VA,22602,3000,,,SHAWNEELAND,,19984,,639,,,Sold,,,https://www.redfin.com/VA/Winchester/83-Tom-Tom-Trl-22602/home/113846487,BRIGHT MLS,VAFV155490,N,Y,39.1884899,-78.3397631
PAST SALE,November-12-2020,Single Family Residential,121 Gilmore Trl,Winchester,VA,22602,205000,3,1.0,SHAWNEELAND,1824,25700,1975,388,112,,Sold,,,https://www.redfin.com/VA/Winchester/121-Gilmore-Trl-22602/home/105805183,BRIGHT MLS,VAFV159438,N,Y,39.2127821,-78.3281006
PAST SALE,August-12-2019,Single Family Residential,102 Gilmore Trl,Winchester,VA,22602,165000,3,2.0,SHAWNEELAND,1104,21780,1977,846,149,,Sold,,,https://www.redfin.com/VA/Winchester/102-Gilmore-Trl-22602/home/40279713,BRIGHT MLS,VAFV151650,N,Y,39.2109219,-78.3291
PAST SALE,September-16-2019,Single Family Residential,303 Huntersridge Rd,Winchester,VA,22602,389000,5,3.5,OAKDALE CROSSING,3548,15689,1993,811,110,,Sold,,,https://www.redfin.com/VA/Winchester/303-Huntersridge-Rd-22602/home/40113928,BRIGHT MLS,VAFV151204,N,Y,39.1664995,-78.1394066
PAST SALE,October-26-2021,Single Family Residential,116 Ettawah Trl,Winchester,VA,22602,319900,3,3.0,SHAWNEELAND,1850,13770,2020,40,173,,Sold,,,https://www.redfin.com/VA/Winchester/116-Ettawah-Trl-22602/home/162540914,BRIGHT MLS,VAFV151170,N,Y,39.1890264,-78.347946
PAST SALE,September-30-2019,Single Family Residential,902 Tecumseh Trl,Winchester,VA,22602,239600,3,3.0,SHAWNEELAND,1850,20037,2019,797,130,,Sold,,,https://www.redfin.com/VA/Winchester/902-Tecumseh-Trl-22602/home/162574741,BRIGHT MLS,VAFV143102,N,Y,39.2104993,-78.3290402
PAST SALE,,Single Family Residential,115 Eagle Trl,Winchester,VA,22602,264000,2,2.0,,1347,11982,2015,,196,,,,,https://www.redfin.com/VA/Winchester/115-Eagle-Trl-22602/home/84264829,,,N,Y,39.210969,-78.3265734
PAST SALE,,Single Family Residential,308 St Andrews Ct,Winchester,VA,22602,697000,4,4.5,,4532,98446,2015,,154,,,,,https://www.redfin.com/VA/Winchester/308-St-Andrews-Ct-22602/home/101778025,,,N,Y,39.1774301,-78.2155489
PAST SALE,June-28-2021,Single Family Residential,125 Eagle Trl,Winchester,VA,22602,350000,4,3.0,SHAWNEELAND,2688,33106,1991,160,130,,Sold,,,https://www.redfin.com/VA/Winchester/125-Eagle-Trl-22602/home/75053540,BRIGHT MLS,VAFV163676,N,Y,39.2116433,-78.3259368
PAST SALE,April-30-2020,Single Family Residential,118 Deer Trl,Winchester,VA,22602,164000,2,1.0,SHAWNEELAND,800,25700,1971,584,205,,Sold,,,https://www.redfin.com/VA/Winchester/118-Deer-Trl-22602/home/75053542,BRIGHT MLS,VAFV155636,N,Y,39.2103763,-78.3245908
PAST SALE,September-14-2020,Vacant Land,0 Oak Rdg,Winchester,VA,22602,85000,,,FAIRWAY ESTATES,,28314,,447,,,Sold,,,https://www.redfin.com/VA/WINCHESTER/OAK-RIDGE-LN-22602/home/112390627,BRIGHT MLS,VAFV157540,N,Y,39.166446,-78.144136
PAST SALE,,Single Family Residential,171 Laurel Grove Rd,Winchester,VA,22602,440000,3,3.0,,3052,217800,1840,,144,,,,,https://www.redfin.com/VA/Winchester/171-Laurel-Grove-Rd-22602/home/75058545,,,N,Y,39.108125,-78.269341
PAST SALE,March-23-2020,Single Family Residential,102 Woodys Pl,Winchester,VA,22602,249999,4,2.0,CARLISLE ESTATES,2152,,1989,622,116,33,Sold,,,https://www.redfin.com/VA/Winchester/102-Woodys-Pl-22602/home/40111653,BRIGHT MLS,VAFV155550,N,Y,39.1796963,-78.1173551
PAST SALE,February-22-2019,Single Family Residential,876 Carpers Valley Rd,Winchester,VA,22602,527000,3,3.0,Winchester,4061,217800,2005,1017,130,,Sold,,,https://www.redfin.com/VA/Winchester/876-Carpers-Valley-Rd-22602/home/75060804,BRIGHT MLS,1002362734,N,Y,39.121251,-78.105725
PAST SALE,May-14-2021,Single Family Residential,116 Hart Trl,Winchester,VA,22602,200000,2,1.0,SHAWNEELAND,1000,12800,2008,205,200,,Sold,,,https://www.redfin.com/VA/Winchester/116-Hart-Trl-22602/home/17489080,BRIGHT MLS,VAFV162764,N,Y,39.212536,-78.3289176
PAST SALE,June-5-2020,Single Family Residential,109 Deer Trl,Winchester,VA,22602,242000,3,3.0,SHAWNEELAND,1685,,2020,548,144,,Sold,,,https://www.redfin.com/VA/Winchester/109-Deer-Trl-22602/home/162574733,BRIGHT MLS,VAFV151866,N,Y,39.210005,-78.3259371
PAST SALE,May-14-2019,Single Family Residential,407 Gazelle,Winchester,VA,22602,205000,4,3.0,WILDE ACRES,1904,,2007,936,108,25,Sold,,,https://www.redfin.com/VA/Winchester/407-Gazelle-Trl-22602/home/21676678,BRIGHT MLS,VAFV149778,N,Y,39.143771,-78.4099077
PAST SALE,October-25-2019,Single Family Residential,115 Deer Trl,Winchester,VA,22602,125000,3,1.0,SHAWNEELAND,861,12196,1971,772,145,,Sold,,,https://www.redfin.com/VA/Winchester/115-Deer-Trl-22602/home/105802285,BRIGHT MLS,VAFV152422,N,Y,39.210521,-78.325405
PAST SALE,May-24-2019,Single Family Residential,303 Tecumseh Trl,Winchester,VA,22602,315000,4,4.0,SHAWNEELAND,3700,,1870,926,85,,Sold,,,https://www.redfin.com/VA/Winchester/303-Tecumseh-Trl-22602/home/75053511,BRIGHT MLS,VAFV144742,N,Y,39.205411,-78.322726
PAST SALE,June-7-2019,Vacant Land,Route 7 East Hwy E,Winchester,VA,22601,25000,,,Winchester,,77972,,912,,,Sold,,,https://www.redfin.com/VA/Winchester/Unknown-22601/home/147364072,BRIGHT MLS,1007766194,N,Y,39.18690106,-78.11900665
PAST SALE,,Single Family Residential,646 Bluebird Trl,Winchester,VA,22602,300000,3,3.0,,2760,130680,2006,,109,,,,,https://www.redfin.com/VA/Winchester/646-Bluebird-Trl-22602/home/40360173,,,N,Y,39.162698,-78.389655
PAST SALE,May-11-2020,Single Family Residential,104 Deer Trl,Winchester,VA,22602,209000,3,2.0,SHAWNEELAND,2040,25700,1975,573,102,,Sold,,,https://www.redfin.com/VA/Winchester/104-Deer-Trl-22602/home/28692790,BRIGHT MLS,VAFV156362,N,Y,39.2092717,-78.3256905
PAST SALE,March-26-2020,Townhouse,110 Sequoia Dr,Winchester,VA,22602,285000,3,3.5,FIELDSTONE,,4792,2019,619,,77,Sold,,,https://www.redfin.com/VA/Winchester/110-Sequoia-Dr-22602/home/160477967,BRIGHT MLS,VAFV155760,N,Y,39.1739257,-78.0976957
PAST SALE,,Single Family Residential,1320 Back Mountain Rd,Winchester,VA,22602,270000,4,2.0,,2200,194278,1965,,123,,,,,https://www.redfin.com/VA/Winchester/1320-Back-Mountain-Rd-22602/home/45488973,,,N,Y,39.2052394,-78.3148071
PAST SALE,May-11-2020,Single Family Residential,133 Hiawatha Trl,Winchester,VA,22602,260000,3,3.0,SHAWNEELAND,2013,54014,2001,573,129,21,Sold,,,https://www.redfin.com/VA/Winchester/133-Hiawatha-Trl-22602/home/105804958,BRIGHT MLS,VAFV156540,N,Y,39.1899233,-78.3528055
PAST SALE,June-11-2020,Single Family Residential,1031 Fishel Rd,Winchester,VA,22602,137500,2,1.0,Winchester,1112,22216,1968,542,124,,Sold,,,https://www.redfin.com/VA/Winchester/1031-Fishel-Rd-22602/home/102250628,BRIGHT MLS,VAFV156302,N,Y,39.1690282,-78.3563588
PAST SALE,July-2-2020,Single Family Residential,143 Hiawatha Trl,Winchester,VA,22602,157000,2,1.0,SHAWNEELAND,800,31070,1976,521,196,,Sold,,,https://www.redfin.com/VA/Winchester/143-Hiawatha-Trl-22602/home/105808209,BRIGHT MLS,VAFV156642,N,Y,39.1888085,-78.3538082
PAST SALE,August-13-2019,Single Family Residential,102 Iroquois,Winchester,VA,22602,214900,3,2.0,SHAWNEELAND,1824,13939,2008,845,118,,Sold,,,https://www.redfin.com/VA/Winchester/102-Iroquois-Trl-22602/home/17394095,BRIGHT MLS,VAFV150686,N,Y,39.1944075,-78.3505816
PAST SALE,,Other,591 Valley View Trl,Winchester,VA,22602,75000,,,,,4356000,,,,,,,,https://www.redfin.com/VA/Winchester/591-Valley-View-Trl-22602/home/162528065,,,N,Y,39.1788417,-78.3922121
PAST SALE,June-25-2019,Townhouse,116 Windstone,Winchester,VA,22602,208000,3,1.5,WINDSTONE,1254,1742,2005,894,166,60,Sold,,,https://www.redfin.com/VA/Winchester/116-Windstone-Dr-22602/home/102251602,BRIGHT MLS,VAFV151020,N,Y,39.1810453,-78.1319107
PAST SALE,July-6-2021,Vacant Land,0 Goldwood Trl,Winchester,VA,22602,7335,,,SHAWNEELAND,,20037,,152,,,Sold,,,https://www.redfin.com/VA/Winchester/Goldwood-Trl-22602/home/143782117,BRIGHT MLS,VAFV161552,N,Y,39.18925,-78.37507
PAST SALE,September-30-2020,Single Family Residential,1109 Tomahawk Trl,Winchester,VA,22602,92000,2,2.0,SHAWNEELAND,1012,,1977,431,91,,Sold,,,https://www.redfin.com/VA/Winchester/1109-Tomahawk-Trl-22602/home/75054117,BRIGHT MLS,VAFV158724,N,Y,39.1944164,-78.3517621
PAST SALE,September-2-2021,Single Family Residential,C-62 Cornstalk Trl,Winchester,VA,22602,299070,3,2.5,SHAWNEELAND,1660,13452,2021,94,180,,Sold,,,https://www.redfin.com/VA/Winchester/116-Cornstalk-Trl-22602/home/162575015,BRIGHT MLS,VAFV155742,N,Y,39.18445,-78.353189
PAST SALE,August-6-2019,Single Family Residential,113 Killbuck Trl,Winchester,VA,22602,224000,3,3.0,SHAWNEELAND,2240,26136,1971,852,100,,Sold,,,https://www.redfin.com/VA/Winchester/113-Killbuck-Trl-22602/home/17126830,BRIGHT MLS,VAFV149384,N,Y,39.1859124,-78.353021
PAST SALE,April-27-2021,Single Family Residential,1128 Tomahawk,Winchester,VA,22602,277997,3,2.0,SHAWNEELAND,1500,52272,2020,222,185,,Sold,,,https://www.redfin.com/VA/Winchester/1128-Tomahawk-Trl-22602/home/162575055,BRIGHT MLS,VAFV157764,N,Y,39.197338,-78.350321
PAST SALE,September-25-2020,Single Family Residential,1148 Tomahawk Trl,Winchester,VA,22602,254000,3,2.0,SHAWNEELAND,896,88862,2001,436,283,,Sold,,,https://www.redfin.com/VA/Winchester/1148-Tomahawk-Trl-22602/home/105805404,BRIGHT MLS,VAFV159008,N,Y,39.200239,-78.348766
PAST SALE,July-5-2019,Single Family Residential,132 Dogwood Trl,Winchester,VA,22602,183900,3,1.0,SHAWNEELAND,1296,,1975,884,142,,Sold,,,https://www.redfin.com/VA/Winchester/132-Dogwood-Trl-22602/home/22044897,BRIGHT MLS,VAFV149652,N,Y,39.2034886,-78.3449214
PAST SALE,January-27-2021,Single Family Residential,116 Inca Trl,Winchester,VA,22602,156000,2,2.0,SHAWNEELAND,1020,20037,1972,312,153,,Sold,,,https://www.redfin.com/VA/Winchester/116-Inca-Trl-22602/home/40029779,BRIGHT MLS,VAFV156988,N,Y,39.2105596,-78.33425
PAST SALE,November-21-2019,Single Family Residential,1101 Poplar Trl,Winchester,VA,22602,236900,3,3.0,SHAWNEELAND,1850,20000,2019,745,128,,Sold,,,https://www.redfin.com/VA/Winchester/1101-Poplar-Trl-22602/home/144384489,BRIGHT MLS,VAFV127784,N,Y,39.1997326,-78.3436317
PAST SALE,February-10-2020,Single Family Residential,106 Wolf Spring Trl,Winchester,VA,22602,79900,2,1.0,SHAWNEELAND,648,174240,1976,664,123,,Sold,,,https://www.redfin.com/VA/Winchester/106-Wolf-Spring-Trl-22602/home/75059526,BRIGHT MLS,VAFV153506,N,Y,39.2077121,-78.3468757
PAST SALE,January-18-2019,Single Family Residential,100 Inca Trl,Winchester,VA,22602,155000,3,2.0,SHAWNEELAND,1144,31032,1998,1052,135,,Sold,,,https://www.redfin.com/VA/Winchester/100-Inca-Trl-22602/home/25661605,BRIGHT MLS,VAFV107260,N,Y,39.2122475,-78.3322874
PAST SALE,,Single Family Residential,1611 Tomahawk Trl,Winchester,VA,22602,64000,2,1.0,,1037,59677,1975,,62,,,,,https://www.redfin.com/VA/Winchester/1611-Tomahawk-Trl-22602/home/75053990,,,N,Y,39.20953,-78.34098
PAST SALE,,Single Family Residential,117 Huron Trl,Winchester,VA,22602,187975,3,2.0,,1765,50530,1975,,107,,,,,https://www.redfin.com/VA/Winchester/117-Huron-Trl-22602/home/102251897,,,N,Y,39.1946508,-78.3495763
PAST SALE,September-13-2021,Single Family Residential,120 Killbuck Trl,Winchester,VA,22602,249900,4,3.0,SHAWNEELAND,2536,26572,1995,83,99,,Sold,,,https://www.redfin.com/VA/Winchester/120-Killbuck-Trl-22602/home/75054183,BRIGHT MLS,VAFV2000160,N,Y,39.185578,-78.354043
