SALE TYPE,SOLD DATE,PROPERTY TYPE,ADDRESS,CITY,STATE OR PROVINCE,ZIP OR POSTAL CODE,PRICE,BEDS,BATHS,LOCATION,SQUARE FEET,LOT SIZE,YEAR BUILT,DAYS ON MARKET,$/SQUARE FEET,HOA/MONTH,STATUS,NEXT OPEN HOUSE START TIME,NEXT OPEN HOUSE END TIME,URL (SEE https://www.redfin.com/buy-a-home/comparative-market-analysis FOR INFO ON PRICING),SOURCE,MLS#,FAVORITE,INTERESTED,LATITUDE,LONGITUDE
PAST SALE,July-2-2021,Townhouse,5561 Forest Hill Ave,Richmond,VA,23225,231000,3,2.5,Colonial Green Condominiums,1761,435,1982,156,131,261,Sold,,,https://www.redfin.com/VA/Richmond/5561-Forest-Hill-Ave-23225/home/55398348,CVRMLS,2111481,N,Y,37.5275626,-77.5016756
PAST SALE,May-20-2020,Townhouse,7502 Broach Dr,Richmond,VA,23225,215000,3,3.5,Southampton Hills,2010,2178,1985,564,107,225,Sold,,,https://www.redfin.com/VA/Richmond/7502-Broach-Dr-23225/home/55397650,CVRMLS,2009569,N,Y,37.5418961,-77.5323789
PAST SALE,December-1-2020,Single Family Residential,3000 Kenmore Rd,Richmond,VA,23225,345000,4,2.5,Stratford Hills,2317,25700,1966,369,149,,Sold,,,https://www.redfin.com/VA/Richmond/3000-Kenmore-Rd-23225/home/55395537,CVRMLS,2029564,N,Y,37.5395989,-77.5383184
PAST SALE,December-4-2020,Single Family Residential,1036 Barlen Dr,Richmond,VA,23225,189950,3,2.0,Barleth Heights,1241,9583,1965,366,153,,Sold,,,https://www.redfin.com/VA/Richmond/1036-Barlen-Dr-23225/home/55402408,CVRMLS,2029743,N,Y,37.4932649,-77.5013244
PAST SALE,October-14-2021,Single Family Residential,3720 Kenmore Rd,Richmond,VA,23225,450000,4,3.0,Stratford Hills,2986,23086,1958,52,151,,Sold,,,https://www.redfin.com/VA/Richmond/3720-Kenmore-Rd-23225/home/55397523,CVRMLS,2122894,N,Y,37.5468648,-77.5392702
PAST SALE,November-1-2021,Townhouse,5700 Riverside Pl,Richmond,VA,23225,374995,3,2.5,Riverside Heights,2256,4356,2016,34,166,130,Sold,,,https://www.redfin.com/VA/Richmond/5700-Riverside-Pl-23225/home/110306409,CVRMLS,2128227,N,Y,37.5289551,-77.5024638
MLS Listing,,Townhouse,6754 S Grand Brook Cir,Richmond,VA,23225,235000,3,2.5,Townes At Grand Oaks,1426,2613,2007,2,165,92,Active,December-5-2021 01:00 PM,December-5-2021 03:00 PM,https://www.redfin.com/VA/Richmond/6754-S-Grand-Brook-Cir-23225/home/55388877,CVRMLS,2134760,N,Y,37.5160723,-77.5198977
MLS Listing,,Single Family Residential,3136 Marlboro Dr,Richmond,VA,23225,319995,3,2.0,Windsorview,2149,20908,1979,3,149,,Active,,,https://www.redfin.com/VA/Richmond/3136-Marlboro-Dr-23225/home/55396587,CVRMLS,2135656,N,Y,37.5418311,-77.5129301
MLS Listing,,Single Family Residential,1012 W 49th St,Richmond,VA,23225,567596,4,3.5,Forest Hill Terrace,2201,15681,1939,4,258,,Active,December-5-2021 11:00 AM,December-5-2021 01:00 PM,https://www.redfin.com/VA/Richmond/1012-W-49th-St-23225/home/55433842,CVRMLS,2132166,N,Y,37.5188544,-77.4896677
MLS Listing,,Multi-Family (2-4 Unit),2513 Bainbridge St,Richmond,VA,23225,200000,4,4.0,Hollands Addition,1512,5227,1919,4,132,,Active,,,https://www.redfin.com/VA/Richmond/2513-Bainbridge-St-23225/home/55429210,CVRMLS,2135615,N,Y,37.5163932,-77.4568975
MLS Listing,,Townhouse,,Richmond,VA,23225,369990,3,2.5,,1741,,2021,4,213,140,Active,,,https://www.redfin.com/VA/Richmond/Undisclosed-address-23225/home/177425297,CVRMLS,2135595,N,Y,37.5203884,-77.4536108
MLS Listing,,Townhouse,2028 Tobacco Mill St Unit OB,Richmond,VA,23225,387975,3,2.5,Belle Heights,1916,,2021,4,202,140,Active,,,https://www.redfin.com/VA/Richmond/2028-Tobacco-Mill-St-23225/unit-OB/home/177425200,CVRMLS,2135594,N,Y,37.521849,-77.45457
MLS Listing,,Single Family Residential,110 W 32nd St,Richmond,VA,23225,239950,2,1.0,West Manchester,1068,4791,1933,4,225,,Active,December-5-2021 01:00 PM,December-5-2021 03:00 PM,https://www.redfin.com/VA/Richmond/110-W-32nd-St-23225/home/55431223,CVRMLS,2135555,N,Y,37.5131315,-77.4676651
MLS Listing,,Single Family Residential,4306 Smithdeal Ave,Richmond,VA,23225,315000,2,2.0,Forest Hill Park,1236,7405,1939,4,255,,Active,,,https://www.redfin.com/VA/Richmond/4306-Smithdeal-Ave-23225/home/55431749,CVRMLS,2135352,N,Y,37.5224467,-77.4777595
MLS Listing,,Single Family Residential,1005 Boroughbridge Rd,Richmond,VA,23225,224950,2,1.0,Forest View Heights,935,14810,1950,7,241,,Active,December-5-2021 02:00 PM,December-5-2021 04:00 PM,https://www.redfin.com/VA/Richmond/1005-Boroughbridge-Rd-23225/home/55399419,CVRMLS,2134642,N,Y,37.517436,-77.4944173
MLS Listing,,Single Family Residential,5716 Forest Hill Ave,Richmond,VA,23225,299950,4,2.0,Edgewood Acres,2600,15681,1956,17,115,,Active,,,https://www.redfin.com/VA/Richmond/5716-Forest-Hill-Ave-23225/home/55397904,CVRMLS,2134411,N,Y,37.529952,-77.50293
MLS Listing,,Townhouse,6916 Stratford Townes Pl,Richmond,VA,23225,309000,3,3.5,Townes At Stratford,2033,1742,2006,19,152,198,Active,,,https://www.redfin.com/VA/Richmond/6916-Stratford-Townes-Pl-23225/home/55388935,CVRMLS,2133373,N,Y,37.5394711,-77.5210574
MLS Listing,,Single Family Residential,4003 Dunston Ave,Richmond,VA,23225,349950,3,2.5,,1267,15245,1961,26,276,,Active,,,https://www.redfin.com/VA/Richmond/4003-Dunston-Ave-23225/home/55432639,CVRMLS,2133740,N,Y,37.51544,-77.4766616
MLS Listing,,Single Family Residential,1219 Huntland Rd,Richmond,VA,23225,315000,4,2.5,Claremont,2248,11761,1966,30,140,,Active,,,https://www.redfin.com/VA/Richmond/1219-Huntland-Rd-23225/home/55399207,CVRMLS,2129639,N,Y,37.5209002,-77.5068984
MLS Listing,,Single Family Residential,704 W 24th St,Richmond,VA,23225,379000,4,1.5,Woodland Heights,1804,6969,1925,35,210,,Active,December-5-2021 12:00 PM,December-5-2021 02:00 PM,https://www.redfin.com/VA/Richmond/704-W-24th-St-23225/home/55429532,CVRMLS,2132420,N,Y,37.5225547,-77.4591945
MLS Listing,,Single Family Residential,6041 Wainwright Dr,Richmond,VA,23225,190000,2,1.0,Westover Park,720,9583,1947,37,264,,Active,,,https://www.redfin.com/VA/Richmond/6041-Wainwright-Dr-23225/home/55399284,CVRMLS,2132994,N,Y,37.5175523,-77.5092918
MLS Listing,,Single Family Residential,5500 Forest Hill Ave,Richmond,VA,23225,295000,4,1.0,Westover Hills Annex,1562,14810,1956,42,189,,Active,,,https://www.redfin.com/VA/Richmond/5500-Forest-Hill-Ave-23225/home/55398730,CVRMLS,2132416,N,Y,37.5273109,-77.4989425
MLS Listing,,Single Family Residential,907 SE Bradley Ln,Richmond,VA,23225,145500,2,1.0,Norwood Park,698,9147,1947,43,208,,Active,,,https://www.redfin.com/VA/Richmond/907-Bradley-Ln-23225/home/55398829,CVRMLS,2132395,N,Y,37.515102,-77.504002
MLS Listing,,Single Family Residential,5029 SE Clarence St,Richmond,VA,23225,199500,2,1.0,,876,8276,1947,43,228,,Active,,,https://www.redfin.com/VA/Richmond/5029-Clarence-St-23225/home/55433975,CVRMLS,2132394,N,Y,37.5199962,-77.4926698
MLS Listing,,Single Family Residential,501 SE Boroughbridge Rd,Richmond,VA,23225,199500,3,1.0,Westover Manor,1000,16988,1955,43,200,,Active,,,https://www.redfin.com/VA/Richmond/501-Boroughbridge-Rd-23225/home/55400006,CVRMLS,2132392,N,Y,37.5125397,-77.4931179
MLS Listing,,Single Family Residential,816 SE Faye St,Richmond,VA,23225,269500,3,2.0,Westview Manor,1188,11325,1960,43,227,,Active,,,https://www.redfin.com/VA/Richmond/816-Faye-St-23225/home/55399665,CVRMLS,2132389,N,Y,37.5155204,-77.4991218
MLS Listing,,Single Family Residential,1011 S Blandy Ave,Richmond,VA,23225,199500,3,1.0,Westover Park,928,16117,1950,43,215,,Active,,,https://www.redfin.com/VA/Richmond/1011-Blandy-Ave-23225/home/55399056,CVRMLS,2132287,N,Y,37.518084,-77.5068838
MLS Listing,,Single Family Residential,,Richmond,VA,23225,425975,4,2.5,,2542,,2021,46,168,110,Active,,,https://www.redfin.com/VA/North-Chesterfield/Undisclosed-address-23225/home/174848483,CVRMLS,2132093,N,Y,37.5374438,-77.5275463
MLS Listing,,Vacant Land,4014 Crutchfield St,Richmond,VA,23225,50000,,,Forest Hill Park Annex,,18295,,51,,,Active,,,https://www.redfin.com/VA/Richmond/4014-Crutchfield-St-23225/home/55432519,CVRMLS,2131574,N,Y,37.511144,-77.477616
MLS Listing,,Vacant Land,6800 Glyndon Ln,Richmond,VA,23225,120000,,,Gravel Hill,,20037,,61,,,Active,,,https://www.redfin.com/VA/Richmond/6800-Glyndon-Ln-23225/home/176632231,CVRMLS,2130512,N,Y,37.5332029,-77.51934
MLS Listing,,Single Family Residential,7500 Prairie Rd,Richmond,VA,23225,474950,3,2.0,Stratford Hills,2250,28314,1965,87,211,,Active,,,https://www.redfin.com/VA/Richmond/7500-Prairie-Rd-23225/home/55397480,CVRMLS,2127089,N,Y,37.5438981,-77.5309729
MLS Listing,,Single Family Residential,3446 Kenmore Rd,Richmond,VA,23225,498500,3,3.5,Stratford Hills,2989,30491,1961,114,167,,Active,,,https://www.redfin.com/VA/Richmond/3446-Kenmore-Rd-23225/home/55397428,CVRMLS,2125316,N,Y,37.5453656,-77.539147
MLS Listing,,Single Family Residential,6601 Daytona Dr,Richmond,VA,23225,280000,3,1.0,,864,322344,1935,156,324,,Active,,,https://www.redfin.com/VA/Richmond/6601-Daytona-Dr-23225/home/55403159,CVRMLS,2120184,N,Y,37.4881673,-77.5162357
MLS Listing,,Single Family Residential,,Richmond,VA,23225,389990,3,2.5,,1864,,2021,198,209,110,Active,,,https://www.redfin.com/VA/Richmond/Undisclosed-address-23225/home/176383594,CVRMLS,2115157,N,Y,37.5226972,-77.5192474
MLS Listing,,Single Family Residential,,Richmond,VA,23225,404990,4,2.5,,2205,,2021,219,184,110,Active,,,https://www.redfin.com/VA/Richmond/Undisclosed-address-23225/home/176494099,CVRMLS,2112430,N,Y,37.5226972,-77.5192474
MLS Listing,,Vacant Land,1605 Whitehead Rd,Richmond,VA,23225,45000,,,Laurel Meadows,,15245,,342,,,Active,,,https://www.redfin.com/VA/Richmond/1605-Whitehead-Rd-23225/home/55403195,CVRMLS,2037737,N,Y,37.4858339,-77.510577
MLS Listing,,Vacant Land,2571 Gravel Hill Rd,Richmond,VA,23225,40000,,,Gravel Hill,,20037,,7319,,,Active,,,https://www.redfin.com/VA/Richmond/2571-Gravel-Hill-Rd-23225/home/55397602,CVRMLS,2127680,N,Y,37.535093,-77.521097
New Construction Plan,,Single Family Residential,Alcott,Richmond,VA,23225,404990,4,2.5,Westlake Heights,2176,,,,186,,Active,,,https://www.redfin.com/VA/Richmond/Westlake-Heights/Alcott/home/169919973,NewHomeSource.com,Plan-171734032,N,Y,37.5193035,-77.5159451
New Construction Plan,,Single Family Residential,Robert Frost,Richmond,VA,23225,389990,3,2.5,Westlake Heights,1896,,,,206,,Active,,,https://www.redfin.com/VA/Richmond/Westlake-Heights/Robert-Frost/home/169919972,NewHomeSource.com,Plan-171734033,N,Y,37.5193035,-77.5159451
New Construction Plan,,Single Family Residential,Salinger,Richmond,VA,23225,425990,4,2.5,Westlake Heights,2448,,,,174,,Active,,,https://www.redfin.com/VA/Richmond/Westlake-Heights/Salinger/home/169919971,NewHomeSource.com,Plan-171734034,N,Y,37.5193035,-77.5159451
New Construction Plan,,Townhouse,Mozart 2-Car Garage,Richmond,VA,23225,369990,3,2.5,Belle Heights,1709,,,,216,,Active,,,https://www.redfin.com/VA/Richmond/Belle-Heights/Mozart-2-Car-Garage/home/172661452,NewHomeSource.com,Plan-171826777,N,Y,37.521081,-77.453746
New Construction Plan,,Townhouse,Mozart 1-Car Garage,Richmond,VA,23225,379990,3,2.5,Belle Heights,1916,,,,198,,Active,,,https://www.redfin.com/VA/Richmond/Belle-Heights/Mozart-1-Car-Garage/home/173648572,NewHomeSource.com,Plan-171854007,N,Y,37.521081,-77.453746
PAST SALE,June-7-2019,Single Family Residential,710 Crieff Rd,Richmond,VA,23225,200000,3,2.0,Exeter Meadows,1458,13068,1969,912,137,,Sold,,,https://www.redfin.com/VA/Richmond/710-W-Crieff-Rd-23225/home/55399568,CVRMLS,1913562,N,Y,37.5118395,-77.5130101
PAST SALE,November-8-2019,Townhouse,1255 Boulder Creek Rd,Richmond,VA,23225,255500,3,2.5,Boulder Parke Townehomes,2349,2613,2008,758,109,130,Sold,,,https://www.redfin.com/VA/Richmond/1255-Boulder-Creek-Rd-23225/home/55390651,CVRMLS,1929425,N,Y,37.5184084,-77.5268124
PAST SALE,July-16-2021,Townhouse,1176 Grand Brook Dr,Richmond,VA,23225,220000,3,2.5,Townes At Grand Oaks,1414,1742,2007,142,156,100,Sold,,,https://www.redfin.com/VA/Richmond/1176-Grand-Brook-Dr-23225/home/55389076,CVRMLS,2116621,N,Y,37.5161063,-77.5211743
PAST SALE,July-29-2019,Vacant Land,217 Carnation St,Richmond,VA,23225,35000,,,,,14374,,860,,,Sold,,,https://www.redfin.com/VA/Richmond/217-Carnation-St-23225/home/55401926,CVRMLS,1907060,N,Y,37.500334,-77.516077
PAST SALE,August-16-2021,Single Family Residential,7724 Turf Ln,Richmond,VA,23225,439000,3,2.0,Cherokee Estates,2081,23522,1959,111,211,,Sold,,,https://www.redfin.com/VA/Richmond/7724-Turf-Ln-23225/home/55395807,CVRMLS,2118034,N,Y,37.5509462,-77.5321934
PAST SALE,July-21-2021,Single Family Residential,6005 Wainwright Dr,Richmond,VA,23225,140000,2,1.0,Westover Park,736,9583,1947,137,190,,Sold,,,https://www.redfin.com/VA/Richmond/6005-Wainwright-Dr-23225/home/55399275,CVRMLS,2115840,N,Y,37.5168179,-77.5082726
PAST SALE,July-7-2021,Single Family Residential,3925 Stratford Rd,Richmond,VA,23225,385000,4,3.0,Stratford Hills,2506,26571,1963,151,154,,Sold,,,https://www.redfin.com/VA/Richmond/3925-Stratford-Rd-23225/home/55397077,CVRMLS,2115643,N,Y,37.5500461,-77.5405578
PAST SALE,,Condo/Co-op,2956 Hathaway Rd Unit U806,Richmond,VA,23225,330000,,2.0,,1729,,1972,,191,,,,,https://www.redfin.com/VA/Richmond/2956-Hathaway-Rd-23225/unit-U806/home/55396790,,,N,Y,37.54007,-77.5196469
PAST SALE,September-27-2021,Single Family Residential,6219 Beaufont Hills Ct,Richmond,VA,23225,240000,3,2.5,Beaufont Hills,1374,4356,2002,69,175,,Sold,,,https://www.redfin.com/VA/Richmond/6219-Beaufont-Hills-Ct-23225/home/55388215,CVRMLS,2125976,N,Y,37.507096,-77.5148006
PAST SALE,April-24-2020,Condo/Co-op,5549 Forest Hill Ave,Richmond,VA,23225,157000,2,2.5,Colonial Green Condominiums,1160,871,1982,590,135,207,Sold,,,https://www.redfin.com/VA/Richmond/5549-Forest-Hill-Ave-23225/home/55398342,CVRMLS,2009863,N,Y,37.5275756,-77.5011267
PAST SALE,February-6-2019,Townhouse,1248 Boulder Creek Rd,Richmond,VA,23225,238000,3,2.5,Boulder Parke Townehomes,2349,2178,2008,1033,101,132,Sold,,,https://www.redfin.com/VA/Richmond/1248-Boulder-Creek-Rd-23225/home/55390655,CVRMLS,1837800,N,Y,37.5180846,-77.5270978
PAST SALE,April-30-2021,Single Family Residential,6924 Navaho Rd,Richmond,VA,23225,325000,3,1.5,Stratford Hills,1528,14374,1956,219,213,,Sold,,,https://www.redfin.com/VA/Richmond/6924-Navaho-Rd-23225/home/55396954,CVRMLS,2106692,N,Y,37.540754,-77.5211184
PAST SALE,September-29-2020,Single Family Residential,7703 Granite Hall Ave,Richmond,VA,23225,348000,3,2.0,Cherokee Farms,1551,20908,1959,432,224,,Sold,,,https://www.redfin.com/VA/Richmond/7703-Granite-Hall-Ave-23225/home/55395875,CVRMLS,2026071,N,Y,37.5524816,-77.5322718
PAST SALE,September-14-2021,Single Family Residential,1217 Leicester Rd,Richmond,VA,23225,313750,3,2.0,ALL OTHERS AREA 152,1703,,1969,82,184,,Sold,,,https://www.redfin.com/VA/Richmond/1217-Leicester-Rd-23225/home/55398952,REINMLS,10401016,N,Y,37.5211419,-77.49724
PAST SALE,August-27-2021,Single Family Residential,1109 Pierpont Rd,Richmond,VA,23225,310000,5,3.0,Worthington Farms,1809,16117,1965,100,171,,Sold,,,https://www.redfin.com/VA/Richmond/1109-Pierpont-Rd-23225/home/55402985,CVRMLS,2121168,N,Y,37.4912342,-77.5122967
PAST SALE,October-19-2021,Single Family Residential,1901 Westover Hills Blvd,Richmond,VA,23225,599000,4,3.5,Westover Hills,2635,11325,1939,47,227,,Sold,,,https://www.redfin.com/VA/Richmond/1901-Westover-Hills-Blvd-23225/home/55432211,CVRMLS,2127163,N,Y,37.5258025,-77.4863967
PAST SALE,June-9-2021,Single Family Residential,3210 Forest Hill Ave,Richmond,VA,23225,370000,4,1.5,West Manchester,1656,4791,1924,179,223,,Sold,,,https://www.redfin.com/VA/Richmond/3210-Forest-Hill-Ave-23225/home/55430969,CVRMLS,2112734,N,Y,37.5147828,-77.4678297
PAST SALE,December-11-2019,Single Family Residential,126 W 22nd St,Richmond,VA,23225,155000,3,2.0,,1409,3484,2013,725,110,,Sold,,,https://www.redfin.com/VA/Richmond/126-W-22nd-St-23225/home/55429037,CVRMLS,1934043,N,Y,37.5181296,-77.4542643
PAST SALE,December-3-2019,Single Family Residential,3720 Brookside Rd,Richmond,VA,23225,236000,2,1.0,Brookside,1177,9147,1929,733,201,,Sold,,,https://www.redfin.com/VA/Richmond/3720-Brookside-Rd-23225/home/55431393,CVRMLS,1931067,N,Y,37.5147927,-77.4733013
PAST SALE,September-17-2021,Condo/Co-op,1400 Stansbury Ave,Richmond,VA,23225,170000,3,1.5,Derwent,864,13503,1956,79,197,,Sold,,,https://www.redfin.com/VA/Richmond/1400-Stansbury-Ave-23225/home/55402952,CVRMLS,2124115,N,Y,37.4889972,-77.5049125
PAST SALE,July-26-2021,Single Family Residential,5606 Old Willow Ct,Richmond,VA,23225,300000,2,1.0,Willow Cove,1181,,1930,132,254,,Sold,,,https://www.redfin.com/VA/Richmond/5606-Old-Willow-Ct-23225/home/55398676,CVRMLS,2117274,N,Y,37.5266497,-77.5077389
PAST SALE,July-26-2021,Single Family Residential,7636 Piney Branch Rd,Richmond,VA,23225,451000,3,2.5,Cherokee Estates,2427,33541,1960,132,186,,Sold,,,https://www.redfin.com/VA/Richmond/7636-Piney-Branch-Rd-23225/home/55395843,CVRMLS,2115850,N,Y,37.5521091,-77.5307041
PAST SALE,May-11-2020,Townhouse,7502 Potters Ct,Richmond,VA,23225,196000,2,2.5,Southampton Hills,1340,2178,1985,573,146,225,Sold,,,https://www.redfin.com/VA/Richmond/7502-Potters-Ct-23225/home/55397703,CVRMLS,2007868,N,Y,37.5425239,-77.5325966
PAST SALE,July-23-2021,Single Family Residential,907 Halsey Ln,Richmond,VA,23225,166000,3,1.0,Norwood Park,978,9147,1945,135,170,,Sold,,,https://www.redfin.com/VA/Richmond/907-Halsey-Ln-23225/home/55398871,CVRMLS,2113062,N,Y,37.5155747,-77.5049909
PAST SALE,January-4-2019,Single Family Residential,806 Forest View Dr,Richmond,VA,23225,150000,3,1.0,Forest View Heights,980,5662,1950,1066,153,,Sold,,,https://www.redfin.com/VA/Richmond/806-Forest-View-Dr-23225/home/55434225,CVRMLS,1832142,N,Y,37.5161787,-77.4919641
PAST SALE,June-11-2021,Single Family Residential,3046 Kenmore Rd,Richmond,VA,23225,460000,3,2.5,Stratford Hills,2099,35719,1979,177,219,,Sold,,,https://www.redfin.com/VA/Richmond/3046-Kenmore-Rd-23225/home/55395541,CVRMLS,2112192,N,Y,37.5400485,-77.5398412
PAST SALE,April-14-2021,Condo/Co-op,2956 Hathaway Rd Unit U104,Richmond,VA,23225,224500,2,2.0,Hathaway Tower Condominiums,1561,25264,1972,235,144,571,Sold,,,https://www.redfin.com/VA/Richmond/2956-Hathaway-Rd-23225/unit-U104/home/55396965,CVRMLS,2100075,N,Y,37.54007,-77.5196469
PAST SALE,April-16-2021,Townhouse,1160 Grand Brook Dr,Richmond,VA,23225,195000,3,2.5,Townes At Grand Oaks,1414,1742,2008,233,138,100,Sold,,,https://www.redfin.com/VA/Richmond/1160-Grand-Brook-Dr-23225/home/55389053,CVRMLS,2100007,N,Y,37.5158096,-77.5210848
PAST SALE,September-17-2021,Single Family Residential,2806 Riverside Dr,Richmond,VA,23225,500000,3,2.5,Woodland Heights,2384,32234,1922,79,210,,Sold,,,https://www.redfin.com/VA/Richmond/2806-Riverside-Dr-23225/home/55430318,CVRMLS,2127540,N,Y,37.523198,-77.4659888
PAST SALE,July-1-2021,Single Family Residential,5922 Osoge Rd,Richmond,VA,23225,325000,3,2.0,Shirley Hills,1523,15681,1957,157,213,,Sold,,,https://www.redfin.com/VA/Richmond/5922-Osoge-Rd-23225/home/55398158,CVRMLS,2115327,N,Y,37.5323133,-77.5047342
PAST SALE,June-24-2021,Vacant Land,906 W 31st St,Richmond,VA,23225,90000,,,Woodland Heights,,4791,,164,,,Sold,,,https://www.redfin.com/VA/Richmond/906-W-31st-St-23225/home/175183945,CVRMLS,2115180,N,Y,37.5212831,-77.4684011
PAST SALE,April-30-2019,Townhouse,1136 Grand Brook Dr,Richmond,VA,23225,180000,3,2.5,Townes At Grand Oaks,1426,2613,2008,950,126,100,Sold,,,https://www.redfin.com/VA/Richmond/1136-Grand-Brook-Dr-23225/home/55389031,CVRMLS,1902812,N,Y,37.5154252,-77.5209167
PAST SALE,May-28-2019,Townhouse,1307 Boulder Creek Rd,Richmond,VA,23225,235000,4,3.5,Boulder Parke Townehomes,2349,2178,2009,922,100,160,Sold,,,https://www.redfin.com/VA/Richmond/1307-Boulder-Creek-Rd-23225/home/55390639,CVRMLS,1905430,N,Y,37.518667,-77.526926
PAST SALE,October-20-2021,Single Family Residential,5200 Sheridan Ln,Richmond,VA,23225,195000,3,2.0,Forest View Heights,1365,18730,1953,46,143,,Sold,,,https://www.redfin.com/VA/Richmond/5200-Sheridan-Ln-23225/home/55399787,CVRMLS,2122275,N,Y,37.5144178,-77.4940924
PAST SALE,January-14-2021,Condo/Co-op,4030 Forest Hill Ave,Richmond,VA,23225,90000,2,1.0,Forest Oaks Condominiums,815,,1961,325,110,416,Sold,,,https://www.redfin.com/VA/North-Chesterfield/Forest-Hill-Ave-23225/home/147544052,CVRMLS,2036930,N,Y,37.5295086,-77.5026108
PAST SALE,,Single Family Residential,1734 Bloomfield Rd,Richmond,VA,23225,60000,,,,,55321,,,,,,,,https://www.redfin.com/VA/Richmond/1734-Bloomfield-Rd-23225/home/59540731,,,N,Y,37.522839,-77.54187
PAST SALE,October-15-2021,Single Family Residential,1007 Hill Top Dr,Richmond,VA,23225,186350,3,1.0,Holmes Heights,864,8712,1950,51,216,,Sold,,,https://www.redfin.com/VA/Richmond/1007-Hill-Top-Dr-23225/home/55433837,CVRMLS,2125057,N,Y,37.5191783,-77.4930731
PAST SALE,July-29-2021,Single Family Residential,3105 Midlothian Tpke,Richmond,VA,23224,125000,3,2.0,West Manchester,1727,8276,1920,129,72,,Sold,,,https://www.redfin.com/VA/Richmond/3105-Midlothian-Tpke-23224/home/55430720,CVRMLS,2116092,N,Y,37.5120151,-77.4656263
PAST SALE,October-16-2020,Single Family Residential,4702 Riverside Dr,Richmond,VA,23225,700000,4,2.5,,2982,15681,1949,415,235,,Sold,,,https://www.redfin.com/VA/Richmond/4702-Riverside-Dr-23225/home/55431836,CVRMLS,2023716,N,Y,37.5267643,-77.4816021
PAST SALE,,Single Family Residential,7212 Buggy Pl,Richmond,VA,23225,220000,3,2.0,,1640,11500,2001,,134,,,,,https://www.redfin.com/VA/Richmond/7212-Buggy-Pl-23225/home/59586395,,,N,Y,37.4808737,-77.5257322
PAST SALE,July-7-2021,Single Family Residential,7741 Marilea Rd,Richmond,VA,23225,436000,4,3.5,Stratford Hills,2771,24393,1958,151,157,,Sold,,,https://www.redfin.com/VA/Richmond/7741-Marilea-Rd-23225/home/55397449,CVRMLS,2116343,N,Y,37.5462856,-77.5364373
PAST SALE,May-4-2020,Single Family Residential,5625 Erich Ct,Richmond,VA,23225,199900,3,1.5,Westover South,1588,12632,1967,580,126,,Sold,,,https://www.redfin.com/VA/Richmond/5625-Erich-Ct-23225/home/55400295,CVRMLS,2003203,N,Y,37.5124932,-77.5035013
PAST SALE,November-13-2020,Single Family Residential,7329 Longview Ct,Richmond,VA,23225,350000,3,2.5,Rockfalls,2000,42253,1986,387,175,,Sold,,,https://www.redfin.com/VA/Richmond/7329-Longview-Ct-23225/home/55396492,CVRMLS,2031254,N,Y,37.5476143,-77.5247019
PAST SALE,July-15-2021,Single Family Residential,5619 Erich Ct,Richmond,VA,23225,231500,3,1.5,Westover South,1581,19166,1967,143,146,,Sold,,,https://www.redfin.com/VA/Richmond/5619-Erich-Ct-23225/home/55400296,CVRMLS,2116519,N,Y,37.5123624,-77.5033332
PAST SALE,July-7-2021,Townhouse,6716 N Grand Brook Cir,Richmond,VA,23225,220000,3,2.5,Townes At Grand Oaks,1348,1742,2007,151,163,100,Sold,,,https://www.redfin.com/VA/Richmond/6716-N-Grand-Brook-Cir-23225/home/55388853,CVRMLS,2116299,N,Y,37.5171229,-77.5199425
PAST SALE,September-29-2021,Townhouse,2128 Boro Ridge St Unit HA,Richmond,VA,23225,369275,3,2.5,Belle Heights,1906,,2021,67,194,140,Sold,,,https://www.redfin.com/VA/North-Chesterfield/2128-Boro-Ridge-ST-23225/unit-HA/home/174571683,CVRMLS,2105368,N,Y,37.5374438,-77.5275463
PAST SALE,June-19-2020,Single Family Residential,300 W 26th St,Richmond,VA,23225,300000,4,2.0,Woodland Heights,1452,7840,1947,534,207,,Sold,,,https://www.redfin.com/VA/Richmond/300-W-26th-St-23225/home/55429950,CVRMLS,2013200,N,Y,37.5178708,-77.4591142
PAST SALE,July-2-2021,Single Family Residential,6216 Beaufont Hills Ct,Richmond,VA,23225,250000,3,2.5,Beaufont Hills,1568,3484,2002,156,159,,Sold,,,https://www.redfin.com/VA/Richmond/6216-Beaufont-Hills-Ct-23225/home/55388212,CVRMLS,2112274,N,Y,37.5074052,-77.5150167
PAST SALE,December-29-2020,Single Family Residential,306 W 26th St,Richmond,VA,23225,275000,3,1.5,Woodland Heights,1440,6969,1920,341,191,,Sold,,,https://www.redfin.com/VA/Richmond/306-W-26th-St-23225/home/55429951,CVRMLS,2033186,N,Y,37.5181365,-77.4592564
PAST SALE,July-29-2021,Single Family Residential,3021 Landria Dr,Richmond,VA,23225,399950,3,2.5,Windsorview,2106,15681,1958,129,190,,Sold,,,https://www.redfin.com/VA/Richmond/3021-Landria-Dr-23225/home/55397206,CVRMLS,2116489,N,Y,37.53985,-77.516155
PAST SALE,December-7-2020,Single Family Residential,4017 Crutchfield St,Richmond,VA,23225,307000,3,1.5,Forest Hill Park Annex,1536,12632,1949,363,200,,Sold,,,https://www.redfin.com/VA/Richmond/4017-Crutchfield-St-23225/home/55432460,CVRMLS,2033044,N,Y,37.5121129,-77.4768969
PAST SALE,August-2-2019,Single Family Residential,5223 Devonshire Rd,Richmond,VA,23225,425000,3,2.0,Westover Hills,2734,,1938,856,155,,Sold,,,https://www.redfin.com/VA/Richmond/5223-Devonshire-Rd-23225/home/55433519,CVRMLS,1917979,N,Y,37.5256636,-77.4942828
PAST SALE,June-12-2020,Single Family Residential,7726 Granite Hall Ave,Richmond,VA,23225,261750,3,2.0,Cherokee Estates,1824,16552,1959,541,144,,Sold,,,https://www.redfin.com/VA/Richmond/7726-Granite-Hall-Ave-23225/home/55396279,CVRMLS,2012518,N,Y,37.5525964,-77.5333468
PAST SALE,February-26-2020,Single Family Residential,6628 Jahnke Rd,Richmond,VA,23225,160000,4,2.0,Pemberton Estates,1337,16117,1948,648,120,,Sold,,,https://www.redfin.com/VA/Richmond/6628-Jahnke-Rd-23225/home/55399091,CVRMLS,1936844,N,Y,37.5182632,-77.5192929
PAST SALE,August-24-2021,Single Family Residential,212 W 29th St,Richmond,VA,23225,365000,4,2.0,Fonticello Park,1680,7405,1930,103,217,,Sold,,,https://www.redfin.com/VA/Richmond/212-W-29th-St-23225/home/55430291,CVRMLS,2119941,N,Y,37.516121,-77.4622746
PAST SALE,June-23-2021,Single Family Residential,5816 Forest Hill Ave,Richmond,VA,23225,315000,2,1.0,Granite Hills,1192,19602,1940,165,264,,Sold,,,https://www.redfin.com/VA/Richmond/5816-Forest-Hill-Ave-23225/home/55398229,CVRMLS,2113797,N,Y,37.5307016,-77.5042387
PAST SALE,July-7-2021,Single Family Residential,2404 Semmes Ave,Richmond,VA,23225,240000,3,2.0,Woodland Heights,1926,6969,1919,151,125,,Sold,,,https://www.redfin.com/VA/Richmond/2404-Semmes-Ave-23225/home/55429535,CVRMLS,2115229,N,Y,37.5201443,-77.4580985
PAST SALE,April-12-2019,Single Family Residential,819 W 47th St,Richmond,VA,23225,247500,4,2.0,Forest Hill Terrace,1366,7405,1942,968,181,,Sold,,,https://www.redfin.com/VA/Richmond/819-W-47th-St-23225/home/55434620,CVRMLS,1901779,N,Y,37.5163512,-77.4868629
PAST SALE,October-29-2019,Single Family Residential,16 W Broad Rock Rd,Richmond,VA,23225,115000,2,1.0,Hockadays Plan,774,2613,1939,768,149,,Sold,,,https://www.redfin.com/VA/Richmond/16-W-Broad-Rock-Rd-23225/home/55431013,CVRMLS,1926178,N,Y,37.5131517,-77.4640349
PAST SALE,September-6-2019,Single Family Residential,6623 Forest Hill Ave,Richmond,VA,23225,215000,3,2.0,Granite Hills,1486,20037,1953,821,145,,Sold,,,https://www.redfin.com/VA/Richmond/6623-Forest-Hill-Ave-23225/home/55397732,CVRMLS,1920972,N,Y,37.5366144,-77.516146
PAST SALE,October-7-2020,Single Family Residential,5121 Sylvan Rd,Richmond,VA,23225,435138,4,2.0,Westover Hills,1857,9147,1952,424,234,,Sold,,,https://www.redfin.com/VA/Richmond/5121-Sylvan-Rd-23225/home/55433593,CVRMLS,2025384,N,Y,37.5253634,-77.4918633
PAST SALE,April-10-2020,Single Family Residential,5426 Dorchester Rd,Richmond,VA,23225,410000,3,2.0,Westover Hills,1740,19166,1952,604,236,,Sold,,,https://www.redfin.com/VA/Richmond/5426-Dorchester-Rd-23225/home/55433211,CVRMLS,2003665,N,Y,37.529917,-77.4964783
PAST SALE,May-16-2019,Single Family Residential,6806 Westcott Dr,Richmond,VA,23225,205000,2,2.0,WESTOVER GARDENS,996,4791,1983,934,206,,Sold,,,https://www.redfin.com/VA/Richmond/6806-Westcott-Dr-23225/home/55398609,BRIGHT MLS,VARC100186,N,Y,37.5215383,-77.5231871
PAST SALE,October-2-2020,Single Family Residential,123 W 30th St,Richmond,VA,23225,280000,2,1.5,Fonticello Park,974,4356,1939,429,287,,Sold,,,https://www.redfin.com/VA/Richmond/123-W-30th-St-23225/home/55430293,CVRMLS,2024671,N,Y,37.5151228,-77.462533
PAST SALE,May-28-2020,Single Family Residential,215 Lasalle Dr,Richmond,VA,23225,192000,4,2.0,Beaufont Hills,1188,12632,1957,556,162,,Sold,,,https://www.redfin.com/VA/Richmond/215-Lasalle-Dr-23225/home/55400126,CVRMLS,2010951,N,Y,37.5086373,-77.5106806
PAST SALE,October-8-2021,Single Family Residential,6108 Westower Dr,Richmond,VA,23225,319900,4,2.5,Claremont,2032,,1963,58,157,,Sold,,,https://www.redfin.com/VA/Richmond/6108-Westower-Dr-23225/home/55398665,CVRMLS,2120890,N,Y,37.5237868,-77.5093502
PAST SALE,September-24-2021,Single Family Residential,3503 Moody Ave,Richmond,VA,23225,320000,3,2.5,West Manchester,1500,5227,1919,72,213,,Sold,,,https://www.redfin.com/VA/Richmond/3503-Moody-Ave-23225/home/55431387,CVRMLS,2113729,N,Y,37.5122717,-77.4711159
PAST SALE,November-16-2020,Single Family Residential,108 Dundee Ave,Richmond,VA,23225,319950,3,1.5,,1761,5662,1928,384,182,,Sold,,,https://www.redfin.com/VA/Richmond/108-Dundee-Ave-23225/home/55431391,CVRMLS,2027332,N,Y,37.5123834,-77.4707238
PAST SALE,January-7-2019,Single Family Residential,4407 Stonewall Ave,Richmond,VA,23225,307000,4,3.0,Forest Hill Park,1774,6098,1938,1063,173,,Sold,,,https://www.redfin.com/VA/Richmond/4407-Stonewall-Ave-23225/home/55432292,CVRMLS,1839216,N,Y,37.5215099,-77.480029
PAST SALE,October-22-2020,Single Family Residential,4309 New Kent Ave,Richmond,VA,23225,430000,3,2.5,Riverside Park,1936,6098,2009,409,222,,Sold,,,https://www.redfin.com/VA/Richmond/4309-New-Kent-Ave-23225/home/55389151,CVRMLS,2027275,N,Y,37.5219804,-77.478286
PAST SALE,September-16-2019,Single Family Residential,405 W 24th St,Richmond,VA,23225,275000,3,3.0,Woodland Heights,1488,4791,1920,811,185,,Sold,,,https://www.redfin.com/VA/Richmond/405-W-24th-St-23225/home/55428998,CVRMLS,1923097,N,Y,37.5199507,-77.4570557
PAST SALE,January-11-2021,Single Family Residential,3100 Cottingham Rd,Richmond,VA,23225,334500,4,3.0,Stratford Hills,2586,19166,1960,328,129,,Sold,,,https://www.redfin.com/VA/Richmond/3100-Cottingham-Rd-23225/home/55395438,CVRMLS,2030768,N,Y,37.5413462,-77.5370196
PAST SALE,September-22-2021,Single Family Residential,3208 Forest Hill Ave,Richmond,VA,23225,381501,3,1.5,West Manchester,1416,4791,1924,74,269,,Sold,,,https://www.redfin.com/VA/Richmond/3208-Forest-Hill-Ave-23225/home/55430968,CVRMLS,2125708,N,Y,37.5147821,-77.4677119
PAST SALE,August-30-2021,Single Family Residential,6016 Glenway Dr,Richmond,VA,23225,207000,3,1.0,Westover Park,1076,,1949,97,192,,Sold,,,https://www.redfin.com/VA/Richmond/6016-Glenway-Dr-23225/home/55398936,CVRMLS,2121830,N,Y,37.519022,-77.5085262
PAST SALE,December-4-2020,Single Family Residential,1301 Irby Dr,Richmond,VA,23225,245000,3,2.0,Raleigh Court,1155,10018,1947,366,212,,Sold,,,https://www.redfin.com/VA/Richmond/1301-Irby-Dr-23225/home/55399145,CVRMLS,2029578,N,Y,37.5212471,-77.4989873
PAST SALE,October-8-2020,Single Family Residential,3112 Forest Hill Ave,Richmond,VA,23225,425000,3,3.0,,2263,8276,1925,423,188,,Sold,,,https://www.redfin.com/VA/Richmond/3112-Forest-Hill-Ave-23225/home/55430815,CVRMLS,2024545,N,Y,37.5143928,-77.46564
PAST SALE,September-23-2021,Single Family Residential,5611 Lipton Rd,Richmond,VA,23225,255000,4,2.0,Westover South,1576,8712,1968,73,162,,Sold,,,https://www.redfin.com/VA/Richmond/5611-Lipton-Rd-23225/home/55400282,CVRMLS,2125710,N,Y,37.511458,-77.5020676
PAST SALE,December-14-2018,Single Family Residential,620 Faye St,Richmond,VA,23225,153000,3,1.5,Westover South,1193,13503,1970,1087,128,,Sold,,,https://www.redfin.com/VA/Richmond/620-Faye-St-23225/home/55400036,CVRMLS,1836005,N,Y,37.5131034,-77.4987633
PAST SALE,August-28-2020,Single Family Residential,5114 Sylvan Rd,Richmond,VA,23225,359500,3,1.5,Westover Hills,1609,6534,1948,464,223,,Sold,,,https://www.redfin.com/VA/Richmond/5114-Sylvan-Rd-23225/home/55433624,CVRMLS,2021264,N,Y,37.524811,-77.4916169
PAST SALE,June-30-2020,Single Family Residential,1401 Braeside Dr,Richmond,VA,23225,320000,3,1.5,Westover Gardens,2133,12196,1950,523,150,,Sold,,,https://www.redfin.com/VA/Richmond/1401-Braeside-Dr-23225/home/55398517,CVRMLS,2015874,N,Y,37.5194557,-77.5221038
PAST SALE,June-14-2019,Single Family Residential,5020 Sylvan Rd,Richmond,VA,23225,365000,4,2.0,WESTOVER HILLS,1854,6600,1949,905,197,,Sold,,,https://www.redfin.com/VA/Richmond/5020-Sylvan-Rd-23225/home/55433697,BRIGHT MLS,VARC100214,N,Y,37.5235725,-77.4893093
PAST SALE,May-5-2020,Single Family Residential,5202 Caledonia Rd,Richmond,VA,23225,575000,4,3.5,Westover Hills,2338,15245,1940,579,246,,Sold,,,https://www.redfin.com/VA/Richmond/5202-Caledonia-Rd-23225/home/55433408,CVRMLS,2007870,N,Y,37.5267523,-77.4914151
PAST SALE,April-1-2020,Single Family Residential,5 Dundee Ave,Richmond,VA,23225,166000,3,1.0,West Manchester,1430,8276,1922,613,116,,Sold,,,https://www.redfin.com/VA/Richmond/5-Dundee-Ave-23225/home/55431509,CVRMLS,2003345,N,Y,37.511625,-77.4692396
PAST SALE,December-7-2018,Single Family Residential,507 Erich Rd,Richmond,VA,23225,167000,3,1.5,Westover South,1576,10018,1968,1094,106,,Sold,,,https://www.redfin.com/VA/Richmond/507-Erich-Rd-23225/home/55400314,CVRMLS,1835727,N,Y,37.5123272,-77.5018548
PAST SALE,May-30-2019,Single Family Residential,4711 King William Rd,,VA,23225,460000,3,2.5,Westover Hills,,,1928,920,,,Sold,,,https://www.redfin.com/VA/Richmond/4711-King-William-Rd-23225/home/55433565,CVRMLS,1918168,N,Y,37.5234945,-77.4859038
PAST SALE,August-19-2021,Single Family Residential,4316 New Kent Ave,Richmond,VA,23225,475000,3,2.5,Forest Hill Park,1698,6098,1925,108,280,,Sold,,,https://www.redfin.com/VA/Richmond/4316-New-Kent-Ave-23225/home/55431699,CVRMLS,2121065,N,Y,37.5217394,-77.4788163
PAST SALE,May-11-2021,Single Family Residential,2401 Bainbridge St,Richmond,VA,23225,245000,3,1.5,Swansboro,1600,8276,1922,208,153,,Sold,,,https://www.redfin.com/VA/Richmond/2401-Bainbridge-St-23225/home/55429569,CVRMLS,2106831,N,Y,37.5170604,-77.4553479
PAST SALE,October-24-2019,Single Family Residential,822 W 28th St,Richmond,VA,23225,511000,4,3.5,Woodland Heights,2425,13939,1937,773,211,,Sold,,,https://www.redfin.com/VA/Richmond/822-W-28th-St-23225/home/55430328,CVRMLS,1929153,N,Y,37.5227941,-77.4649874
PAST SALE,September-23-2021,Single Family Residential,1006 W 47th St,Richmond,VA,23225,290000,4,1.0,Forest Hill Terrace,1784,7405,1939,73,163,,Sold,,,https://www.redfin.com/VA/Richmond/1006-W-47th-St-23225/home/55434255,CVRMLS,2124074,N,Y,37.5175916,-77.4870689
PAST SALE,April-19-2019,Single Family Residential,5502 Dorchester Rd,Richmond,VA,23225,325000,3,2.0,Westover Hills,1334,12196,1952,961,244,,Sold,,,https://www.redfin.com/VA/Richmond/5502-Dorchester-Rd-23225/home/55433085,CVRMLS,1908621,N,Y,37.5314149,-77.4962991
PAST SALE,December-9-2019,Single Family Residential,1622 Limerick Dr,Richmond,VA,23225,252500,3,2.0,Westover Farms,1740,13939,1961,727,145,,Sold,,,https://www.redfin.com/VA/Richmond/1622-Limerick-Dr-23225/home/55398356,CVRMLS,1935541,N,Y,37.52598,-77.5022132
PAST SALE,March-13-2020,Condo/Co-op,4050 Forest Hill Ave Unit U21,Richmond,VA,23225,72000,2,1.0,Forest Oaks Condominiums,718,165528,1961,632,100,360,Sold,,,https://www.redfin.com/VA/Richmond/4050-Forest-Hill-Ave-23225/unit-U21/home/55432544,CVRMLS,2002114,N,Y,37.5167502,-77.4763757
PAST SALE,January-22-2019,Single Family Residential,7612 Piney Branch Rd,Richmond,VA,23225,323000,3,2.5,Cherokee Farms,2717,16552,1960,1048,119,,Sold,,,https://www.redfin.com/VA/Richmond/7612-Piney-Branch-Rd-23225/home/55395850,CVRMLS,1837679,N,Y,37.5520858,-77.5297187
PAST SALE,August-26-2021,Townhouse,1152 Grand Brook Dr,Richmond,VA,23225,230000,3,2.5,Townes At Grand Oaks,1426,2613,2007,101,161,100,Sold,,,https://www.redfin.com/VA/Richmond/1152-Grand-Brook-Dr-23225/home/55389057,CVRMLS,2122066,N,Y,37.5156999,-77.5210176
PAST SALE,October-26-2020,Single Family Residential,401 Deter Rd,Richmond,VA,23225,210000,3,2.0,Keaneland Farms,1466,13068,1969,405,143,,Sold,,,https://www.redfin.com/VA/Richmond/401-Deter-Rd-23225/home/55400131,CVRMLS,2027348,N,Y,37.5086548,-77.5150153
PAST SALE,June-2-2021,Single Family Residential,5501 Bondsor Ln,Richmond,VA,23225,286500,3,1.0,Raleigh Court,1423,11325,1947,186,201,,Sold,,,https://www.redfin.com/VA/Richmond/5501-Bondsor-Ln-23225/home/55399208,CVRMLS,2109935,N,Y,37.5192134,-77.5003875
PAST SALE,January-23-2020,Condo/Co-op,7553 Beauchamp Ct,Richmond,VA,23225,230000,2,3.5,Southampton Hills,2010,2178,1985,682,114,225,Sold,,,https://www.redfin.com/VA/Richmond/7553-Beauchamp-Ct-23225/home/55397684,CVRMLS,1938846,N,Y,37.5421088,-77.5329325
PAST SALE,May-8-2020,Single Family Residential,214 Bland St,Richmond,VA,23225,260000,3,1.5,,1245,10018,1929,576,209,,Sold,,,https://www.redfin.com/VA/Richmond/214-Bland-St-23225/home/55431796,CVRMLS,2011270,N,Y,37.5135255,-77.4728637
PAST SALE,May-28-2021,Single Family Residential,7708 Marilea Rd,Richmond,VA,23225,530000,5,3.0,Stratford Hills,3042,26136,1955,191,174,,Sold,,,https://www.redfin.com/VA/Richmond/7708-Marilea-Rd-23225/home/55396542,CVRMLS,2109322,N,Y,37.5467064,-77.535004
PAST SALE,May-28-2021,Single Family Residential,918 Forest View Dr,,VA,23225,250000,2,1.0,Forest View Heights,,,1951,191,,,Sold,,,https://www.redfin.com/VA/Richmond/918-Forest-View-Dr-23225/home/55433763,CVRMLS,2118622,N,Y,37.5180635,-77.4925242
PAST SALE,October-7-2021,Single Family Residential,6822 Westcott Dr,Richmond,VA,23225,390000,4,3.0,Westover Gardens,2362,15245,1966,59,165,,Sold,,,https://www.redfin.com/VA/Richmond/6822-Westcott-Dr-23225/home/55398640,CVRMLS,2124900,N,Y,37.5212636,-77.5236717
PAST SALE,July-31-2020,Single Family Residential,7718 Granite Hall Ave,Richmond,VA,23225,361718,3,2.0,Stratford Hills,2062,16552,1960,492,175,,Sold,,,https://www.redfin.com/VA/Richmond/7718-Granite-Hall-Ave-23225/home/55396278,CVRMLS,2019096,N,Y,37.5527697,-77.5329549
PAST SALE,July-29-2021,Single Family Residential,724 Mcdowell Rd,Richmond,VA,23225,185000,3,1.5,Warwick Acres,1061,9147,1965,129,174,,Sold,,,https://www.redfin.com/VA/Richmond/724-McDowell-Rd-23225/home/55402361,CVRMLS,2119458,N,Y,37.4958681,-77.5143989
PAST SALE,January-29-2021,Single Family Residential,5203 Bondsor Ln,Richmond,VA,23225,292000,3,2.0,Forest View Heights,1321,42688,1969,310,221,,Sold,,,https://www.redfin.com/VA/Richmond/5203-Bondsor-Ln-23225/home/55399291,CVRMLS,2037484,N,Y,37.5205133,-77.4955822
PAST SALE,June-5-2020,Single Family Residential,5347 Forest Hill Ave,Richmond,VA,23225,205000,3,1.0,Westover Terrace,1152,13503,1959,548,178,,Sold,,,https://www.redfin.com/VA/Richmond/5347-Forest-Hill-Ave-23225/home/55398560,CVRMLS,2013536,N,Y,37.5259534,-77.4981361
PAST SALE,August-18-2021,Single Family Residential,5312 Sylvan Rd,Richmond,VA,23225,430000,3,2.5,Westover Hills,1629,13503,1992,109,264,,Sold,,,https://www.redfin.com/VA/Richmond/5312-Sylvan-Rd-23225/home/55433438,CVRMLS,2119996,N,Y,37.527389,-77.4961311
PAST SALE,July-16-2019,Condo/Co-op,4018 Forest Hl #1,Richmond,VA,23225,83000,2,1.0,Forest Oaks Condominiums,687,,1961,873,121,350,Sold,,,https://www.redfin.com/VA/Richmond/4018-Forest-Hill-Ave-23225/unit-1/home/163218186,CVRMLS,1912636,N,Y,37.516825,-77.475618
PAST SALE,September-2-2020,Single Family Residential,4408 New Kent Ave,Richmond,VA,23225,341000,3,1.0,Forest Hill Park,1306,11325,1950,459,261,,Sold,,,https://www.redfin.com/VA/Richmond/4408-New-Kent-Ave-23225/home/55432272,CVRMLS,2021559,N,Y,37.5221945,-77.4798993
PAST SALE,October-19-2020,Single Family Residential,5125 Dorchester Rd,Richmond,VA,23225,259000,4,2.0,Westover Court,1365,10018,1942,412,190,,Sold,,,https://www.redfin.com/VA/Richmond/5125-Dorchester-Rd-23225/home/55434113,CVRMLS,2027041,N,Y,37.5235621,-77.4944733
PAST SALE,September-29-2020,Single Family Residential,7649 Granite Hall Ave,Richmond,VA,23225,381600,4,2.5,Cherokee Farms,2098,18295,1962,432,182,,Sold,,,https://www.redfin.com/VA/Richmond/7649-Granite-Hall-Ave-23225/home/55395899,CVRMLS,2024507,N,Y,37.5534809,-77.5308833
PAST SALE,September-7-2021,Single Family Residential,4914 Evelyn Byrd Rd,Richmond,VA,23225,510000,4,2.5,Westover Hills,2624,11761,1950,89,194,,Sold,,,https://www.redfin.com/VA/Richmond/4914-Evelyn-Byrd-Rd-23225/home/55432241,CVRMLS,2121440,N,Y,37.5262324,-77.4850525
PAST SALE,August-16-2021,Townhouse,6708 N Grand Brook Cir,Richmond,VA,23225,225500,3,2.5,Townes At Grand Oaks,1360,1742,2007,111,166,100,Sold,,,https://www.redfin.com/VA/Richmond/6708-N-Grand-Brook-Cir-23225/home/55388859,CVRMLS,2121054,N,Y,37.5171023,-77.5197966
PAST SALE,September-23-2021,Single Family Residential,7206 Elkhardt Rd,North Chesterfield,VA,23225,208000,3,1.0,Southaven,1040,11325,1960,73,200,,Sold,,,https://www.redfin.com/VA/Richmond/7206-Elkhardt-Rd-23225/home/59544365,CVRMLS,2124144,N,Y,37.4858315,-77.5279718
PAST SALE,September-8-2020,Single Family Residential,517 W 21st St,Richmond,VA,23225,255000,2,1.0,Bellevue,900,5662,1920,453,283,,Sold,,,https://www.redfin.com/VA/Richmond/517-W-21st-St-23225/home/55428805,CVRMLS,2023648,N,Y,37.5226518,-77.4547573
PAST SALE,December-18-2020,Townhouse,1316 Boulder Creek Rd,Richmond,VA,23225,265000,3,2.5,Boulder Parke Townehomes,2232,2178,2008,352,119,133,Sold,,,https://www.redfin.com/VA/Richmond/1316-Boulder-Creek-Rd-23225/home/55390661,CVRMLS,2029142,N,Y,37.5189548,-77.5274903
PAST SALE,September-24-2021,Townhouse,2121 Tobacco Mill St Unit JA,Richmond,VA,23225,365690,3,3.0,Belle Heights,1920,,2021,72,190,140,Sold,,,https://www.redfin.com/VA/North-Chesterfield/2121-Tobacco-Mill-ST-23225/unit-JA/home/174644077,CVRMLS,2106084,N,Y,37.5374438,-77.5275463
PAST SALE,May-26-2020,Single Family Residential,5600 Willow Creek Ln,Richmond,VA,23225,315000,2,2.0,Willow Creek,1685,10454,1985,558,187,,Sold,,,https://www.redfin.com/VA/Richmond/5600-Willow-Creek-Ln-23225/home/55398473,CVRMLS,2012226,N,Y,37.5273867,-77.5053941
PAST SALE,March-28-2019,Single Family Residential,2620 Lansdale Rd,Richmond,VA,23225,330500,3,2.5,Stratford Hills,2082,22215,1984,983,159,,Sold,,,https://www.redfin.com/VA/Richmond/2620-Lansdale-Rd-23225/home/55395742,CVRMLS,1902063,N,Y,37.5336936,-77.5444543
PAST SALE,May-29-2020,Single Family Residential,7468 Wyandotte Dr,Richmond,VA,23225,351200,4,3.0,Cherokee Estates,2478,,1961,555,142,,Sold,,,https://www.redfin.com/VA/Richmond/7468-Wyandotte-Dr-23225/home/55396507,CVRMLS,2011422,N,Y,37.5483382,-77.5272551
PAST SALE,December-31-2018,Single Family Residential,2608 Hargrove St,Richmond,VA,23225,70000,2,1.0,Hollands Addition,1346,11761,1920,1070,52,,Sold,,,https://www.redfin.com/VA/Richmond/2608-Hargrove-St-23225/home/55429940,CVRMLS,1841380,N,Y,37.5171677,-77.4588584
PAST SALE,February-20-2019,Single Family Residential,6554 Balsam Rd,Richmond,VA,23225,153000,3,2.0,Worthington Farms,1432,9583,1983,1019,107,,Sold,,,https://www.redfin.com/VA/Richmond/6554-Balsam-Rd-23225/home/55403327,CVRMLS,1838540,N,Y,37.4899069,-77.518352
PAST SALE,January-19-2021,Single Family Residential,2712 Melbourne Dr,Richmond,VA,23225,241000,3,1.5,Granite Hills,1080,26136,1979,320,223,,Sold,,,https://www.redfin.com/VA/Richmond/2712-Melbourne-Dr-23225/home/55397620,CVRMLS,2035378,N,Y,37.536602,-77.519634
PAST SALE,June-25-2019,Single Family Residential,4004 Dunston Ave,Richmond,VA,23225,330000,3,2.0,,2066,13068,1939,894,160,,Sold,,,https://www.redfin.com/VA/Richmond/4004-Dunston-Ave-23225/home/55432648,CVRMLS,1916078,N,Y,37.5150937,-77.4770649
PAST SALE,February-26-2021,Single Family Residential,1804 W 43rd St,Richmond,VA,23225,332000,2,2.0,Riverside Park,1185,6534,1940,282,280,,Sold,,,https://www.redfin.com/VA/Richmond/1804-W-43rd-St-23225/home/55431901,CVRMLS,2100069,N,Y,37.5228498,-77.4769305
PAST SALE,July-29-2021,Condo/Co-op,2956 Hathaway Rd Unit U801,Richmond,VA,23225,349995,3,2.0,Hathaway Tower Condominiums,1729,175111,1972,129,202,571,Sold,,,https://www.redfin.com/VA/Richmond/2956-Hathaway-Rd-23225/unit-U801/home/55396791,CVRMLS,2118015,N,Y,37.54007,-77.5196469
PAST SALE,October-19-2020,Single Family Residential,4908 Evelyn Byrd Rd,Richmond,VA,23225,508000,4,2.5,Westover Hills,2241,9147,1940,412,227,,Sold,,,https://www.redfin.com/VA/Richmond/4908-Evelyn-Byrd-Rd-23225/home/55432231,CVRMLS,2028054,N,Y,37.5268211,-77.4844251
PAST SALE,December-23-2019,Single Family Residential,3314 Riverview Dr,Richmond,VA,23225,305000,3,2.0,Stratford Hills,2091,25264,1956,713,146,,Sold,,,https://www.redfin.com/VA/Richmond/3314-Riverview-Dr-23225/home/55396622,CVRMLS,1936789,N,Y,37.5446135,-77.5214513
PAST SALE,October-25-2019,Single Family Residential,5113 Devonshire Rd,Richmond,VA,23225,375000,3,1.5,Westover Hills,1500,6534,1924,772,250,,Sold,,,https://www.redfin.com/VA/Richmond/5113-Devonshire-Rd-23225/home/55433642,CVRMLS,1929056,N,Y,37.5242515,-77.4918185
PAST SALE,May-18-2020,Townhouse,1205 Boulder Creek Rd,Richmond,VA,23225,247500,3,2.5,Boulder Parke Townehomes,2589,2178,2008,566,96,130,Sold,,,https://www.redfin.com/VA/Richmond/1205-Boulder-Creek-Rd-23225/home/55390627,CVRMLS,2009307,N,Y,37.5166088,-77.5262584
PAST SALE,July-29-2019,Single Family Residential,610 W 25th St,Richmond,VA,23225,355000,3,2.5,Woodland Heights,1808,9147,1917,860,196,,Sold,,,https://www.redfin.com/VA/Richmond/610-W-25th-St-23225/home/55429691,CVRMLS,1919401,N,Y,37.5214436,-77.459908
PAST SALE,December-10-2020,Single Family Residential,605 W 28th St,Richmond,VA,23225,365000,3,1.5,Woodland Heights,1602,6969,1920,360,228,,Sold,,,https://www.redfin.com/VA/Richmond/605-W-28th-St-23225/home/55429688,CVRMLS,2032026,N,Y,37.5202018,-77.4628326
PAST SALE,February-10-2021,Single Family Residential,5207 New Kent Rd,Richmond,VA,23225,636000,4,4.0,Westover Hills,3160,9583,1949,298,201,,Sold,,,https://www.redfin.com/VA/Richmond/5207-New-Kent-Rd-23225/home/55433309,CVRMLS,2033746,N,Y,37.528113,-77.490754
PAST SALE,July-31-2020,Single Family Residential,5316 Sylvan Rd,Richmond,VA,23225,399900,3,2.5,Westover Hills,2093,13939,1996,492,191,,Sold,,,https://www.redfin.com/VA/Richmond/5316-Sylvan-Rd-23225/home/55433537,CVRMLS,2012436,N,Y,37.5278888,-77.4962991
PAST SALE,July-15-2021,Single Family Residential,6508 Kinns Rd,Richmond,VA,23225,327325,3,2.5,Westlake,1808,,2020,143,181,110,Sold,,,https://www.redfin.com/VA/North-Chesterfield/6508-Kinns-RD-23225/home/173730981,CVRMLS,2034793,N,Y,37.5374438,-77.5275463
PAST SALE,December-18-2020,Single Family Residential,3716 Dunston Ave,Richmond,VA,23225,315000,4,3.5,Forest Hill Park,2241,7840,1962,352,141,,Sold,,,https://www.redfin.com/VA/Richmond/3716-Dunston-Ave-23225/home/55431787,CVRMLS,2033650,N,Y,37.5139972,-77.4743695
PAST SALE,July-22-2020,Single Family Residential,215 Oak Glen St,Richmond,VA,23225,165000,3,2.0,Pine Hurst,1104,17859,2002,501,149,,Sold,,,https://www.redfin.com/VA/Richmond/215-Oak-Glen-St-23225/home/55401934,CVRMLS,2018919,N,Y,37.5005948,-77.5145609
PAST SALE,August-19-2021,Single Family Residential,1601 Bramwell Rd,Richmond,VA,23225,160000,3,1.0,Laurel Meadows,864,16552,1958,108,185,,Sold,,,https://www.redfin.com/VA/Richmond/1601-Bramwell-Rd-23225/home/55403216,CVRMLS,2116699,N,Y,37.4866947,-77.5063614
PAST SALE,December-4-2020,Single Family Residential,5202 Devonshire Rd,Richmond,VA,23225,453123,4,2.0,Westover Hills,1815,6534,1942,366,250,,Sold,,,https://www.redfin.com/VA/Richmond/5202-Devonshire-Rd-23225/home/55433674,CVRMLS,2031757,N,Y,37.5244794,-77.4930843
PAST SALE,July-14-2020,Single Family Residential,3522 Pinebrook Dr,Richmond,VA,23225,369500,3,2.0,Grandview,1851,17424,1959,509,200,,Sold,,,https://www.redfin.com/VA/Richmond/3522-Pinebrook-Dr-23225/home/55395820,CVRMLS,2016221,N,Y,37.5477199,-77.5222382
PAST SALE,September-3-2021,Single Family Residential,810 Westover Hills Blvd,Richmond,VA,23225,300000,4,1.5,Forest Hill Terrace,1349,11761,1947,93,222,,Sold,,,https://www.redfin.com/VA/Richmond/810-Westover-Hills-Blvd-23225/home/55434675,CVRMLS,2120839,N,Y,37.5161621,-77.4889396
PAST SALE,July-31-2019,Single Family Residential,402 W 29th St,Richmond,VA,23225,212000,3,1.0,Fonticello Park,1070,7840,1958,858,198,,Sold,,,https://www.redfin.com/VA/Richmond/402-W-29th-St-23225/home/55430208,CVRMLS,1921489,N,Y,37.5175198,-77.4631601
PAST SALE,July-3-2019,Single Family Residential,7006 Old Jahnke Rd,Richmond,VA,23225,169900,3,1.5,Canterbury Hills,1138,15681,1959,886,149,,Sold,,,https://www.redfin.com/VA/Richmond/7006-Old-Jahnke-Rd-23225/home/55399175,CVRMLS,1911502,N,Y,37.5171999,-77.5239681
PAST SALE,August-11-2021,Single Family Residential,6544 Hagueman Dr,Richmond,VA,23225,318500,3,2.0,Westlake Hills,1687,12632,1958,116,189,,Sold,,,https://www.redfin.com/VA/Richmond/6544-Hagueman-Dr-23225/home/55398052,CVRMLS,2118957,N,Y,37.5254894,-77.5179378
PAST SALE,January-21-2021,Single Family Residential,913 Halsey Ln,Richmond,VA,23225,127000,2,1.0,Norwood Park,828,9147,1945,318,153,,Sold,,,https://www.redfin.com/VA/Richmond/913-Halsey-Ln-23225/home/55398868,CVRMLS,2036859,N,Y,37.515784,-77.5049349
PAST SALE,October-16-2019,Single Family Residential,5732 Westower Dr,Richmond,VA,23225,235000,3,2.0,Westower Ridge,1466,11325,2005,781,160,,Sold,,,https://www.redfin.com/VA/Richmond/5732-Westower-Dr-23225/home/55388511,CVRMLS,1926648,N,Y,37.5237457,-77.5035573
PAST SALE,September-17-2021,Single Family Residential,5225 Reedy Ave,Richmond,VA,23225,426000,4,3.0,Forest View Heights,2268,14810,1949,79,188,,Sold,,,https://www.redfin.com/VA/Richmond/5225-Reedy-Ave-23225/home/55399453,CVRMLS,2124577,N,Y,37.516755,-77.4957166
PAST SALE,April-30-2019,Single Family Residential,3804 Forest Hill Ave,Richmond,VA,23225,305000,3,2.0,Brookside,2021,7405,1947,950,151,,Sold,,,https://www.redfin.com/VA/Richmond/3804-Forest-Hill-Ave-23225/home/55431401,CVRMLS,1906794,N,Y,37.5158656,-77.4732912
PAST SALE,December-16-2020,Townhouse,2136 Semmes Ave Unit BA,Richmond,VA,23225,344490,3,2.5,Belle Heights,1731,,2020,354,199,140,Sold,,,https://www.redfin.com/VA/Richmond/2136-Semmes-Ave-23225/unit-BA/home/172992754,CVRMLS,2026360,N,Y,37.521849,-77.45457
PAST SALE,May-8-2019,Single Family Residential,5238 Jahnke Rd,Richmond,VA,23225,155000,3,1.0,Forest View Heights,936,17424,1947,942,166,,Sold,,,https://www.redfin.com/VA/Richmond/5238-Jahnke-Rd-23225/home/55399300,CVRMLS,1909429,N,Y,37.5196235,-77.4961759
PAST SALE,August-13-2021,Single Family Residential,934 Bradley Ln,Richmond,VA,23225,143000,3,1.0,Norwood Park,803,9147,1947,114,178,,Sold,,,https://www.redfin.com/VA/Richmond/934-Bradley-Ln-23225/home/55398822,CVRMLS,2116151,N,Y,37.5160359,-77.5043189
PAST SALE,September-28-2020,Single Family Residential,1613 Stansbury Ave,Richmond,VA,23225,169170,6,2.0,Derwent,1254,11325,1960,433,135,,Sold,,,https://www.redfin.com/VA/Richmond/1613-Stansbury-Ave-23225/home/55403186,CVRMLS,2022345,N,Y,37.485767,-77.5039605
PAST SALE,August-13-2021,Single Family Residential,2711 Sterncroft Dr,Richmond,VA,23225,586200,5,4.5,Stratford Hills,3188,28314,1967,114,184,,Sold,,,https://www.redfin.com/VA/Richmond/2711-Sterncroft-Dr-23225/home/55395506,CVRMLS,2118386,N,Y,37.5373719,-77.5393486
PAST SALE,June-5-2020,Single Family Residential,1507 Irby Dr,Richmond,VA,23225,230000,2,1.0,Westover Farms,898,15681,1986,548,256,,Sold,,,https://www.redfin.com/VA/Richmond/1507-Irby-Dr-23225/home/55398601,CVRMLS,2015120,N,Y,37.523478,-77.5003875
PAST SALE,September-14-2021,Vacant Land,1001 German School Rd,Richmond,VA,23225,110000,,,,,43124,,82,,,Sold,,,https://www.redfin.com/VA/Richmond/1001-German-School-Rd-23225/home/55399108,CVRMLS,2110769,N,Y,37.516632,-77.511979
PAST SALE,July-10-2020,Single Family Residential,1400 Westover Gardens Blvd,Richmond,VA,23225,315000,3,2.0,Westover Gardens,2588,15245,1950,513,122,,Sold,,,https://www.redfin.com/VA/Richmond/1400-Westover-Gardens-Blvd-23225/home/55398526,CVRMLS,2015751,N,Y,37.519811,-77.5212079
PAST SALE,September-18-2020,Single Family Residential,5708 Woodburn Rd,Richmond,VA,23225,410000,3,2.0,Westover Hills Annex,1953,13503,1990,443,210,,Sold,,,https://www.redfin.com/VA/Richmond/5708-Woodburn-Rd-23225/home/55398037,CVRMLS,2021718,N,Y,37.5313306,-77.5013121
PAST SALE,June-2-2021,Single Family Residential,6430 Worthington Rd,,VA,23225,165000,4,1.5,Worthington Farms,,,1964,186,,,Sold,,,https://www.redfin.com/VA/Richmond/6430-Worthington-Rd-23225/home/55402359,CVRMLS,2116604,N,Y,37.4944404,-77.5133237
PAST SALE,November-27-2019,Single Family Residential,6424 Ludwig Rd,Richmond,VA,23225,155000,3,1.0,Worthington Farms,1098,12632,1958,739,141,,Sold,,,https://www.redfin.com/VA/Richmond/6424-Ludwig-Rd-23225/home/55402640,CVRMLS,1933431,N,Y,37.4921112,-77.5137883
PAST SALE,June-4-2021,Single Family Residential,4000 Stratford Rd,Richmond,VA,23225,615500,4,3.0,Stratford Hills,3262,23522,1953,184,189,,Sold,,,https://www.redfin.com/VA/Richmond/4000-Stratford-Rd-23225/home/55397166,CVRMLS,2111914,N,Y,37.5500487,-77.5412549
PAST SALE,October-21-2021,Single Family Residential,5329 Sylvan Rd,Richmond,VA,23225,560000,4,3.0,Westover Hills,2693,9583,1990,45,208,,Sold,,,https://www.redfin.com/VA/Richmond/5329-Sylvan-Rd-23225/home/55433285,CVRMLS,2127930,N,Y,37.5286774,-77.4963887
PAST SALE,April-8-2021,Single Family Residential,1005 W 46th St,Richmond,VA,23225,370000,2,1.5,Forest Hill Terrace,1364,7405,1946,241,271,,Sold,,,https://www.redfin.com/VA/Richmond/1005-W-46th-St-23225/home/55433803,CVRMLS,2105539,N,Y,37.5171124,-77.4852765
PAST SALE,January-28-2021,Single Family Residential,814 W 44th St,Richmond,VA,23225,288000,3,1.5,Forest Hill Park,1056,11325,1976,311,273,,Sold,,,https://www.redfin.com/VA/Richmond/814-W-44th-St-23225/home/55433059,CVRMLS,2029452,N,Y,37.5152271,-77.4842347
PAST SALE,July-22-2020,Condo/Co-op,406 W 26th St,Richmond,VA,23225,292500,3,2.5,Woodland Heights,1607,4791,1958,501,182,,Sold,,,https://www.redfin.com/VA/Richmond/406-W-26th-St-23225/home/59881220,CVRMLS,2008023,N,Y,37.5190278,-77.4597491
PAST SALE,August-20-2021,Single Family Residential,7721 Kenmore Cir,Richmond,VA,23225,520500,4,3.0,Stratford Hills,3311,24829,1966,107,157,,Sold,,,https://www.redfin.com/VA/Richmond/7721-Kenmore-Cir-23225/home/55395559,CVRMLS,2122846,N,Y,37.5386839,-77.5393486
PAST SALE,August-24-2021,Single Family Residential,808 W 46th St,Richmond,VA,23225,295000,3,1.0,Forest Hill Terrace,1093,7405,1950,103,270,,Sold,,,https://www.redfin.com/VA/Richmond/808-W-46th-St-23225/home/55434635,CVRMLS,2119956,N,Y,37.51559,-77.4859935
PAST SALE,May-31-2019,Single Family Residential,3450 Custis Rd,Richmond,VA,23225,284900,4,2.5,Stratford Hills,2612,27878,1963,919,109,,Sold,,,https://www.redfin.com/VA/Richmond/3450-Custis-Rd-23225/home/55397436,CVRMLS,1910320,N,Y,37.5453106,-77.5372883
PAST SALE,April-23-2020,Single Family Residential,825 Westover Hills Blvd,Richmond,VA,23225,245000,2,1.5,Forest Hill Terrace,1263,9583,1950,591,194,,Sold,,,https://www.redfin.com/VA/Richmond/825-Westover-Hills-Blvd-23225/home/55434700,CVRMLS,2008725,N,Y,37.5169906,-77.487965
PAST SALE,August-28-2019,Single Family Residential,5111 Dorchester Rd,Richmond,VA,23225,210000,3,2.0,Westover Court,1485,7405,1942,830,141,,Sold,,,https://www.redfin.com/VA/Richmond/5111-Dorchester-Rd-23225/home/55434033,CVRMLS,1922074,N,Y,37.5220217,-77.4939692
PAST SALE,March-17-2020,Townhouse,8049 Buford Cmns,North Chesterfield,VA,23235,170000,2,2.0,Rolling Hill At Buford,1322,1742,1984,628,129,220,Sold,,,https://www.redfin.com/VA/Richmond/8049-Buford-Cmns-23235/home/59538979,CVRMLS,2002783,N,Y,37.502109,-77.545418
PAST SALE,October-15-2021,Condo/Co-op,5569 Forest Hill Ave #15,Richmond,VA,23225,190000,2,2.5,Colonial Green Condominiums,1160,871,1982,51,164,261,Sold,,,https://www.redfin.com/VA/Richmond/5569-Forest-Hill-Ave-23225/unit-15/home/55398710,CVRMLS,2125248,N,Y,37.5278842,-77.5013283
PAST SALE,January-18-2019,Vacant Land,11 W 29th St,Richmond,VA,23225,32500,,,Burfoot Addition,,8276,,1052,,,Sold,,,https://www.redfin.com/VA/Richmond/11-W-29th-St-23225/home/55429755,CVRMLS,1832118,N,Y,37.513212,-77.461356
PAST SALE,August-30-2021,Single Family Residential,5848 Larrymore Rd,Richmond,VA,23225,241243,4,2.5,Westover Woods,1790,8712,1992,97,135,,Sold,,,https://www.redfin.com/VA/Richmond/5848-Larrymore-Rd-23225/home/55399796,CVRMLS,2120585,N,Y,37.5137375,-77.5059062
PAST SALE,August-5-2019,Single Family Residential,3529 Pinebrook Dr,Richmond,VA,23225,349500,3,2.5,Grandview,1988,20473,1956,853,176,,Sold,,,https://www.redfin.com/VA/Richmond/3529-Pinebrook-Dr-23225/home/55395814,CVRMLS,1919450,N,Y,37.5475804,-77.5217007
PAST SALE,March-29-2021,Condo/Co-op,4050 Forest Hill Ave Unit U7,Richmond,VA,23225,97000,2,1.0,Forest Oaks Condominiums,755,165528,1961,251,128,390,Sold,,,https://www.redfin.com/VA/Richmond/4050-Forest-Hill-Ave-23225/unit-U7/home/55432593,CVRMLS,2104865,N,Y,37.5167502,-77.4763757
PAST SALE,October-28-2020,Single Family Residential,7613 Granite Hall Ave,Richmond,VA,23225,585000,3,2.0,Cherokee Estates,2411,20473,1960,403,243,,Sold,,,https://www.redfin.com/VA/Richmond/7613-Granite-Hall-Ave-23225/home/55395893,CVRMLS,2027919,N,Y,37.5525442,-77.5294052
PAST SALE,October-13-2021,Single Family Residential,6225 Forest Hill Ave,Richmond,VA,23225,230000,3,1.5,Granite Hills,1544,16117,1954,53,149,,Sold,,,https://www.redfin.com/VA/Richmond/6225-Forest-Hill-Ave-23225/home/55397367,CVRMLS,2124829,N,Y,37.535075,-77.510207
PAST SALE,February-19-2020,Single Family Residential,2517 Bainbridge St,Richmond,VA,23225,175000,4,2.0,Hollands Addition,1408,3484,1997,655,124,,Sold,,,https://www.redfin.com/VA/Richmond/2517-Bainbridge-St-23225/home/55429216,CVRMLS,2000099,N,Y,37.5163558,-77.4571216
PAST SALE,October-10-2019,Single Family Residential,5622 Forest Hill Ave,Richmond,VA,23225,207000,3,1.0,Edgewood Acres,1173,12196,1954,787,176,,Sold,,,https://www.redfin.com/VA/Richmond/5622-Forest-Hill-Ave-23225/home/55397916,CVRMLS,1929480,N,Y,37.5293039,-77.5018548
PAST SALE,July-22-2019,Single Family Residential,2250 Stratford Rd,Richmond,VA,23225,240000,3,1.5,Stratford Hills,1248,14374,1979,867,192,,Sold,,,https://www.redfin.com/VA/Richmond/2250-Stratford-Rd-23225/home/55396141,CVRMLS,1919598,N,Y,37.5302429,-77.5459322
PAST SALE,March-4-2019,Single Family Residential,200 W 29th St,Richmond,VA,23225,245300,3,1.0,Fonticello Park,1151,6098,1933,1007,213,,Sold,,,https://www.redfin.com/VA/Richmond/200-W-29th-St-23225/home/55430296,CVRMLS,1900707,N,Y,37.5156077,-77.4619981
PAST SALE,August-23-2021,Single Family Residential,2811 Lansdale Rd,Richmond,VA,23225,603000,4,3.0,Stratford Hills,3652,23522,1967,104,165,,Sold,,,https://www.redfin.com/VA/Richmond/2811-Lansdale-Rd-23225/home/55396031,CVRMLS,2121698,N,Y,37.5358703,-77.5433346
PAST SALE,May-14-2021,Single Family Residential,5512 Westower Dr,Richmond,VA,23225,326000,3,2.0,Westover Farms,1596,13068,1957,205,204,,Sold,,,https://www.redfin.com/VA/Richmond/5512-Westower-Dr-23225/home/55398310,CVRMLS,2110041,N,Y,37.5266583,-77.5000397
PAST SALE,November-16-2020,Single Family Residential,7630 Granite Hall Ave,Richmond,VA,23225,305000,3,2.0,Cherokee Estates,1766,16117,1959,384,173,,Sold,,,https://www.redfin.com/VA/Richmond/7630-Granite-Hall-Ave-23225/home/55396255,CVRMLS,2030806,N,Y,37.5533709,-77.5298531
PAST SALE,April-23-2020,Single Family Residential,7011 Old Westham Rd,Ridge Branch,VA,23225,310000,3,2.0,,1601,46173,1958,591,194,,Sold,,,https://www.redfin.com/VA/Richmond/7011-Old-Westham-Rd-23225/home/55397716,CVRMLS,2008127,N,Y,37.5398657,-77.5237388
PAST SALE,December-28-2020,Single Family Residential,4127 Hillcrest Rd,Richmond,VA,23225,409000,4,1.5,Forest Hill Park,2206,10890,1947,342,185,,Sold,,,https://www.redfin.com/VA/Richmond/4127-Hillcrest-Rd-23225/home/55432094,CVRMLS,2034805,N,Y,37.5230298,-77.4740603
PAST SALE,September-25-2020,Single Family Residential,1224 Huntland Rd,Richmond,VA,23225,316000,3,2.5,Claremont,1953,16552,1967,436,162,,Sold,,,https://www.redfin.com/VA/Richmond/1224-Huntland-Rd-23225/home/55399065,CVRMLS,2025387,N,Y,37.5205755,-77.5072987
PAST SALE,April-8-2019,Single Family Residential,5020 King William Rd,Richmond,VA,23225,355000,3,1.5,Westover Hills,1530,6534,1949,972,232,,Sold,,,https://www.redfin.com/VA/Richmond/5020-King-William-Rd-23225/home/55433634,CVRMLS,1906223,N,Y,37.5244772,-77.4889508
PAST SALE,July-28-2021,Single Family Residential,6101 Ullswater Ave,Richmond,VA,23225,173500,3,1.0,Derwent,864,11325,1956,130,201,,Sold,,,https://www.redfin.com/VA/Richmond/6101-Ullswater-Ave-23225/home/55403301,CVRMLS,2119601,N,Y,37.4875457,-77.505641
PAST SALE,December-7-2018,Single Family Residential,606 W 32nd St,Richmond,VA,23225,214000,3,1.0,Woodland Heights,1103,6534,1953,1094,194,,Sold,,,https://www.redfin.com/VA/Richmond/606-W-32nd-St-23225/home/55430850,CVRMLS,1836069,N,Y,37.5182379,-77.4680209
PAST SALE,,Single Family Residential,2250 Stratford Rd,Richmond,VA,23225,240000,,,,,7884,,,,,,,,https://www.redfin.com/VA/Richmond/2250-Stratford-Rd-23225/home/59539482,,,N,Y,37.5302429,-77.5459322
PAST SALE,July-14-2021,Single Family Residential,2522 Porter St,Richmond,VA,23225,230000,3,2.5,Hollands Addition,1390,3920,2013,144,165,,Sold,,,https://www.redfin.com/VA/Richmond/2522-Porter-St-23225/home/55429227,CVRMLS,2117662,N,Y,37.5167359,-77.457645
PAST SALE,December-14-2018,Single Family Residential,114 W 29th St,Richmond,VA,23225,195000,2,1.5,Fonticello Park,952,6534,1930,1087,205,,Sold,,,https://www.redfin.com/VA/Richmond/114-W-29th-St-23225/home/55430249,CVRMLS,1837072,N,Y,37.5152506,-77.4617588
PAST SALE,December-10-2018,Single Family Residential,1355 Castleton Rd,Richmond,VA,23225,239000,4,2.5,Canterbury Hills,1832,32234,1965,1091,130,,Sold,,,https://www.redfin.com/VA/Richmond/1355-Castleton-Rd-23225/home/55399142,CVRMLS,1834134,N,Y,37.5197154,-77.5246837
PAST SALE,January-4-2021,Single Family Residential,1216 Boroughbridge Rd,Richmond,VA,23225,256000,3,2.0,Forest View Heights,1344,22651,1979,335,190,,Sold,,,https://www.redfin.com/VA/Richmond/1216-Boroughbridge-Rd-23225/home/55398939,CVRMLS,2031176,N,Y,37.5213426,-77.4964335
PAST SALE,March-2-2020,Single Family Residential,2860 Braidwood Rd,Richmond,VA,23225,665000,4,2.5,Willow Oaks,3236,25264,1961,643,206,5,Sold,,,https://www.redfin.com/VA/Richmond/2860-Braidwood-Rd-23225/home/55397158,CVRMLS,2000048,N,Y,37.5385371,-77.5100388
PAST SALE,July-26-2019,Single Family Residential,1025 Barlen Dr,Richmond,VA,23225,159950,3,1.5,Barleth Heights,984,9147,1958,863,163,,Sold,,,https://www.redfin.com/VA/Richmond/1025-Barlen-Dr-23225/home/55402457,CVRMLS,1907484,N,Y,37.4935102,-77.5007011
PAST SALE,March-26-2020,Single Family Residential,3410 Custis Rd,Richmond,VA,23225,318000,4,2.5,Stratford Hills,2100,22215,1975,619,151,,Sold,,,https://www.redfin.com/VA/Richmond/3410-Custis-Rd-23225/home/55397432,CVRMLS,1937689,N,Y,37.5441697,-77.5382177
PAST SALE,September-29-2021,Single Family Residential,6201 Debora Dr,Richmond,VA,23225,305000,4,2.5,April Acres,2162,8712,1967,67,141,,Sold,,,https://www.redfin.com/VA/Richmond/6201-Debora-Dr-23225/home/55398625,CVRMLS,2123193,N,Y,37.5237596,-77.510871
PAST SALE,July-9-2021,Single Family Residential,1020 Blandy Ave,Richmond,VA,23225,183000,2,1.0,Westover Park,736,10018,1950,149,249,,Sold,,,https://www.redfin.com/VA/Richmond/1020-Blandy-Ave-23225/home/55399100,CVRMLS,2114584,N,Y,37.5183333,-77.5074886
PAST SALE,July-12-2021,Single Family Residential,7301 Riverside Dr,Richmond,VA,23225,685000,4,2.5,Southampton,2592,69696,1954,146,264,,Sold,,,https://www.redfin.com/VA/Richmond/7301-Riverside-Dr-23225/home/55396119,CVRMLS,2112902,N,Y,37.5505771,-77.522507
PAST SALE,December-20-2018,Single Family Residential,4103 Hillcrest Rd,Richmond,VA,23225,255000,3,1.0,Riverside Park,1270,12632,1952,1081,201,,Sold,,,https://www.redfin.com/VA/Richmond/4103-Hillcrest-Rd-23225/home/55432081,CVRMLS,1839703,N,Y,37.5228364,-77.4717433
PAST SALE,August-26-2021,Single Family Residential,1724 German School Rd,Richmond,VA,23225,365830,3,3.5,Westlake,2269,,2021,101,161,110,Sold,,,https://www.redfin.com/VA/Richmond/1724-German-School-Rd-23225/home/174165472,CVRMLS,2101090,N,Y,37.5240986,-77.519589
PAST SALE,June-6-2019,Single Family Residential,1012 W 45th St,Richmond,VA,23225,263500,2,1.0,Forest Hill Terrace,980,7405,1947,913,269,,Sold,,,https://www.redfin.com/VA/Richmond/1012-W-45th-St-23225/home/55433787,CVRMLS,1912134,N,Y,37.5175271,-77.4844587
PAST SALE,April-16-2021,Single Family Residential,2941 Skipton Rd,Richmond,VA,23225,665000,5,3.5,Willow Oaks,4032,23958,1968,233,165,,Sold,,,https://www.redfin.com/VA/Richmond/2941-Skipton-Rd-23225/home/55396907,CVRMLS,2102645,N,Y,37.5402358,-77.5113945
PAST SALE,August-3-2021,Single Family Residential,4016 Sharon Ct,Richmond,VA,23225,385000,5,3.0,Forest Hill Terrace,2736,8276,1961,124,141,,Sold,,,https://www.redfin.com/VA/Richmond/4016-Sharon-Ct-23225/home/55432418,CVRMLS,2115433,N,Y,37.515875,-77.4764865
PAST SALE,June-25-2021,Single Family Residential,5615 Lipton Rd,Richmond,VA,23225,270000,4,2.0,Westover South,1577,7840,1968,163,171,,Sold,,,https://www.redfin.com/VA/Richmond/5615-Lipton-Rd-23225/home/55400279,CVRMLS,2112163,N,Y,37.51136,-77.502222
PAST SALE,June-14-2021,Single Family Residential,26 W 21st St,Richmond,VA,23225,119000,2,1.0,Atkinsons Plan,930,2178,1910,174,128,,Sold,,,https://www.redfin.com/VA/Richmond/26-W-21st-St-23225/home/55428953,CVRMLS,2110518,N,Y,37.5166739,-77.4526151
PAST SALE,March-29-2021,Townhouse,5525 Riverside Heights Way,Richmond,VA,23225,331000,3,2.5,Riverside Heights,1584,2613,2016,251,209,131,Sold,,,https://www.redfin.com/VA/Richmond/5525-Riverside-Heights-Way-23225/home/103457678,CVRMLS,2103122,N,Y,37.5278562,-77.5038038
PAST SALE,March-15-2019,Single Family Residential,805 Westover Hills Blvd,Richmond,VA,23225,293500,4,2.0,Forest Hill Park Terrace,2245,,1949,996,131,,Sold,,,https://www.redfin.com/VA/Richmond/805-Westover-Hills-Blvd-23225/home/55434681,CVRMLS,1904030,N,Y,37.5155985,-77.4883683
PAST SALE,July-26-2019,Single Family Residential,2733 Grantwood Ct,Richmond,VA,23225,195000,3,1.0,Grantwood,960,15681,1982,863,203,,Sold,,,https://www.redfin.com/VA/Richmond/2733-Grantwood-Ct-23225/home/55395578,CVRMLS,1921529,N,Y,37.5396351,-77.5355863
PAST SALE,May-12-2021,Single Family Residential,2819 Westchester Rd,Richmond,VA,23225,760000,4,2.5,Willow Oaks,3089,22215,1958,207,246,2,Sold,,,https://www.redfin.com/VA/Richmond/2819-Westchester-Rd-23225/home/55397144,CVRMLS,2109445,N,Y,37.5376178,-77.511467
PAST SALE,July-29-2021,Single Family Residential,5024 Caledonia Rd,Richmond,VA,23225,370000,2,1.0,Westover Hills,1171,6534,1949,129,316,,Sold,,,https://www.redfin.com/VA/Richmond/5024-Caledonia-Rd-23225/home/55433595,CVRMLS,2118171,N,Y,37.5254979,-77.4889315
PAST SALE,February-21-2020,Single Family Residential,6052 La Veta Dr,Richmond,VA,23225,200000,5,2.0,Beaufont Hills,1668,12196,1957,653,120,,Sold,,,https://www.redfin.com/VA/Richmond/6052-Laveta-Dr-23225/home/55399941,CVRMLS,2000793,N,Y,37.5092473,-77.5099011
PAST SALE,March-29-2021,Single Family Residential,7612 Hill Dr,Richmond,VA,23225,2150000,5,6.0,Southampton,7491,278784,1925,251,287,,Sold,,,https://www.redfin.com/VA/Richmond/7612-Hill-Dr-23225/home/55396104,CVRMLS,2101573,N,Y,37.555374,-77.527769
PAST SALE,February-19-2019,Single Family Residential,5302 Dorchester Rd,Richmond,VA,23225,374000,3,2.5,Westover Hills,2093,16552,1948,1020,179,,Sold,,,https://www.redfin.com/VA/Richmond/5302-Dorchester-Rd-23225/home/55433290,CVRMLS,1900113,N,Y,37.5270812,-77.494406
PAST SALE,May-10-2019,Single Family Residential,6573 Balsam Rd,Richmond,VA,23225,174900,3,2.0,Worthington Farms,1432,7840,1983,940,122,,Sold,,,https://www.redfin.com/VA/Richmond/6573-Balsam-Rd-23225/home/55403320,CVRMLS,1908208,N,Y,37.489529,-77.5184561
PAST SALE,,Single Family Residential,1260 Keswick Ln,Richmond,VA,23225,184000,4,1.0,,1237,10153,1948,,149,,,,,https://www.redfin.com/VA/Richmond/1260-Keswick-Ln-23225/home/55398971,,,N,Y,37.5217667,-77.5002979
PAST SALE,October-1-2019,Single Family Residential,5712 Larrymore Rd,Richmond,VA,23225,159900,3,1.5,Westover South,1901,9583,1967,796,84,,Sold,,,https://www.redfin.com/VA/Richmond/5712-Larrymore-Rd-23225/home/55399744,CVRMLS,1925265,N,Y,37.5138074,-77.5034229
PAST SALE,September-21-2020,Single Family Residential,1212 Kingsport Ln,North Chesterfield,VA,23225,232000,5,2.0,Southaven,2128,10018,1960,440,109,,Sold,,,https://www.redfin.com/VA/Richmond/1212-Kingsport-Ln-23225/home/59544304,CVRMLS,2022087,N,Y,37.4873021,-77.5289607
PAST SALE,December-11-2019,Single Family Residential,2708 Grantwood Ct,Richmond,VA,23225,175000,3,1.0,Grantwood,960,12632,1982,725,182,,Sold,,,https://www.redfin.com/VA/Richmond/2708-Grantwood-Ct-23225/home/55395605,CVRMLS,1931604,N,Y,37.5382863,-77.5363925
PAST SALE,May-19-2021,Vacant Land,59 W Pilkington St,Richmond,VA,23225,35000,,,Atkinsons Plan,,3049,,200,,,Sold,,,https://www.redfin.com/VA/Richmond/59-W-Pilkington-St-23225/home/55428972,CVRMLS,2104342,N,Y,37.5165239,-77.452957
PAST SALE,November-15-2021,Single Family Residential,6104 Lamar Dr,Richmond,VA,23225,250000,4,2.5,Beaufont Grove,1717,10890,2002,20,146,,Sold,,,https://www.redfin.com/VA/Richmond/6104-Lamar-Dr-23225/home/55453131,CVRMLS,2130451,N,Y,37.507797,-77.5120471
PAST SALE,August-25-2021,Single Family Residential,403 W 29th St,Richmond,VA,23225,341000,2,1.0,Fonticello Park,1133,6969,1950,102,301,,Sold,,,https://www.redfin.com/VA/Richmond/403-W-29th-St-23225/home/55430379,CVRMLS,2119560,N,Y,37.5177352,-77.46274
PAST SALE,October-27-2021,Single Family Residential,5584 Westower Dr,Richmond,VA,23225,339950,5,2.5,,2115,13939,2007,39,161,,Sold,,,https://www.redfin.com/VA/Richmond/5584-Westower-Dr-23225/home/55389001,CVRMLS,2129335,N,Y,37.5242295,-77.5011827
PAST SALE,July-31-2019,Single Family Residential,6634 Greenvale Dr,Richmond,VA,23225,250000,3,2.5,Westlake Hills,2318,26136,1965,858,108,,Sold,,,https://www.redfin.com/VA/Richmond/6634-Greenvale-Dr-23225/home/55398173,CVRMLS,1916523,N,Y,37.5285956,-77.5186098
PAST SALE,March-28-2019,Condo/Co-op,2956 Hathaway Rd #610,Richmond,VA,23225,250000,2,2.0,Hathaway Tower Condominiums,1561,1742,1972,983,160,535,Sold,,,https://www.redfin.com/VA/Richmond/2956-Hathaway-Rd-23225/unit-U610/home/55397024,CVRMLS,1901559,N,Y,37.54007,-77.5196469
PAST SALE,August-21-2020,Single Family Residential,5621 Saint James Ct,Richmond,VA,23225,699000,4,5.0,Westover Hills West,4483,23086,1989,471,156,,Sold,,,https://www.redfin.com/VA/Richmond/5621-St-James-Ct-23225/home/55398206,CVRMLS,2021635,N,Y,37.5310978,-77.4989566
PAST SALE,May-17-2021,Single Family Residential,2801 Lansdale Rd,Richmond,VA,23225,600000,4,2.5,Stratford Hills,2850,32670,1988,202,211,,Sold,,,https://www.redfin.com/VA/Richmond/2801-Lansdale-Rd-23225/home/55396030,CVRMLS,2101743,N,Y,37.5354985,-77.5434
PAST SALE,June-25-2021,Single Family Residential,7540 Marilea Rd,Richmond,VA,23225,437000,4,2.5,Stratford Hills,2343,18730,1951,163,187,,Sold,,,https://www.redfin.com/VA/Richmond/7540-Marilea-Rd-23225/home/55396927,CVRMLS,2114622,N,Y,37.5456499,-77.5319685
PAST SALE,October-20-2021,Single Family Residential,4016 Crutchfield St,Richmond,VA,23225,325000,4,2.0,Forest Hill Park Annex,1317,7405,1937,46,247,,Sold,,,https://www.redfin.com/VA/Richmond/4016-Crutchfield-St-23225/home/55432520,CVRMLS,2127130,N,Y,37.5114389,-77.4777819
PAST SALE,July-7-2020,Single Family Residential,5128 Forest Hill Ave,Richmond,VA,23225,238500,3,1.0,Westover Court,1328,8276,1942,516,180,,Sold,,,https://www.redfin.com/VA/Richmond/5128-Forest-Hill-Ave-23225/home/55434111,CVRMLS,2016090,N,Y,37.5239875,-77.4943712
PAST SALE,February-21-2019,Single Family Residential,6607 Glyndon Ln,Richmond,VA,23225,216000,4,2.0,Gravel Hill,1930,17424,1985,1018,112,,Sold,,,https://www.redfin.com/VA/Richmond/6607-Glyndon-Ln-23225/home/55397748,CVRMLS,1900957,N,Y,37.5336337,-77.5178236
PAST SALE,February-26-2020,Single Family Residential,2615 Bainbridge St,Richmond,VA,23225,190000,4,2.0,Swansboro,1628,5662,1947,648,117,,Sold,,,https://www.redfin.com/VA/Richmond/2615-Bainbridge-St-23225/home/55429918,CVRMLS,1922295,N,Y,37.5158768,-77.4582611
PAST SALE,June-3-2020,Single Family Residential,7668 Granite Hall Ave,Richmond,VA,23225,736000,3,3.0,Cherokee Hills,3251,31798,2004,550,226,,Sold,,,https://www.redfin.com/VA/Richmond/7668-Granite-Hall-Ave-23225/home/55452865,CVRMLS,2013105,N,Y,37.5540153,-77.5320479
PAST SALE,October-7-2021,Single Family Residential,1942 N Junaluska Dr,Richmond,VA,23225,430000,4,3.5,Westlake Hills,1497,13068,1960,59,287,,Sold,,,https://www.redfin.com/VA/Richmond/1942-N-Junaluska-Dr-23225/home/55398077,CVRMLS,2125704,N,Y,37.5284768,-77.5164139
PAST SALE,September-2-2020,Single Family Residential,5621 New Kent Rd,Richmond,VA,23225,615000,4,2.5,Westover Hills West,2540,16988,1996,459,242,,Sold,,,https://www.redfin.com/VA/Richmond/5621-New-Kent-Rd-23225/home/55398225,CVRMLS,2021954,N,Y,37.5321638,-77.4983153
PAST SALE,March-29-2021,Single Family Residential,8019 Cherokee Rd,Richmond,VA,23225,330000,3,1.5,Stratford Hills,1237,16988,1957,251,267,,Sold,,,https://www.redfin.com/VA/Richmond/8019-Cherokee-Rd-23225/home/55397069,CVRMLS,2103611,N,Y,37.5521991,-77.5389343
PAST SALE,August-13-2019,Vacant Land,6211 Warwick Rd,Richmond,VA,23225,19500,,,Pine Hurst,,10018,,845,,,Sold,,,https://www.redfin.com/VA/Richmond/6211-Warwick-Rd-23225/home/55390678,CVRMLS,1904654,N,Y,37.498242,-77.509643
PAST SALE,April-16-2021,Single Family Residential,1809 Junaluska Ct,Richmond,VA,23225,330000,4,2.0,Westlake Hills,1540,26136,1962,233,214,,Sold,,,https://www.redfin.com/VA/Richmond/1809-Junaluska-Ct-23225/home/55397934,CVRMLS,2106530,N,Y,37.526919,-77.517594
PAST SALE,April-23-2021,Single Family Residential,5215 King William Rd,Richmond,VA,23225,440000,3,1.5,Westover Hills,1949,6534,1942,226,226,,Sold,,,https://www.redfin.com/VA/Richmond/5215-King-William-Rd-23225/home/55433403,CVRMLS,2106046,N,Y,37.5268343,-77.4925802
PAST SALE,July-29-2020,Single Family Residential,7542 Brisbane Dr,Richmond,VA,23225,346000,4,3.0,Cherokee Estates,2028,29620,1959,494,171,,Sold,,,https://www.redfin.com/VA/Richmond/7542-Brisbane-Dr-23225/home/55396299,CVRMLS,2017341,N,Y,37.5495395,-77.5296739
PAST SALE,November-10-2021,Single Family Residential,5941 Fairlee Rd,Richmond,VA,23225,308000,3,1.5,Shirley Hills,1405,12196,1961,25,219,,Sold,,,https://www.redfin.com/VA/Richmond/5941-Fairlee-Rd-23225/home/55398166,CVRMLS,2129184,N,Y,37.5329799,-77.5047389
PAST SALE,August-21-2019,Single Family Residential,4621 Forest Hill Ave,Richmond,VA,23225,505000,5,4.0,Westover Hills,3387,7840,1951,837,149,,Sold,,,https://www.redfin.com/VA/Richmond/4621-Forest-Hill-Ave-23225/home/55433958,CVRMLS,1923049,N,Y,37.5207594,-77.485635
PAST SALE,April-3-2020,Single Family Residential,2608 Woodberry Ln,Richmond,VA,23225,278500,4,2.5,Granite Hills,1640,22215,2013,611,170,,Sold,,,https://www.redfin.com/VA/Richmond/2608-Woodberry-Ln-23225/home/55397642,CVRMLS,2005130,N,Y,37.5351347,-77.5159571
PAST SALE,February-26-2021,Condo/Co-op,2956 Hathaway Rd Unit U701,Richmond,VA,23225,340000,3,2.0,Hathaway Tower Condominiums,,,1972,282,,571,Sold,,,https://www.redfin.com/VA/Richmond/2956-Hathaway-Rd-23225/unit-U701/home/55397029,CVRMLS,2106890,N,Y,37.54007,-77.5196469
PAST SALE,January-8-2021,Single Family Residential,105 Beaufont Ter,Richmond,VA,23225,223000,3,2.0,Beaufont Hills,1218,13068,2000,331,183,4,Sold,,,https://www.redfin.com/VA/Richmond/105-Beaufont-Ter-23225/home/55453161,CVRMLS,2035629,N,Y,37.5058373,-77.5109979
PAST SALE,September-20-2021,Single Family Residential,2733 Kenmore Rd,Richmond,VA,23225,340000,4,2.5,Stratford Hills,2105,34412,1973,76,162,,Sold,,,https://www.redfin.com/VA/Richmond/2733-Kenmore-Rd-23225/home/55395577,CVRMLS,2115080,N,Y,37.5377929,-77.5379153
PAST SALE,December-3-2021,Single Family Residential,7930 Burrundie Dr,Richmond,VA,23225,350000,3,2.0,Stratford Hills,1782,35283,1996,2,196,,Sold,,,https://www.redfin.com/VA/Richmond/7930-Burrundie-Dr-23225/home/55396060,CVRMLS,2132280,N,Y,37.5342673,-77.5430099
PAST SALE,July-2-2020,Single Family Residential,1031 Leicester Rd,Richmond,VA,23225,315000,3,2.5,Forest View Heights,1536,14374,2016,521,205,,Sold,,,https://www.redfin.com/VA/Richmond/1031-Leicester-Rd-23225/home/55399372,CVRMLS,2015704,N,Y,37.5182873,-77.4959518
PAST SALE,September-10-2019,Single Family Residential,913 Forest View Dr,Richmond,VA,23225,149350,2,1.0,Forest View Heights,720,4791,1947,817,207,,Sold,,,https://www.redfin.com/VA/Richmond/913-Forest-View-Dr-23225/home/55433732,CVRMLS,1925451,N,Y,37.5178515,-77.4920761
PAST SALE,September-27-2019,Single Family Residential,7656 Yarmouth Dr,North Chesterfield,VA,23225,299900,4,2.0,Crestwood Farms,2976,37897,1956,800,101,,Sold,,,https://www.redfin.com/VA/Richmond/7656-Yarmouth-Dr-23225/home/59542518,CVRMLS,1919738,N,Y,37.5221584,-77.5374227
PAST SALE,May-14-2021,Single Family Residential,1814 Netherwood Rd,Richmond,VA,23225,300000,4,2.0,Westlake Hills,1526,14810,1955,205,197,,Sold,,,https://www.redfin.com/VA/Richmond/1814-Netherwood-Rd-23225/home/55398423,CVRMLS,2109115,N,Y,37.5258789,-77.5131445
PAST SALE,August-20-2021,Single Family Residential,3030 Marlboro Dr,Richmond,VA,23225,305000,3,2.0,Windsorview,1560,16552,1958,107,196,,Sold,,,https://www.redfin.com/VA/Richmond/3030-Marlboro-Dr-23225/home/55396576,CVRMLS,2116882,N,Y,37.5404185,-77.5136973
PAST SALE,August-12-2021,Single Family Residential,4614 Archer Ave,Richmond,VA,23225,450000,2,1.5,Westover Hills,1700,14374,1937,115,265,,Sold,,,https://www.redfin.com/VA/Richmond/4614-Archer-Ave-23225/home/55432204,CVRMLS,2117834,N,Y,37.5243314,-77.4822164
PAST SALE,,Single Family Residential,1206 Kingsport Ln,Richmond,VA,23225,110000,3,1.0,,952,10803,1958,,116,,,,,https://www.redfin.com/VA/Richmond/1206-Kingsport-Ln-23225/home/59544303,,,N,Y,37.4875321,-77.5289034
PAST SALE,,Townhouse,8034 Buford Cmns,Richmond,VA,23235,161000,2,2.0,,1321,1917,1984,,122,,,,,https://www.redfin.com/VA/Richmond/8034-Buford-Cmns-23235/home/59539113,,,N,Y,37.502837,-77.545183
PAST SALE,September-3-2021,Single Family Residential,109 W 33rd St,Richmond,VA,23225,370000,3,2.5,West Manchester,1660,4791,1923,93,223,,Sold,,,https://www.redfin.com/VA/Richmond/109-W-33rd-St-23225/home/55431231,CVRMLS,2122122,N,Y,37.5127574,-77.4683821
PAST SALE,September-29-2021,Single Family Residential,1720 German School Rd,Richmond,VA,23225,371505,4,3.5,Westlake,2281,,2021,67,163,110,Sold,,,https://www.redfin.com/VA/Richmond/1720-German-School-Rd-23225/home/173730908,CVRMLS,2034790,N,Y,37.5240986,-77.519589
PAST SALE,August-31-2020,Condo/Co-op,2956 Hathaway Rd #209,Richmond,VA,23225,244250,2,2.0,Hathaway Tower Condominiums,1379,,1972,461,177,552,Sold,,,https://www.redfin.com/VA/Richmond/2956-Hathaway-Rd-23225/unit-209/home/171378341,CVRMLS,2018053,N,Y,37.5399991,-77.5196177
PAST SALE,August-30-2021,Single Family Residential,1217 Westover Gardens Blvd,Richmond,VA,23225,385000,4,3.0,Westover Gardens,2160,20037,1951,97,178,,Sold,,,https://www.redfin.com/VA/Richmond/1217-Westover-Gardens-Blvd-23225/home/55399087,CVRMLS,2123999,N,Y,37.5182096,-77.5208048
PAST SALE,September-7-2021,Single Family Residential,5106 New Kent Rd,Richmond,VA,23225,575000,4,3.0,Westover Hills,2414,7840,1928,89,238,,Sold,,,https://www.redfin.com/VA/Richmond/5106-New-Kent-Rd-23225/home/55433393,CVRMLS,2123497,N,Y,37.5268805,-77.4895662
PAST SALE,August-11-2020,Condo/Co-op,4030 Forest Hill Ave Unit u10,Richmond,VA,23225,88000,2,1.0,Forest Oaks Condominiums,829,,1961,481,106,416,Sold,,,https://www.redfin.com/VA/Richmond/4030-Forest-Hill-Ave-23225/unit-U10/home/55432632,CVRMLS,2018990,N,Y,37.5167502,-77.4763757
PAST SALE,March-20-2020,Townhouse,6737 N Grand Brook Cir,Richmond,VA,23225,193000,3,2.5,Townes At Grand Oaks,1400,1742,2006,625,138,100,Sold,,,https://www.redfin.com/VA/Richmond/6737-N-Grand-Brook-Cir-23225/home/55388836,CVRMLS,2004577,N,Y,37.5166653,-77.5204576
PAST SALE,May-15-2020,Townhouse,6741 N Grand Brook Cir,Richmond,VA,23225,191950,3,2.5,Townes At Grand Oaks,1418,1742,2006,569,135,100,Sold,,,https://www.redfin.com/VA/Richmond/6741-N-Grand-Brook-Cir-23225/home/55388847,CVRMLS,2007270,N,Y,37.5166291,-77.5205024
PAST SALE,May-8-2020,Townhouse,6720 N Grand Brook Cir,Richmond,VA,23225,174000,3,2.5,Townes At Grand Oaks,1426,2178,2007,576,122,100,Sold,,,https://www.redfin.com/VA/Richmond/6720-N-Grand-Brook-Cir-23225/home/55388854,CVRMLS,2004924,N,Y,37.5171301,-77.5200097
PAST SALE,September-25-2020,Townhouse,6743 S Grand Brook Cir,Richmond,VA,23225,193000,3,2.5,Townes At Grand Oaks,1426,2178,2006,436,135,100,Sold,,,https://www.redfin.com/VA/Richmond/6743-S-Grand-Brook-Cir-23225/home/55388863,CVRMLS,2024822,N,Y,37.515724,-77.5195169
PAST SALE,December-23-2020,Townhouse,3004 Stratford Townes Dr,Richmond,VA,23225,288000,3,3.5,Townes At Stratford,2033,1742,2006,347,142,198,Sold,,,https://www.redfin.com/VA/Richmond/3004-Stratford-Townes-Dr-23225/home/55388992,CVRMLS,2030648,N,Y,37.5404375,-77.5206313
PAST SALE,October-1-2019,Condo/Co-op,6801 Grand Brook Ct,Richmond,VA,23225,182500,3,2.5,Townes At Grand Oaks,1468,2613,2008,796,124,100,Sold,,,https://www.redfin.com/VA/Richmond/6801-Grand-Brook-Ct-23225/home/55389017,CVRMLS,1927343,N,Y,37.5149266,-77.5204016
PAST SALE,February-16-2021,Townhouse,6813 Grand Brook Ct,Richmond,VA,23225,197000,3,2.5,Townes At Grand Oaks,1476,1742,2008,292,133,100,Sold,,,https://www.redfin.com/VA/Richmond/6813-Grand-Brook-Ct-23225/home/55389043,CVRMLS,2100709,N,Y,37.5148113,-77.5205696
PAST SALE,March-27-2019,Townhouse,1311 Boulder Creek Rd,Richmond,VA,23225,255000,3,2.5,Boulder Parke Townehomes,2349,3049,2008,984,109,130,Sold,,,https://www.redfin.com/VA/Richmond/1311-Boulder-Creek-Rd-23225/home/55390637,CVRMLS,1901038,N,Y,37.5188021,-77.5270197
PAST SALE,July-2-2019,Townhouse,1305 Boulder Creek Rd,Richmond,VA,23225,254000,3,2.5,Boulder Parke Townehomes,2349,2178,2008,887,108,130,Sold,,,https://www.redfin.com/VA/Richmond/1305-Boulder-Creek-Rd-23225/home/55390650,CVRMLS,1911613,N,Y,37.5186174,-77.5269186
PAST SALE,March-27-2020,Townhouse,1242 Boulder Creek Rd,Chesterfield,VA,23225,230000,4,3.0,Boulder Parke Townehomes,2349,2178,2008,618,98,130,Sold,,,https://www.redfin.com/VA/Richmond/1242-Boulder-Creek-Rd-23225/home/55390660,CVRMLS,2003064,N,Y,37.5178776,-77.5270098
PAST SALE,September-13-2021,Single Family Residential,6940 & 6950 Dyer Ln,Chesterfield,VA,23225,407000,4,1.0,,1440,601128,1920,83,283,,Sold,,,https://www.redfin.com/VA/Richmond/6950-Dyer-Ln-23225/home/59545454,CVRMLS,2121677,N,Y,37.478158,-77.522566
PAST SALE,April-15-2020,Single Family Residential,2799 Stratford Rd,Richmond,VA,23225,435000,3,3.0,Stratford Hills,3257,57499,1959,599,134,,Sold,,,https://www.redfin.com/VA/Richmond/2799-Stratford-Rd-23225/home/55395698,CVRMLS,2006935,N,Y,37.5368525,-77.5402443
PAST SALE,July-9-2019,Single Family Residential,3223 Kenmore Rd,Richmond,VA,23225,356000,4,2.5,Stratford Hills,2666,27007,1966,880,134,,Sold,,,https://www.redfin.com/VA/Richmond/3223-Kenmore-Rd-23225/home/55395447,CVRMLS,1911077,N,Y,37.5423744,-77.5403269
PAST SALE,September-13-2019,Single Family Residential,3018 Kenmore Rd,Richmond,VA,23225,350000,5,3.5,Stratford Hills,2520,29185,1970,814,139,,Sold,,,https://www.redfin.com/VA/Richmond/3018-Kenmore-Rd-23225/home/55395536,CVRMLS,1915704,N,Y,37.5398611,-77.5386965
PAST SALE,December-13-2019,Single Family Residential,3220 Kenmore Rd,Richmond,VA,23225,355000,4,3.0,Stratford Hills,2776,24829,1960,723,128,,Sold,,,https://www.redfin.com/VA/Richmond/3220-Kenmore-Rd-23225/home/55395519,CVRMLS,1915641,N,Y,37.5422041,-77.5409273
PAST SALE,July-14-2021,Single Family Residential,3000 Stratford Rd,Richmond,VA,23225,490000,5,3.5,Stratford Hills,3616,32234,1956,144,136,,Sold,,,https://www.redfin.com/VA/Richmond/3000-Stratford-Rd-23225/home/55395610,CVRMLS,2117285,N,Y,37.5397024,-77.5416887
PAST SALE,December-14-2020,Single Family Residential,7439 Laneview Dr,Richmond,VA,23225,330000,3,2.5,,2146,46609,1989,356,154,,Sold,,,https://www.redfin.com/VA/Richmond/7439-Laneview-Dr-23225/home/55395644,CVRMLS,2026855,N,Y,37.5393597,-77.5333916
PAST SALE,January-6-2020,Single Family Residential,7669 Cherokee Rd,Richmond,VA,23225,265000,3,2.0,Stratford Hills,1439,19602,1978,699,184,,Sold,,,https://www.redfin.com/VA/Richmond/7669-Cherokee-Rd-23225/home/55396461,CVRMLS,1937301,N,Y,37.5490902,-77.5328318
PAST SALE,April-28-2020,Single Family Residential,7337 Longview Dr,Richmond,VA,23225,419785,4,3.0,Rockfalls,2305,57934,1981,586,182,,Sold,,,https://www.redfin.com/VA/Richmond/7337-Longview-Dr-23225/home/55396495,CVRMLS,2009484,N,Y,37.5477938,-77.5241756
PAST SALE,March-3-2021,Single Family Residential,7313 Tee Cir,Richmond,VA,23225,279333,3,2.5,Fairway Acres,2629,19166,1957,277,106,,Sold,,,https://www.redfin.com/VA/Richmond/7313-Tee-Cir-23225/home/55396502,CVRMLS,2103885,N,Y,37.5462089,-77.5242092
PAST SALE,,Single Family Residential,3733 Chellowe Rd,Richmond,VA,23225,375000,3,2.0,,1972,32409,1941,,190,,,,,https://www.redfin.com/VA/Richmond/3733-Chellowe-Rd-23225/home/55396519,,,N,Y,37.5492954,-77.5273895
PAST SALE,,Single Family Residential,2908 Skipton Rd,Richmond,VA,23225,480000,4,3.5,,3004,24419,1974,,160,,,,,https://www.redfin.com/VA/Richmond/2908-Skipton-Rd-23225/home/55396545,,,N,Y,37.5394166,-77.5128309
PAST SALE,July-19-2019,Single Family Residential,3031 Marlboro Dr,Richmond,VA,23225,280000,3,2.0,Windsorview,1792,16117,1950,870,156,,Sold,,,https://www.redfin.com/VA/Richmond/3031-Marlboro-Dr-23225/home/55396561,CVRMLS,1919328,N,Y,37.5401471,-77.5131445
PAST SALE,January-30-2020,Single Family Residential,3128 Marlboro Dr,Richmond,VA,23225,215000,4,2.5,Windsorview,2546,15681,1958,675,84,,Sold,,,https://www.redfin.com/VA/Richmond/3128-Marlboro-Dr-23225/home/55396581,CVRMLS,1933548,N,Y,37.5415628,-77.5130171
PAST SALE,March-30-2021,Single Family Residential,3421 Pinebrook Dr,Richmond,VA,23225,260000,2,1.5,Fairway Acres,1025,16552,1955,250,254,,Sold,,,https://www.redfin.com/VA/Richmond/3421-Pinebrook-Dr-23225/home/55396637,CVRMLS,2105685,N,Y,37.5462225,-77.522899
PAST SALE,September-22-2020,Single Family Residential,6801 Longview Dr,Richmond,VA,23225,276000,5,2.0,Stratford Hills,1414,21780,1923,439,195,,Sold,,,https://www.redfin.com/VA/Richmond/6801-Longview-Dr-23225/home/55396669,CVRMLS,2024977,N,Y,37.5424837,-77.5180686
PAST SALE,March-8-2019,Single Family Residential,6912 Shawnee Rd,Richmond,VA,23225,270000,3,2.0,Cherokee Hills,1582,16988,1964,1003,171,,Sold,,,https://www.redfin.com/VA/Richmond/6912-Shawnee-Rd-23225/home/55396676,CVRMLS,1902271,N,Y,37.5425991,-77.5199918
PAST SALE,,Single Family Residential,7443 Comanche Dr,Richmond,VA,23225,259000,3,2.0,,1614,15000,1958,,160,,,,,https://www.redfin.com/VA/Richmond/7443-Comanche-Dr-23225/home/55396724,,,N,Y,37.5466787,-77.5278374
PAST SALE,July-13-2020,Single Family Residential,3625 Frontier Dr,Richmond,VA,23225,335000,4,2.5,Cherokee Farms,2336,21780,1965,510,143,,Sold,,,https://www.redfin.com/VA/Richmond/3625-Frontier-Dr-23225/home/55396729,CVRMLS,2016607,N,Y,37.5458872,-77.5254186
PAST SALE,October-23-2020,Single Family Residential,7632 Tanglewood Rd,Richmond,VA,23225,345000,3,1.5,Stratford Hills,2271,20908,1952,408,152,,Sold,,,https://www.redfin.com/VA/Richmond/7632-Tanglewood-Rd-23225/home/55396738,CVRMLS,2000532,N,Y,37.5473637,-77.5334812
PAST SALE,June-3-2021,Single Family Residential,3012 Semmes Ave,Richmond,VA,23225,450000,3,2.5,Woodland Heights,1846,6098,1926,185,244,,Sold,,,https://www.redfin.com/VA/Richmond/3012-Semmes-Ave-23225/home/55430463,CVRMLS,2112013,N,Y,37.5174688,-77.4649031
PAST SALE,June-11-2021,Condo/Co-op,2956 Hathaway Rd Unit U712,Richmond,VA,23225,242500,3,2.0,Hathaway Tower Condominiums,1729,175111,1972,177,140,571,Sold,,,https://www.redfin.com/VA/Richmond/2956-Hathaway-Rd-23225/unit-U712/home/55396792,CVRMLS,2101153,N,Y,37.54007,-77.5196469
PAST SALE,January-10-2020,Condo/Co-op,2956 Hathaway Rd Unit U809,Richmond,VA,23225,250000,2,2.0,Hathaway Tower Condominiums,1379,175111,1972,695,181,535,Sold,,,https://www.redfin.com/VA/Richmond/2956-Hathaway-Rd-23225/unit-U809/home/55396816,CVRMLS,1935297,N,Y,37.54007,-77.5196469
PAST SALE,April-30-2021,Condo/Co-op,2956 Hathaway Rd Unit U811,Richmond,VA,23225,390000,3,2.0,Hathaway Tower Condominiums,1729,1742,1972,219,226,571,Sold,,,https://www.redfin.com/VA/Richmond/2956-Hathaway-Rd-23225/unit-U811/home/55396818,CVRMLS,2105837,N,Y,37.54007,-77.5196469
PAST SALE,July-27-2021,Condo/Co-op,2956 Hathaway Rd Unit U711,Richmond,VA,23225,255000,3,2.0,Hathaway Tower Condominiums,1729,175111,1972,131,147,571,Sold,,,https://www.redfin.com/VA/Richmond/2956-Hathaway-Rd-23225/unit-U711/home/55396797,CVRMLS,2101127,N,Y,37.54007,-77.5196469
PAST SALE,April-6-2020,Condo/Co-op,2956 Hathaway Rd Unit U1211,Richmond,VA,23225,395000,3,2.0,Hathaway Tower Condominiums,1729,175111,1972,608,228,552,Sold,,,https://www.redfin.com/VA/Richmond/2956-Hathaway-Rd-23225/unit-U1211/home/55396857,CVRMLS,2004742,N,Y,37.54007,-77.5196469
PAST SALE,March-22-2021,Condo/Co-op,2956 Hathaway Rd Unit U1202,Richmond,VA,23225,359950,3,2.0,Hathaway Tower Condominiums,1729,,1972,258,208,571,Sold,,,https://www.redfin.com/VA/Richmond/2956-Hathaway-Rd-23225/unit-U1202/home/55396839,CVRMLS,2101349,N,Y,37.54007,-77.5196469
PAST SALE,January-5-2021,Single Family Residential,2848 Skipton Rd,Richmond,VA,23225,675000,4,3.5,Willow Oaks,4025,24393,1986,334,168,,Sold,,,https://www.redfin.com/VA/Richmond/2848-Skipton-Rd-23225/home/55396889,CVRMLS,2034685,N,Y,37.538678,-77.5134971
PAST SALE,January-3-2019,Single Family Residential,2817 Skipton Rd,Richmond,VA,23225,370000,4,3.0,Clevedon,3295,22651,1975,1067,112,,Sold,,,https://www.redfin.com/VA/Richmond/2817-Skipton-Rd-23225/home/55396880,CVRMLS,1839292,N,Y,37.5373172,-77.5138053
PAST SALE,September-13-2019,Single Family Residential,2820 Westchester Rd,Richmond,VA,23225,665000,4,4.0,Willow Oaks,4204,40075,1959,814,158,5,Sold,,,https://www.redfin.com/VA/Richmond/2820-Westchester-Rd-23225/home/55396896,CVRMLS,1918040,N,Y,37.537413,-77.5121142
PAST SALE,April-16-2020,Single Family Residential,7113 Cherokee Rd,Richmond,VA,23225,325000,3,2.0,Cherokee Hills,2013,11761,1940,598,161,,Sold,,,https://www.redfin.com/VA/Richmond/7113-Cherokee-Rd-23225/home/55396937,CVRMLS,2007585,N,Y,37.5408672,-77.524478
PAST SALE,July-25-2019,Single Family Residential,6940 Navaho Rd,Richmond,VA,23225,262000,3,1.5,Cherokee Hills,1528,17424,1955,864,171,,Sold,,,https://www.redfin.com/VA/Richmond/6940-Navaho-Rd-23225/home/55396956,CVRMLS,1920420,N,Y,37.540958,-77.5217849
PAST SALE,March-27-2020,Condo/Co-op,2956 Hathaway Rd Unit U203,Richmond,VA,23225,250000,2,2.0,Hathaway Tower Condominiums,1379,175111,1972,618,181,552,Sold,,,https://www.redfin.com/VA/Richmond/2956-Hathaway-Rd-23225/unit-U203/home/55396970,CVRMLS,2007674,N,Y,37.54007,-77.5196469
PAST SALE,September-30-2019,Condo/Co-op,2956 Hathaway Rd Unit U404,Richmond,VA,23225,279385,2,2.0,Hathaway Tower Condominiums,1561,,1972,797,179,535,Sold,,,https://www.redfin.com/VA/Richmond/2956-Hathaway-Rd-23225/unit-U404/home/55396996,CVRMLS,1918056,N,Y,37.54007,-77.5196469
PAST SALE,October-18-2021,Single Family Residential,5944 Forest Hill Ave,Richmond,VA,23225,320000,3,2.0,Shirley Hills,1478,18295,1958,48,217,,Sold,,,https://www.redfin.com/VA/Richmond/5944-Forest-Hill-Ave-23225/home/55398135,CVRMLS,2122167,N,Y,37.5320515,-77.506098
PAST SALE,December-11-2018,Single Family Residential,3708 Dunston Ave,Richmond,VA,23225,297000,3,1.5,,1659,17424,1934,1090,179,,Sold,,,https://www.redfin.com/VA/Richmond/3708-Dunston-Ave-23225/home/55431791,CVRMLS,1833504,N,Y,37.5138895,-77.4735807
