SALE TYPE,SOLD DATE,PROPERTY TYPE,ADDRESS,CITY,STATE OR PROVINCE,ZIP OR POSTAL CODE,PRICE,BEDS,BATHS,LOCATION,SQUARE FEET,LOT SIZE,YEAR BUILT,DAYS ON MARKET,$/SQUARE FEET,HOA/MONTH,STATUS,NEXT OPEN HOUSE START TIME,NEXT OPEN HOUSE END TIME,URL (SEE https://www.redfin.com/buy-a-home/comparative-market-analysis FOR INFO ON PRICING),SOURCE,MLS#,FAVORITE,INTERESTED,LATITUDE,LONGITUDE
PAST SALE,May-17-2019,Single Family Residential,912 Baldwin Rd,Henrico,VA,23229,608500,5,3.0,Rollingwood,3519,12196,1954,933,173,,Sold,,,https://www.redfin.com/VA/Richmond/912-Baldwin-Rd-23229/home/59666609,CVRMLS,1909278,N,Y,37.590825,-77.547653
PAST SALE,July-6-2020,Single Family Residential,8910 Avalon Dr,Henrico,VA,23229,264750,3,1.5,Sharon Hills,1404,12196,1958,517,189,,Sold,,,https://www.redfin.com/VA/Richmond/8910-Avalon-Dr-23229/home/59665109,CVRMLS,2016185,N,Y,37.5901061,-77.5795611
MLS Listing,,Condo/Co-op,9105 Derbyshire Rd Unit A,Henrico,VA,23229,157000,1,1.0,Deerwood Condo,588,435,1964,2,267,167,Active,December-5-2021 02:00 PM,December-5-2021 04:00 PM,https://www.redfin.com/VA/Richmond/9105-Derbyshire-Rd-23229/unit-A/home/59666088,CVRMLS,2135787,N,Y,37.5880575,-77.5831139
MLS Listing,,Single Family Residential,8724 Holly Hill Rd,Henrico,VA,23229,345000,3,2.0,Ridgecrest,1245,12196,1956,3,277,,Active,,,https://www.redfin.com/VA/Richmond/8724-Holly-Hill-Rd-23229/home/59658480,CVRMLS,2134734,N,Y,37.5994875,-77.5699347
MLS Listing,,Single Family Residential,9409 Quioccasin Rd,Henrico,VA,23238,320000,4,2.5,Farmington,2068,11761,1962,4,155,,Active,December-5-2021 11:00 AM,December-5-2021 03:00 PM,https://www.redfin.com/VA/Richmond/9409-Quioccasin-Rd-23238/home/59657885,CVRMLS,2135177,N,Y,37.6070877,-77.5828132
MLS Listing,,Condo/Co-op,1503 Largo Rd #202,Henrico,VA,23238,168000,2,2.0,Regency Woods Condominiums,1239,1306,1977,6,136,338,Active,,,https://www.redfin.com/VA/Richmond/1503-Largo-Rd-23238/unit-202/home/59650437,CVRMLS,2135175,N,Y,37.6077891,-77.5859169
MLS Listing,,Single Family Residential,825 Westham Pkwy,Henrico,VA,23229,599950,4,3.5,Westham,3533,27007,1954,7,170,,Active,December-5-2021 01:00 PM,December-5-2021 03:00 PM,https://www.redfin.com/VA/Richmond/825-Westham-Pkwy-23229/home/59667158,CVRMLS,2134813,N,Y,37.5872613,-77.5428868
MLS Listing,,Single Family Residential,8965 Wishart Rd,Henrico,VA,23229,565000,4,2.5,Deer Lodge,2947,23522,1967,8,192,,Active,December-5-2021 12:00 PM,December-5-2021 02:00 PM,https://www.redfin.com/VA/Richmond/8965-Wishart-Rd-23229/home/59665216,CVRMLS,2134492,N,Y,37.5858304,-77.5852023
MLS Listing,,Condo/Co-op,6702 Southwalk Hts,Moseley,VA,23120,479950,4,3.0,Greenwich Walk At Foxcreek,2663,,2018,30,180,220,Active,,,https://www.redfin.com/VA/MOSELEY/6702-SOUTHWALK-HTS-23120/home/144151221,CVRMLS,2133616,N,Y,37.5926204,-77.5950956
MLS Listing,,Townhouse,1211 Hyde Ln,Henrico,VA,23229,850000,4,4.5,Grayson Hill,3822,5227,2007,32,222,349,Active,,,https://www.redfin.com/VA/Richmond/1211-Hyde-Ln-23229/home/59605645,CVRMLS,2132693,N,Y,37.5939861,-77.5913804
MLS Listing,,Single Family Residential,8801 Dena Dr,Henrico,VA,23229,324000,3,2.0,Ridgehaven,1630,18295,1956,39,199,,Active,December-11-2021 02:00 PM,December-11-2021 04:00 PM,https://www.redfin.com/VA/Richmond/8801-Dena-Dr-23229/home/59658692,CVRMLS,2132785,N,Y,37.6055079,-77.562233
MLS Listing,,Single Family Residential,2 Raven Rock Ln,Henrico,VA,23229,1175000,5,6.0,Sleepy Hollow,4661,30056,2005,45,252,,Active,,,https://www.redfin.com/VA/Richmond/2-Raven-Rock-Ln-23229/home/59671533,CVRMLS,2131834,N,Y,37.575591,-77.57486
MLS Listing,,Single Family Residential,1411 Myradare Dr,Henrico,VA,23229,295000,2,1.0,Beverly Hills,816,10454,1952,61,362,,Active,,,https://www.redfin.com/VA/Richmond/1411-Myradare-Dr-23229/home/59659359,CVRMLS,2130141,N,Y,37.5990422,-77.5526946
MLS Listing,,Vacant Land,0 Midway Rd,Henrico,VA,23229,99000,,,Westhampton Settlement,,15245,,81,,,Active,,,https://www.redfin.com/VA/HENRICO/MIDWAY-RD-23229/home/59664833,CVRMLS,2128395,N,Y,37.591038,-77.571477
MLS Listing,,Single Family Residential,8710 Midway Rd,Henrico,VA,23229,199000,2,1.0,Westhampton Settlement,765,8712,1944,81,260,,Active,,,https://www.redfin.com/VA/Richmond/8710-Midway-Rd-23229/home/59664858,CVRMLS,2128391,N,Y,37.591041,-77.571213
MLS Listing,,Single Family Residential,1319 Andover Rd,Henrico,VA,23229,269990,5,2.0,Farmington,1953,10018,1957,7281,138,,Active,,,https://www.redfin.com/VA/Richmond/1319-Andover-Rd-23229/home/59657515,CVRMLS,2129694,N,Y,37.6050823,-77.5851575
PAST SALE,July-28-2020,Single Family Residential,204 Desota Dr,,VA,23229,540000,3,2.5,Sleepy Hollow,,,1958,495,,,Sold,,,https://www.redfin.com/VA/Richmond/204-Desota-Dr-23229/home/59670953,CVRMLS,2023622,N,Y,37.5803183,-77.5826952
PAST SALE,October-16-2020,Single Family Residential,800 Forest Ave,Henrico,VA,23229,655000,4,3.5,Spottswood Park,,,1957,415,,,Sold,,,https://www.redfin.com/VA/Richmond/800-Forest-Ave-23229/home/59665854,CVRMLS,2035479,N,Y,37.5865762,-77.5532401
PAST SALE,September-26-2019,Condo/Co-op,1117 Marney Ct,,VA,23229,655000,3,3.5,Grayson Hill,,,2015,801,,285,Sold,,,https://www.redfin.com/VA/Henrico/1117-Marney-Ct-23229/home/59611432,CVRMLS,1932403,N,Y,37.5915349,-77.5950321
PAST SALE,September-20-2019,Townhouse,1126 Hyde Ln,Henrico,VA,23229,375000,3,3.0,Grayson Hill,1940,,2009,807,193,285,Sold,,,https://www.redfin.com/VA/Richmond/1126-Hyde-Ln-23229/home/59605669,CVRMLS,1927678,N,Y,37.5937578,-77.5922198
PAST SALE,,Condo/Co-op,9037 Wood Sorrel Dr,Richmond,VA,23229,412000,3,2.5,,2391,,1983,,172,,,,,https://www.redfin.com/VA/Richmond/9037-Wood-Sorrel-Dr-23229/home/59664517,,,N,Y,37.588203,-77.586403
PAST SALE,,Single Family Residential,106 Roslyn Hills Dr,Richmond,VA,23229,645000,5,4.0,,3562,25330,1971,,181,,,,,https://www.redfin.com/VA/Richmond/106-Roslyn-Hills-Dr-23229/home/59671409,,,N,Y,37.5758741,-77.5655914
PAST SALE,March-29-2019,Single Family Residential,7616 Hollins Rd,Henrico,VA,23229,610000,4,3.5,Rollingwood,3181,15245,1941,982,192,,Sold,,,https://www.redfin.com/VA/Richmond/7616-Hollins-Rd-23229/home/59666367,CVRMLS,1906231,N,Y,37.5923076,-77.5433346
PAST SALE,September-29-2021,Single Family Residential,1208 Foxcroft Rd,Henrico,VA,23229,270000,2,1.0,Sterlingwood,923,9147,1949,67,293,,Sold,,,https://www.redfin.com/VA/Richmond/1208-Foxcroft-Rd-23229/home/59659675,CVRMLS,2123292,N,Y,37.5965955,-77.5424389
PAST SALE,January-6-2020,Condo/Co-op,8913 Ginger Way Ct,Henrico,VA,23229,345000,2,2.5,Mooreland Commons,1863,2613,1981,699,185,497,Sold,,,https://www.redfin.com/VA/Henrico/8913-Ginger-Way-Ct-23229/home/59665713,CVRMLS,1934475,N,Y,37.5868535,-77.5846791
PAST SALE,May-24-2021,Single Family Residential,8964 Bellefonte Rd,Henrico,VA,23229,675000,6,3.5,Deer Lodge,3208,20473,1964,195,210,,Sold,,,https://www.redfin.com/VA/Richmond/8964-Bellefonte-Rd-23229/home/59670686,CVRMLS,2110399,N,Y,37.5851795,-77.5852471
PAST SALE,May-17-2021,Single Family Residential,206 Grande Dr,Henrico,VA,23229,735000,5,3.5,Deer Lodge,3337,18295,1986,202,220,,Sold,,,https://www.redfin.com/VA/Richmond/206-Grande-Dr-23229/home/59670730,CVRMLS,2107698,N,Y,37.5828178,-77.5884705
PAST SALE,August-8-2019,Single Family Residential,1004 Lomas Ct,Henrico,VA,23229,287000,3,2.5,Westmoor,2032,16117,1966,850,141,3,Sold,,,https://www.redfin.com/VA/Richmond/1004-Lomas-Ct-23229/home/59658117,CVRMLS,1914221,N,Y,37.5961464,-77.5870379
PAST SALE,July-14-2021,Single Family Residential,9404 Lakeland Pl,Henrico,VA,23229,361000,3,2.5,Westmoor,2116,18730,1967,144,171,,Sold,,,https://www.redfin.com/VA/Richmond/9404-Lakeland-Pl-23229/home/59658150,CVRMLS,2114857,N,Y,37.5982302,-77.5877542
PAST SALE,October-21-2020,Condo/Co-op,1501 Largo Rd #202,Henrico,VA,23238,164500,3,2.0,Regency Woods Condominiums,1239,1306,1976,410,133,325,Sold,,,https://www.redfin.com/VA/Henrico/1501-Largo-Rd-23238/unit-202/home/59650426,CVRMLS,2026019,N,Y,37.6079652,-77.5865992
PAST SALE,January-31-2019,Single Family Residential,807 Derby Dr,Henrico,VA,23229,251000,3,2.0,West River Hills,1723,10890,1965,1039,146,,Sold,,,https://www.redfin.com/VA/Richmond/807-Derby-Dr-23229/home/59665285,CVRMLS,1900356,N,Y,37.5901324,-77.582055
PAST SALE,July-8-2021,Single Family Residential,9616 Asbury Ct,Henrico,VA,23229,315000,5,3.5,Farmington,2188,14374,1963,150,144,,Sold,,,https://www.redfin.com/VA/Richmond/9616-Asbury-Ct-23229/home/59658178,CVRMLS,2115400,N,Y,37.6065567,-77.588907
PAST SALE,July-20-2021,Townhouse,1122 Hyde Ln,Henrico,VA,23229,430000,4,3.0,Grayson Hill,1940,1742,2009,138,222,349,Sold,,,https://www.redfin.com/VA/Richmond/1122-Hyde-Ln-23229/home/59605381,CVRMLS,2117000,N,Y,37.5937311,-77.5923541
PAST SALE,August-23-2019,Vacant Land,9216 Holbrook Dr,,VA,23229,6000,,,Farmington,,,,835,,,Sold,,,https://www.redfin.com/VA/Richmond/9216-Holbrook-Dr-23229/home/59658457,CVRMLS,1928117,N,Y,37.605847,-77.577963
PAST SALE,February-8-2019,Townhouse,9120 Waterford Rhye Cir,Henrico,VA,23229,266500,3,3.0,Waterford Rhye,1936,4356,1988,1031,138,290,Sold,,,https://www.redfin.com/VA/Richmond/9120-Waterford-Rhye-Cir-23229/home/59658922,CVRMLS,1900177,N,Y,37.596315,-77.581033
PAST SALE,August-18-2020,Townhouse,1117 Lakeland Cir,Henrico,VA,23229,261000,2,2.5,Waterford Rhye,1694,2178,1987,474,154,290,Sold,,,https://www.redfin.com/VA/Richmond/1117-Lakeland-Cir-23229/home/59658914,CVRMLS,2020659,N,Y,37.596226,-77.582216
PAST SALE,,Multi-Family (5+ Unit),9014 Patterson Ave,Henrico,VA,23229,3232000,,,,26400,,1964,,122,,,,,https://www.redfin.com/VA/Henrico/9014-Patterson-Ave-23229/home/59665072,,,N,Y,37.5956891,-77.5789622
PAST SALE,,Condo/Co-op,8104 E Greystone Cir,Richmond,VA,23229,335000,3,3.0,,1723,,1986,,194,,,,,https://www.redfin.com/VA/Richmond/8104-E-Greystone-Cir-23229/home/59672535,,,N,Y,37.5834682,-77.5577652
PAST SALE,April-19-2019,Single Family Residential,9202 Mapleway Rd,Henrico,VA,23229,250000,4,2.0,Farmington,2228,12632,1958,961,112,,Sold,,,https://www.redfin.com/VA/Richmond/9202-Mapleway-Rd-23229/home/59657753,CVRMLS,1907950,N,Y,37.6019406,-77.5783034
PAST SALE,,Condo/Co-op,522 St Albans Way,Richmond,VA,23229,629000,3,3.0,,2533,,1988,,248,,,,,https://www.redfin.com/VA/Richmond/522-St-Albans-Way-23229/home/59672523,,,N,Y,37.583854,-77.560079
PAST SALE,,Single Family Residential,6 Paris Ridge Ln,Richmond,VA,23229,977000,7,5.5,,5488,11805,2010,,178,,,,,https://www.redfin.com/VA/Richmond/6-Paris-Ridge-Ln-23229/home/59607363,,,N,Y,37.5867991,-77.5504555
PAST SALE,June-25-2021,Single Family Residential,9005 Splitwood Cir,Henrico,VA,23229,366000,4,2.5,White Oaks,1960,10454,1980,163,187,,Sold,,,https://www.redfin.com/VA/Richmond/9005-Splitwood-Cir-23229/home/59664575,CVRMLS,2114696,N,Y,37.5911048,-77.5808595
PAST SALE,May-22-2020,Single Family Residential,9202 Waterloo Ct,Richmond,VA,23229,395000,5,3.5,Westmoor,2766,25700,1968,562,143,,Sold,,,https://www.redfin.com/VA/Richmond/9202-Waterloo-Ct-23229/home/59658402,CVRMLS,2010715,N,Y,37.5987446,-77.5810386
PAST SALE,July-10-2020,Single Family Residential,202 S Mooreland Rd,Henrico,VA,23229,825500,4,3.5,Mooreland West,3751,25264,1987,513,220,,Sold,,,https://www.redfin.com/VA/Henrico/202-S-Mooreland-Rd-23229/home/59671278,CVRMLS,2011033,N,Y,37.5812178,-77.5878098
PAST SALE,,Single Family Residential,416 Poplar Hill Ct,Richmond,VA,23229,609000,4,2.5,,2632,12306,1988,,231,,,,,https://www.redfin.com/VA/Richmond/416-Poplar-Hill-Ct-23229/home/59671733,,,N,Y,37.5836609,-77.5648301
PAST SALE,April-12-2019,Single Family Residential,8504 Bentridge Ln,Henrico,VA,23229,299000,4,3.0,Westbury Estates,1984,16988,1955,968,151,,Sold,,,https://www.redfin.com/VA/Richmond/8504-Bentridge-Ln-23229/home/59658795,CVRMLS,1905143,N,Y,37.6054367,-77.5535007
PAST SALE,December-15-2020,Vacant Land,4 Raven Rock Ln,Henrico,VA,23229,185000,,,Sleepy Hollow,,24829,,355,,,Sold,,,https://www.redfin.com/VA/Richmond/4-Raven-Rock-Rd-23229/home/59671536,CVRMLS,2026777,N,Y,37.575309,-77.575187
PAST SALE,November-19-2019,Condo/Co-op,9113 Derbyshire Rd,Henrico,VA,23229,200000,2,1.5,Deerwood Condo,1002,871,1964,747,200,263,Sold,,,https://www.redfin.com/VA/Richmond/9113-Derbyshire-Rd-23229/unit-F/home/59666155,CVRMLS,1935374,N,Y,37.587669,-77.584031
PAST SALE,,Single Family Residential,7215 University Dr,Richmond,VA,23229,400000,4,2.5,,1670,20118,1942,,240,,,,,https://www.redfin.com/VA/Richmond/7215-University-Dr-23229/home/59672047,,,N,Y,37.5769821,-77.5517719
PAST SALE,December-9-2019,Single Family Residential,1411 Severn Rd,Henrico,VA,23229,265000,3,1.5,Forest Heights,1536,11761,1948,727,173,,Sold,,,https://www.redfin.com/VA/Richmond/1411-Severn-Rd-23229/home/59659735,CVRMLS,1931845,N,Y,37.5986685,-77.5445887
PAST SALE,July-23-2021,Single Family Residential,504 Raleigh Manor Rd,Henrico,VA,23229,1078000,5,3.5,Raleigh,4704,41382,2007,135,229,108,Sold,,,https://www.redfin.com/VA/Richmond/504-Raleigh-Manor-Rd-23229/home/59603321,CVRMLS,2106867,N,Y,37.5835057,-77.5731809
PAST SALE,May-24-2019,Single Family Residential,8700 Melwood Ln,Henrico,VA,23229,417500,3,2.0,Roslyn Hills,1781,16552,1954,926,234,,Sold,,,https://www.redfin.com/VA/Richmond/8700-Melwood-Ln-23229/home/59671340,CVRMLS,1911976,N,Y,37.577211,-77.5642928
PAST SALE,July-23-2021,Single Family Residential,520 Ridgeley Ln,Henrico,VA,23229,340000,3,2.0,Forest Ridge,1732,13068,1959,135,196,,Sold,,,https://www.redfin.com/VA/Richmond/520-Ridgeley-Ln-23229/home/59665569,CVRMLS,2116366,N,Y,37.587964,-77.568681
PAST SALE,,Single Family Residential,7 Raven Rock Rd,Richmond,VA,23229,575000,4,3.0,,2723,28919,1963,,211,,,,,https://www.redfin.com/VA/Richmond/7-Raven-Rock-Rd-23229/home/59671559,,,N,Y,37.5742082,-77.5780389
PAST SALE,November-13-2020,Single Family Residential,7726 Brookside Rd,Henrico,VA,23229,505000,3,2.5,Westham,2454,13068,1951,387,206,,Sold,,,https://www.redfin.com/VA/Richmond/7726-Brookside-Rd-23229/home/59666728,CVRMLS,2030617,N,Y,37.5876773,-77.5467831
PAST SALE,October-18-2021,Single Family Residential,1303 Asbury Rd,Henrico,VA,23229,275000,4,2.0,Farmington,1588,9147,1957,48,173,,Sold,,,https://www.redfin.com/VA/Richmond/1303-Asbury-Rd-23229/home/59657539,CVRMLS,2124903,N,Y,37.6036609,-77.586814
PAST SALE,,Single Family Residential,100 College Rd,Richmond,VA,23229,1220000,5,6.5,,6096,39496,1956,,200,,,,,https://www.redfin.com/VA/Richmond/100-College-Rd-23229/home/59671973,,,N,Y,37.5758011,-77.547231
PAST SALE,February-19-2020,Single Family Residential,407 Anneslie Ct,Henrico,VA,23229,669000,4,3.5,Whitehall,3788,13939,1988,655,177,7,Sold,,,https://www.redfin.com/VA/Richmond/407-Anneslie-Ct-23229/home/59671750,CVRMLS,1934075,N,Y,37.5836634,-77.5625464
PAST SALE,June-3-2020,Condo/Co-op,8139 Greystone East Cir,Richmond,VA,23229,355000,3,3.0,Greystone Condominium,1614,1306,1986,550,220,420,Sold,,,https://www.redfin.com/VA/Richmond/8139-E-Greystone-Cir-23229/home/59672365,CVRMLS,2008721,N,Y,37.5834682,-77.5577652
PAST SALE,July-13-2021,Single Family Residential,102 Charnwood Rd,Henrico,VA,23229,862000,4,3.0,Roslyn Hills,3684,24829,1966,145,234,,Sold,,,https://www.redfin.com/VA/Richmond/102-Charnwood-Rd-23229/home/59671397,CVRMLS,2115689,N,Y,37.5751805,-77.5671586
PAST SALE,March-7-2019,Single Family Residential,9413 Lester Ln,Henrico,VA,23229,237000,4,2.0,Farmington,2228,12632,1957,1004,106,,Sold,,,https://www.redfin.com/VA/Richmond/9413-Lester-Ln-23229/home/59658059,CVRMLS,1841327,N,Y,37.6030273,-77.5847098
PAST SALE,July-21-2021,Single Family Residential,224 Roslyn Hills Dr,Henrico,VA,23229,539000,4,2.5,Roslyn Hills,1973,24829,1958,137,273,,Sold,,,https://www.redfin.com/VA/Richmond/224-Roslyn-Hills-Dr-23229/home/59671321,CVRMLS,2116070,N,Y,37.5807254,-77.5622778
PAST SALE,April-21-2020,Condo/Co-op,9131 Derbyshire Rd Unit B,Henrico,VA,23229,187000,2,1.5,Deerwood Condominium,1018,,1964,593,184,263,Sold,,,https://www.redfin.com/VA/Richmond/9131-Derbyshire-Rd-23229/unit-B/home/59666152,CVRMLS,2008112,N,Y,37.587669,-77.584031
PAST SALE,March-1-2019,Single Family Residential,102 Sleepy Hollow Rd,Henrico,VA,23229,540000,4,2.5,Sleepy Hollow Estates,3058,25264,1956,1010,177,,Sold,,,https://www.redfin.com/VA/Richmond/102-Sleepy-Hollow-Rd-23229/home/59671036,CVRMLS,1837417,N,Y,37.576153,-77.5822503
PAST SALE,March-23-2020,Condo/Co-op,300 N Ridge Rd #84,Henrico,VA,23229,415000,3,2.5,Westham Green Condo,1905,1742,1980,622,218,447,Sold,,,https://www.redfin.com/VA/Henrico/300-N-Ridge-Rd-23229/unit-84/home/59672172,CVRMLS,2000448,N,Y,37.5788631,-77.5538276
PAST SALE,July-12-2021,Single Family Residential,105 Lucerne Ln,Henrico,VA,23229,580000,3,2.0,Sleepy Hollow,2498,27007,1958,146,232,,Sold,,,https://www.redfin.com/VA/Richmond/105-Lucerne-Ln-23229/home/59671050,CVRMLS,2111514,N,Y,37.5769387,-77.5844412
PAST SALE,,Single Family Residential,1511 Baysdale Ln,Richmond,VA,23229,287100,3,2.0,,1628,12217,1954,,176,,,,,https://www.redfin.com/VA/Richmond/1511-Baysdale-Ln-23229/home/59658985,,,N,Y,37.6032909,-77.554889
PAST SALE,December-20-2018,Condo/Co-op,1503 Thistle Rd #201,Henrico,VA,23238,138000,2,2.0,Regency Woods Condominiums,1085,871,1981,1081,127,254,Sold,,,https://www.redfin.com/VA/Richmond/1503-Thistle-Rd-23238/unit-201/home/59650529,CVRMLS,1839913,N,Y,37.6078754,-77.5883
PAST SALE,June-7-2019,Condo/Co-op,300 N Ridge Rd #51,Henrico,VA,23229,240000,2,2.0,Westham Green Condo,1751,1742,1976,912,137,410,Sold,,,https://www.redfin.com/VA/Henrico/300-N-Ridge-Rd-23229/unit-51/home/59672130,CVRMLS,1838226,N,Y,37.5788631,-77.5538276
PAST SALE,August-22-2019,Vacant Land,0 Holbrook Dr,,VA,23229,6000,,,Farmington,,,,836,,,Sold,,,https://www.redfin.com/VA/HENRICO/HOLBROOK-DR-23229/home/59658460,CVRMLS,1928119,N,Y,37.606193,-77.578811
PAST SALE,April-25-2019,Single Family Residential,8108 Three Chopt Rd,Henrico,VA,23229,250000,4,2.0,Cheswick Farm,1857,20473,1942,955,135,,Sold,,,https://www.redfin.com/VA/Richmond/8108-Three-Chopt-Rd-23229/home/59658856,CVRMLS,1905717,N,Y,37.6011111,-77.5504166
PAST SALE,September-14-2020,Single Family Residential,1325 Asbury Rd,Henrico,VA,23229,280000,4,2.0,Farmington,2228,12632,1957,447,126,,Sold,,,https://www.redfin.com/VA/Regency/1325-Asbury-Rd-23229/home/59658013,CVRMLS,2022545,N,Y,37.6056883,-77.586232
PAST SALE,April-16-2019,Single Family Residential,1400 Bobbiedell Ln,Henrico,VA,23229,285000,3,2.0,Forest Heights,1404,15245,1979,964,203,,Sold,,,https://www.redfin.com/VA/Richmond/1400-Bobbiedell-Ln-23229/home/59659559,CVRMLS,1904607,N,Y,37.5983908,-77.5481267
PAST SALE,,Townhouse,1202 Hyde Ln,Richmond,VA,23229,375000,2,3.0,,1940,1839,2006,,193,,,,,https://www.redfin.com/VA/Richmond/1202-Hyde-Ln-23229/home/59605650,,,N,Y,37.5939751,-77.5919512
PAST SALE,July-10-2020,Single Family Residential,8516 Julian Rd,Henrico,VA,23229,277000,3,2.0,Glen Ridge,2080,17859,1953,513,133,,Sold,,,https://www.redfin.com/VA/Richmond/8516-Julian-Rd-23229/home/59665433,CVRMLS,2013333,N,Y,37.5934847,-77.5628151
PAST SALE,September-10-2021,Single Family Residential,8708 September Dr,Henrico,VA,23229,663500,4,2.5,Roslyn Hills,2521,17859,1957,86,263,,Sold,,,https://www.redfin.com/VA/Richmond/8708-September-Dr-23229/home/59671687,CVRMLS,2123262,N,Y,37.58209,-77.5620091
PAST SALE,August-6-2020,Single Family Residential,8202 Larcom Ln,Henrico,VA,23229,382000,3,2.0,University Heights,1610,20037,1953,486,237,,Sold,,,https://www.redfin.com/VA/Richmond/8202-Larcom-Ln-23229/home/59666085,CVRMLS,2008358,N,Y,37.5918178,-77.5572649
PAST SALE,July-28-2021,Single Family Residential,1200 Elmhurst Dr,Henrico,VA,23229,350000,3,2.0,Beverly Hills,1224,18730,1952,130,286,,Sold,,,https://www.redfin.com/VA/Richmond/1200-Elmhurst-Dr-23229/home/59666225,CVRMLS,2118787,N,Y,37.5958102,-77.5562884
PAST SALE,March-10-2021,Single Family Residential,1204 Hillside Ave,Henrico,VA,23229,245000,2,1.0,Sterlingwood,827,11325,1948,270,296,,Sold,,,https://www.redfin.com/VA/Richmond/1204-Hillside-Ave-23229/home/59659697,CVRMLS,2101765,N,Y,37.5958395,-77.5415415
PAST SALE,December-1-2021,Single Family Residential,109 Adingham Ct,Richmond,VA,23229,890000,5,3.5,River Place,4279,27878,1988,4,208,10,Sold,,,https://www.redfin.com/VA/Richmond/109-Adingham-Ct-23229/home/59671124,CVRMLS,2128024,N,Y,37.5807619,-77.5918728
PAST SALE,August-18-2021,Single Family Residential,8705 Rolando Dr,Henrico,VA,23229,300000,3,2.5,Ridgecrest,1989,11761,1955,109,151,,Sold,,,https://www.redfin.com/VA/Richmond/8705-Rolando-Dr-23229/home/59658594,CVRMLS,2119766,N,Y,37.5980591,-77.5682556
PAST SALE,December-6-2019,Single Family Residential,1213 Beverly Dr,Henrico,VA,23229,316500,3,2.0,Beverly Hills,1636,10018,1959,730,193,,Sold,,,https://www.redfin.com/VA/Richmond/1213-Beverly-Dr-23229/home/59659457,CVRMLS,1934657,N,Y,37.596979,-77.5524595
PAST SALE,November-13-2019,Single Family Residential,8407 Henrico Ave,Henrico,VA,23229,275450,3,2.0,Rivermont,2093,12632,1956,753,132,,Sold,,,https://www.redfin.com/VA/Richmond/8407-Henrico-Ave-23229/home/59666240,CVRMLS,1930547,N,Y,37.591736,-77.5607709
PAST SALE,October-24-2019,Single Family Residential,7 Paris Ridge Ln,Henrico,VA,23229,969500,5,4.5,Westham,5493,52707,2008,773,176,,Sold,,,https://www.redfin.com/VA/Richmond/7-Paris-Ridge-Ln-23229/home/59607360,CVRMLS,1927832,N,Y,37.5873717,-77.5502539
PAST SALE,April-1-2021,Single Family Residential,807 Lindsay Ct,Richmond,VA,23229,830000,4,4.0,Carrington Court,3583,14374,1996,248,232,13,Sold,,,https://www.redfin.com/VA/Richmond/807-Lindsay-Ct-23229/home/59672357,CVRMLS,2104679,N,Y,37.5841911,-77.5505898
PAST SALE,June-5-2020,Single Family Residential,9001 Weldon Dr,Henrico,VA,23229,215000,3,1.0,Greenbriar Hills,1088,14374,1955,548,198,,Sold,,,https://www.redfin.com/VA/Richmond/9001-Weldon-Dr-23229/home/59658269,CVRMLS,2010726,N,Y,37.5988414,-77.5725337
PAST SALE,August-28-2020,Single Family Residential,518 Belle Grove Ln,Henrico,VA,23229,625000,4,2.5,Belle Grove,2688,14810,1983,464,233,,Sold,,,https://www.redfin.com/VA/Richmond/518-Belle-Grove-Ln-23229/home/59671679,CVRMLS,2021075,N,Y,37.5847228,-77.5613374
PAST SALE,November-9-2020,Single Family Residential,8811 Gayton Rd,Richmond,VA,23229,270000,3,1.5,Hill And Dale,1550,17424,1955,391,174,,Sold,,,https://www.redfin.com/VA/Richmond/8811-Gayton-Rd-23229/home/59664957,CVRMLS,2028729,N,Y,37.5941761,-77.5709533
PAST SALE,April-24-2020,Single Family Residential,7100 Club Vista Ln,Henrico,VA,23229,976000,4,3.0,Westham,3921,26136,1996,590,249,,Sold,,,https://www.redfin.com/VA/Richmond/7100-Club-Vista-Ln-23229/home/59675400,CVRMLS,2004106,N,Y,37.5739113,-77.5471862
PAST SALE,June-5-2019,Single Family Residential,210 Wood Rd,Henrico,VA,23229,725000,4,3.5,Westham,2666,30927,1940,914,272,,Sold,,,https://www.redfin.com/VA/Richmond/210-Wood-Rd-23229/home/59672011,CVRMLS,1910869,N,Y,37.5791964,-77.5462911
PAST SALE,May-15-2020,Single Family Residential,1 David Dr,Henrico,VA,23229,340000,3,2.0,Glen Ridge,1846,16988,1950,569,184,,Sold,,,https://www.redfin.com/VA/Richmond/1-David-Dr-23229/home/59665393,CVRMLS,2008256,N,Y,37.5926501,-77.563442
PAST SALE,July-12-2019,Single Family Residential,1311 Vassar Rd,Henrico,VA,23229,208000,4,2.0,Farmington,2228,11325,1958,877,93,,Sold,,,https://www.redfin.com/VA/Richmond/1311-Vassar-Rd-23229/home/59657921,CVRMLS,1909706,N,Y,37.6041286,-77.5827399
PAST SALE,March-31-2021,Single Family Residential,402 Glendale Dr,Henrico,VA,23229,288800,3,1.5,Ridgeview,1205,14374,1958,249,240,,Sold,,,https://www.redfin.com/VA/Richmond/402-Glendale-Dr-23229/home/59665656,CVRMLS,2104002,N,Y,37.5861027,-77.5669795
PAST SALE,March-14-2019,Single Family Residential,9100 Carterham Rd,Henrico,VA,23229,715000,5,4.5,River Place,4528,29185,1987,997,158,10,Sold,,,https://www.redfin.com/VA/Richmond/9100-Carterham-Rd-23229/home/59670479,CVRMLS,1828512,N,Y,37.5791646,-77.5911118
PAST SALE,May-30-2019,Single Family Residential,8956 Tarrytown Dr,Henrico,VA,23229,675000,4,3.5,Sleepy Hollow,4872,23958,1971,920,139,,Sold,,,https://www.redfin.com/VA/Richmond/8956-Tarrytown-Dr-23229/home/59670897,CVRMLS,1837612,N,Y,37.5839664,-77.5838592
PAST SALE,September-10-2021,Condo/Co-op,1501 Thistle Rd #104,Henrico,VA,23238,185900,3,2.0,Regency Woods Condominiums,1319,1306,1981,86,141,357,Sold,,,https://www.redfin.com/VA/Richmond/1501-Thistle-Rd-23238/unit-104/home/59650511,CVRMLS,2123745,N,Y,37.6076234,-77.5880127
PAST SALE,August-15-2019,Single Family Residential,8508 Spalding Dr,Henrico,VA,23229,274150,4,2.0,Beverly Hills,1495,9583,1954,843,183,,Sold,,,https://www.redfin.com/VA/Richmond/8508-Spalding-Dr-23229/home/59659082,CVRMLS,1921254,N,Y,37.5984053,-77.5609344
PAST SALE,July-30-2019,Single Family Residential,8407 Holly Hill Rd,Henrico,VA,23229,225000,3,1.0,Beverly Hills,1408,10890,1954,859,160,,Sold,,,https://www.redfin.com/VA/Richmond/8407-Holly-Hill-Rd-23229/home/59659368,CVRMLS,1916322,N,Y,37.5987933,-77.5584267
PAST SALE,,Single Family Residential,8501 Julian Rd,Richmond,VA,23229,250000,3,1.5,,2416,17249,1955,,103,,,,,https://www.redfin.com/VA/Richmond/8501-Julian-Rd-23229/home/59666210,,,N,Y,37.5931012,-77.5607553
PAST SALE,September-13-2019,Single Family Residential,1314 Elon Rd,Henrico,VA,23229,262000,5,3.0,Farmington,2480,11761,1958,814,106,,Sold,,,https://www.redfin.com/VA/Richmond/1314-Elon-Rd-23229/home/59657830,CVRMLS,1921726,N,Y,37.6033139,-77.5808595
PAST SALE,,Single Family Residential,1302 Camrose Rd,Richmond,VA,23229,200000,4,2.0,,2228,10468,1958,,90,,,,,https://www.redfin.com/VA/Richmond/1302-Camrose-Rd-23229/home/59657804,,,N,Y,37.6028234,-77.5820236
PAST SALE,June-20-2019,Townhouse,1112 Hyde Ln,Henrico,VA,23229,375000,2,3.0,Grayson Hill,1940,1742,2007,899,193,285,Sold,,,https://www.redfin.com/VA/Richmond/1112-Hyde-Ln-23229/home/59605352,CVRMLS,1911221,N,Y,37.5936329,-77.5927794
PAST SALE,August-27-2021,Single Family Residential,1200 Hillside Ave,Henrico,VA,23229,315000,4,2.0,Sterlingwood,1568,10018,1948,100,201,,Sold,,,https://www.redfin.com/VA/Richmond/1200-Hillside-Ave-23229/home/59667200,CVRMLS,2116531,N,Y,37.5954948,-77.5417223
PAST SALE,,Single Family Residential,1305 Bobbiedell Ln,Richmond,VA,23229,158000,3,1.0,,1392,12505,1953,,114,,,,,https://www.redfin.com/VA/Richmond/1305-Bobbiedell-Ln-23229/home/59659606,,,N,Y,37.5971953,-77.5484402
PAST SALE,August-31-2021,Single Family Residential,3 Greentree Dr,Henrico,VA,23229,2325000,5,7.0,Cedar Ridge,7454,141570,1967,96,312,,Sold,,,https://www.redfin.com/VA/Richmond/3-Greentree-Rd-23229/home/59675739,CVRMLS,2115787,N,Y,37.5718901,-77.5847546
PAST SALE,,Single Family Residential,1509 Baysdale Ln,Richmond,VA,23229,217500,3,1.5,,1392,9472,1954,,156,,,,,https://www.redfin.com/VA/Richmond/1509-Baysdale-Ln-23229/home/59658984,,,N,Y,37.6030956,-77.5549785
PAST SALE,June-11-2021,Single Family Residential,405 Sleepy Hollow Rd,Henrico,VA,23229,985000,4,4.0,Sleepy Hollow Estates,5743,61855,2009,177,172,,Sold,,,https://www.redfin.com/VA/Richmond/405-Sleepy-Hollow-Rd-23229/home/59596180,CVRMLS,2109890,N,Y,37.5839653,-77.5759569
PAST SALE,October-27-2021,Single Family Residential,8400 Weldon Dr,Henrico,VA,23229,376201,3,2.0,Beverly Hills,1471,13068,1953,39,256,,Sold,,,https://www.redfin.com/VA/Richmond/8400-Weldon-Dr-23229/home/59666224,CVRMLS,2129403,N,Y,37.5957924,-77.5590984
PAST SALE,,Single Family Residential,8801 Midway Rd,Richmond,VA,23229,98166,3,2.0,,1008,15017,1989,,97,,,,,https://www.redfin.com/VA/Richmond/8801-Midway-Rd-23229/home/59664837,,,N,Y,37.5905048,-77.5725317
PAST SALE,September-23-2021,Single Family Residential,8717 Mapleton Rd,Henrico,VA,23229,275000,3,2.0,Ridgecrest,1602,12196,1955,73,172,,Sold,,,https://www.redfin.com/VA/Richmond/8717-Mapleton-Rd-23229/home/59664912,CVRMLS,2123984,N,Y,37.5952725,-77.5699795
PAST SALE,September-27-2021,Single Family Residential,7007 Lakewood Dr,Henrico,VA,23229,2400000,5,6.0,Westham,7280,32234,2019,69,330,,Sold,,,https://www.redfin.com/VA/Richmond/7007-Lakewood-Dr-23229/home/59672022,CVRMLS,2126344,N,Y,37.5802466,-77.5466488
PAST SALE,,Single Family Residential,7717 Stuart Hall Rd,Richmond,VA,23229,230000,3,1.5,,1212,10615,1949,,190,,,,,https://www.redfin.com/VA/Richmond/7717-Stuart-Hall-Rd-23229/home/59666535,,,N,Y,37.5894425,-77.5456635
PAST SALE,October-15-2021,Single Family Residential,431 Ziontown Rd,Henrico,VA,23229,355750,2,1.0,Acreage,1444,17859,1972,51,246,,Sold,,,https://www.redfin.com/VA/Richmond/431-Ziontown-Rd-23229/home/59672617,CVRMLS,2127907,N,Y,37.5812827,-77.5571281
PAST SALE,December-2-2020,Single Family Residential,1107 1/2 Essex Ave,Henrico,VA,23229,485000,4,3.0,University Heights,2529,17859,1956,368,192,3,Sold,,,https://www.redfin.com/VA/Richmond/1107-Essex-Ave-23229/unit-1-2/home/59666002,CVRMLS,2030749,N,Y,37.5901722,-77.5522393
PAST SALE,,Single Family Residential,9415 Michelle Pl,Richmond,VA,23229,432687,4,2.5,,2707,13511,1988,,160,,,,,https://www.redfin.com/VA/Richmond/9415-Michelle-Pl-23229/home/59664417,,,N,Y,37.5916754,-77.5908432
PAST SALE,November-1-2019,Townhouse,1108 Waterford Rhye Dr,Henrico,VA,23229,242500,2,2.5,Waterford Rhye,1600,1742,1988,765,152,290,Sold,,,https://www.redfin.com/VA/Richmond/1108-Waterford-Rhye-Dr-23229/home/59658918,CVRMLS,1926888,N,Y,37.596148,-77.58186
PAST SALE,,Condo/Co-op,8904 Ginger Way Dr,Henrico,VA,23229,479000,3,2.5,,2261,,1981,,212,,,,,https://www.redfin.com/VA/Henrico/8904-Ginger-Way-Dr-23229/home/59665695,,,N,Y,37.5867833,-77.583304
PAST SALE,,Single Family Residential,9408 Belfort Rd,Richmond,VA,23229,165000,4,2.0,,2071,16072,1961,,80,,,,,https://www.redfin.com/VA/Richmond/9408-Belfort-Rd-23229/home/59663784,,,N,Y,37.5872517,-77.5931711
PAST SALE,,Single Family Residential,804 Maybeury Dr,Richmond,VA,23229,300000,3,1.0,,1420,17723,1955,,211,,,,,https://www.redfin.com/VA/Richmond/804-Maybeury-Dr-23229/home/59663887,,,N,Y,37.591082,-77.58565
PAST SALE,,Townhouse,1132 Marney Ct,Henrico,VA,23229,925000,4,3.5,,3746,130680,2017,,247,,,,,https://www.redfin.com/VA/Henrico/1132-Marney-Ct-23229/home/69378126,,,N,Y,37.5915144,-77.5938016
PAST SALE,October-25-2021,Condo/Co-op,9105 Derbyshire Rd Unit D,Henrico,VA,23229,149000,1,1.0,Deerwood Condo,588,435,1964,41,253,167,Sold,,,https://www.redfin.com/VA/Richmond/9105-Derbyshire-Rd-23229/unit-D/home/59666131,CVRMLS,2128404,N,Y,37.5880575,-77.5831139
PAST SALE,October-22-2021,Condo/Co-op,9133 Derbyshire Rd Unit I,Henrico,VA,23229,124900,1,1.0,Deerwood Condo,602,435,1964,44,207,164,Sold,,,https://www.redfin.com/VA/Henrico/9133-Derbyshire-Rd-23229/unit-I/home/59666187,CVRMLS,2129637,N,Y,37.5880422,-77.5850008
PAST SALE,October-27-2021,Single Family Residential,9107 Burkhart Dr,Henrico,VA,23229,425000,3,1.5,Westriver Hills,1541,18295,1954,39,276,,Sold,,,https://www.redfin.com/VA/Richmond/9107-Burkhart-Dr-23229/home/59665254,CVRMLS,2126673,N,Y,37.5890552,-77.5835458
PAST SALE,May-3-2019,Townhouse,9152 Lakeland Dr,Henrico,VA,23229,247000,3,2.5,Waterford Rhye,1694,1742,1988,947,146,290,Sold,,,https://www.redfin.com/VA/Richmond/9152-Lakeland-Dr-23229/home/59658937,CVRMLS,1905175,N,Y,37.596803,-77.58224
PAST SALE,October-27-2021,Single Family Residential,504 Glendale Dr,Henrico,VA,23229,365000,3,2.0,Ridgeview,1541,10890,1957,39,237,,Sold,,,https://www.redfin.com/VA/Richmond/504-Glendale-Dr-23229/home/59665592,CVRMLS,2129556,N,Y,37.5876107,-77.5648375
PAST SALE,November-20-2019,Single Family Residential,218 Roslyn Hills Dr,Richmond,VA,23229,385000,3,2.0,Roslyn Hills,1524,19602,1955,746,253,,Sold,,,https://www.redfin.com/VA/Richmond/218-Roslyn-Hills-Dr-23229/home/59671348,CVRMLS,1932571,N,Y,37.5795943,-77.5628151
PAST SALE,May-15-2019,Single Family Residential,1004 Forest Ave,Henrico,VA,23229,500000,5,3.5,University Heights,3388,32234,1975,935,148,,Sold,,,https://www.redfin.com/VA/Richmond/1004-Forest-Ave-23229/home/59665993,CVRMLS,1906270,N,Y,37.5918386,-77.5504555
PAST SALE,May-12-2020,Condo/Co-op,1501 Regency Woods Rd #204,Henrico,VA,23238,135000,1,1.0,Regency Woods Condominiums,893,871,1977,572,151,234,Sold,,,https://www.redfin.com/VA/Richmond/1501-Regency-Woods-Rd-23238/unit-204/home/59650593,CVRMLS,2010413,N,Y,37.6078282,-77.5872072
PAST SALE,April-19-2019,Single Family Residential,8900 Midway Rd,Henrico,VA,23229,287000,4,2.5,Westhampton Settlement,1646,10890,2000,961,174,,Sold,,,https://www.redfin.com/VA/Richmond/8900-Midway-Rd-23229/home/59664813,CVRMLS,1905885,N,Y,37.5909763,-77.5750237
PAST SALE,August-20-2021,Single Family Residential,8965 Bellefonte Rd,Henrico,VA,23229,700000,4,2.5,Deer Lodge,3490,22215,1964,107,201,,Sold,,,https://www.redfin.com/VA/Richmond/8965-Bellefonte-Rd-23229/home/59670907,CVRMLS,2120302,N,Y,37.5846058,-77.5852471
PAST SALE,August-16-2021,Single Family Residential,8717 Weldon Dr,Henrico,VA,23229,303000,3,1.0,Ridgecrest,1245,11325,1955,111,243,,Sold,,,https://www.redfin.com/VA/Richmond/8717-Weldon-Dr-23229/home/59658560,CVRMLS,2119555,N,Y,37.5972084,-77.5693078
PAST SALE,June-9-2021,Condo/Co-op,1505 Largo Rd #302,Henrico,VA,23238,161000,2,2.0,Regency Woods Condominiums,1239,1306,1976,179,130,370,Sold,,,https://www.redfin.com/VA/Richmond/1505-Largo-Rd-23238/unit-302/home/59650456,CVRMLS,2112544,N,Y,37.6079035,-77.5859766
PAST SALE,February-25-2021,Single Family Residential,353 N Mooreland Rd,Henrico,VA,23229,665250,4,3.5,Deer Lodge,3262,17424,1965,283,204,,Sold,,,https://www.redfin.com/VA/Richmond/353-N-Mooreland-Rd-23229/home/59670691,CVRMLS,2037938,N,Y,37.5842313,-77.5859634
PAST SALE,September-30-2020,Single Family Residential,8015 Spottswood Rd,Henrico,VA,23229,752000,5,4.5,Spottswood Park,3628,17859,1941,431,207,,Sold,,,https://www.redfin.com/VA/Richmond/8015-Spottswood-Rd-23229/home/59665822,CVRMLS,2023470,N,Y,37.5866243,-77.5555383
PAST SALE,,Single Family Residential,620 Westham Woods Dr,Richmond,VA,23229,466000,4,2.5,,2448,18092,1980,,190,,,,,https://www.redfin.com/VA/Richmond/620-Westham-Woods-Dr-23229/home/59665892,,,N,Y,37.5890568,-77.5591804
PAST SALE,August-23-2021,Single Family Residential,209 Ralston Rd,Henrico,VA,23229,619950,3,2.5,River Road Hills,2567,18295,1961,104,242,4,Sold,,,https://www.redfin.com/VA/Richmond/209-Ralston-Rd-23229/home/59672238,CVRMLS,2119327,N,Y,37.5760812,-77.5567698
PAST SALE,April-5-2021,Single Family Residential,1300 Severn Rd,Richmond,VA,23229,425000,3,2.5,Forest Heights,1685,11761,1951,244,252,,Sold,,,https://www.redfin.com/VA/Richmond/1300-Severn-Rd-23229/home/59659718,CVRMLS,2104206,N,Y,37.5964551,-77.5461114
PAST SALE,,Single Family Residential,9024 Tarrytown Dr,Richmond,VA,23229,715000,4,3.5,,3296,56428,1987,,217,,,,,https://www.redfin.com/VA/Richmond/9024-Tarrytown-Dr-23229/home/59670788,,,N,Y,37.581697,-77.5902612
PAST SALE,,Condo/Co-op,9129 Derbyshire Rd Unit C,Richmond,VA,23229,210000,2,1.5,,996,,1964,,211,,,,,https://www.redfin.com/VA/Richmond/9129-Derbyshire-Rd-23229/unit-C/home/59666160,,,N,Y,37.5877348,-77.584656
PAST SALE,September-2-2021,Single Family Residential,8909 Turnbull Ave,Henrico,VA,23229,325000,3,2.0,West Colony,1225,17424,1959,94,265,,Sold,,,https://www.redfin.com/VA/Richmond/8909-Turnbull-Ave-23229/home/59664940,CVRMLS,2122903,N,Y,37.5925051,-77.5747704
PAST SALE,September-2-2021,Single Family Residential,1220 Blue Jay Ln,Henrico,VA,23229,269000,3,1.0,Greenbriar Hills,1088,10018,1956,94,247,,Sold,,,https://www.redfin.com/VA/Richmond/1220-Blue-Jay-Ln-23229/home/59658248,CVRMLS,2123010,N,Y,37.6003091,-77.5753237
PAST SALE,December-12-2019,Single Family Residential,1202 Elmhurst Dr,Henrico,VA,23229,267500,3,2.0,Beverly Hills,1224,13503,1952,724,219,,Sold,,,https://www.redfin.com/VA/Richmond/1202-Elmhurst-Dr-23229/home/59658994,CVRMLS,1934883,N,Y,37.5960145,-77.5561876
PAST SALE,,Single Family Residential,8910 Norwick Rd,Richmond,VA,23229,1150000,5,2.5,,3930,30610,1956,,293,,,,,https://www.redfin.com/VA/Richmond/8910-Norwick-Rd-23229/home/59675578,,,N,Y,37.5715501,-77.5919624
PAST SALE,November-17-2020,Single Family Residential,8803 Weldon Dr,Henrico,VA,23229,250000,3,1.0,Ridgecrest,1245,13068,1955,383,201,,Sold,,,https://www.redfin.com/VA/Richmond/8803-Weldon-Dr-23229/home/59659148,CVRMLS,2027854,N,Y,37.5979185,-77.5706847
PAST SALE,,Single Family Residential,1121 Bridle Ln,Richmond,VA,23229,295000,4,2.0,,1320,10897,1953,,223,,,,,https://www.redfin.com/VA/Richmond/1121-Bridle-Ln-23229/home/59658998,,,N,Y,37.5964868,-77.5605202
PAST SALE,,Single Family Residential,8702 Wytheland Rd,Richmond,VA,23229,260000,3,1.0,,1125,15954,1955,,231,,,,,https://www.redfin.com/VA/Richmond/8702-Wytheland-Rd-23229/home/59658738,,,N,Y,37.5960991,-77.5677407
PAST SALE,March-12-2020,Single Family Residential,1104 Hillside Ave,Henrico,VA,23229,265000,3,1.5,North Rollingwood,1234,11325,1942,633,215,,Sold,,,https://www.redfin.com/VA/Richmond/1104-Hillside-Ave-23229/home/59666428,CVRMLS,1937679,N,Y,37.5939739,-77.5424692
PAST SALE,January-5-2021,Single Family Residential,301 Tarrytown Dr,Henrico,VA,23229,675000,5,3.0,Sleepy Hollow,3624,30491,1960,334,186,,Sold,,,https://www.redfin.com/VA/Richmond/301-Tarrytown-Dr-23229/home/59670813,CVRMLS,2033739,N,Y,37.5803801,-77.5746137
PAST SALE,June-29-2020,Single Family Residential,1317 Dinwiddie Ave,Richmond,VA,23229,316000,3,2.0,Beverly Hills,1704,10454,1954,524,185,,Sold,,,https://www.redfin.com/VA/Richmond/1317-Dinwiddie-Ave-23229/home/59659468,CVRMLS,2014260,N,Y,37.5986298,-77.5503659
PAST SALE,,Single Family Residential,8709 Rolando Dr,Richmond,VA,23229,256000,3,1.0,,1125,12150,1955,,228,,,,,https://www.redfin.com/VA/Richmond/8709-Rolando-Dr-23229/home/59658592,,,N,Y,37.5981259,-77.5688825
PAST SALE,August-12-2019,Single Family Residential,407 Berwickshire Dr,Henrico,VA,23229,535000,4,4.0,Sleepy Hollow,3674,39639,1976,846,146,,Sold,,,https://www.redfin.com/VA/Richmond/407-Berwickshire-Dr-23229/home/59671557,CVRMLS,1920205,N,Y,37.58111,-77.5697434
PAST SALE,June-12-2019,Single Family Residential,8401 Copley Dr,Richmond,VA,23229,250000,4,1.5,Beverly Hills,1224,12196,1953,907,204,,Sold,,,https://www.redfin.com/VA/Richmond/8401-Copley-Dr-23229/home/59659027,CVRMLS,1909083,N,Y,37.5961973,-77.5590536
PAST SALE,,Single Family Residential,8415 Valley Wood Rd,Richmond,VA,23229,535000,4,2.5,,2260,11039,1988,,237,,,,,https://www.redfin.com/VA/Richmond/8415-Valley-Wood-Rd-23229/home/59671719,,,N,Y,37.5846424,-77.5644271
PAST SALE,July-13-2021,Single Family Residential,8325 Rolando Dr,Henrico,VA,23229,342750,4,2.0,Beverly Hills,1386,15245,1953,145,247,,Sold,,,https://www.redfin.com/VA/Richmond/8325-Rolando-Dr-23229/home/59666219,CVRMLS,2116223,N,Y,37.5955692,-77.558158
PAST SALE,May-7-2020,Single Family Residential,1314 Camden Dr,Richmond,VA,23229,273000,4,1.5,Ridgeway Farms,1260,10454,1954,577,217,,Sold,,,https://www.redfin.com/VA/Richmond/1314-Camden-Dr-23229/home/59659259,CVRMLS,2009525,N,Y,37.5987947,-77.5564227
PAST SALE,,Single Family Residential,8515 Julian Rd,Richmond,VA,23229,342000,4,3.0,,2555,18227,1953,,134,,,,,https://www.redfin.com/VA/Richmond/8515-Julian-Rd-23229/home/59665409,,,N,Y,37.5930141,-77.5633972
PAST SALE,September-15-2020,Single Family Residential,8505 Rivermont Dr,Henrico,VA,23229,390000,4,2.5,Rivermont,2240,13503,1956,446,174,,Sold,,,https://www.redfin.com/VA/Richmond/8505-Rivermont-Dr-23229/home/59665483,CVRMLS,2023503,N,Y,37.589544,-77.5635469
PAST SALE,March-27-2019,Single Family Residential,806 Lakewater Dr,Henrico,VA,23229,367000,4,2.5,Westmoor,2632,14810,1966,984,139,,Sold,,,https://www.redfin.com/VA/Richmond/806-Lakewater-Dr-23229/home/59663925,CVRMLS,1901072,N,Y,37.5926697,-77.5912349
PAST SALE,September-14-2020,Single Family Residential,8713 Rolando Dr,Henrico,VA,23229,252000,3,1.0,Ridgecrest,1389,12196,1955,447,181,,Sold,,,https://www.redfin.com/VA/Richmond/8713-Rolando-Dr-23229/home/59658590,CVRMLS,2023044,N,Y,37.5981182,-77.5694749
PAST SALE,June-5-2020,Single Family Residential,8809 Sierra Rd,Henrico,VA,23229,550000,3,3.0,Sleepy Hollow,2745,29620,1957,548,200,,Sold,,,https://www.redfin.com/VA/Richmond/8809-Sierra-Rd-23229/home/56532934,CVRMLS,2008604,N,Y,37.5750688,-77.5818893
PAST SALE,,Single Family Residential,1304 Grumman Dr,Richmond,VA,23229,260000,4,2.0,,1953,11987,1959,,133,,,,,https://www.redfin.com/VA/Richmond/1304-Grumman-Dr-23229/home/59657871,,,N,Y,37.6023417,-77.5755764
PAST SALE,July-12-2019,Single Family Residential,8908 Mapleton Rd,Henrico,VA,23229,210000,3,1.0,Greenbriar Hills,1088,15681,1955,877,193,,Sold,,,https://www.redfin.com/VA/Richmond/8908-Mapleton-Rd-23229/home/59658335,CVRMLS,1919050,N,Y,37.5971242,-77.5735167
PAST SALE,September-23-2020,Single Family Residential,7200 Beechwood Dr,Henrico,VA,23229,595025,3,2.5,Westham,2241,24393,1959,438,266,,Sold,,,https://www.redfin.com/VA/Richmond/7200-Beechwood-Dr-23229/home/59672498,CVRMLS,2023552,N,Y,37.584299,-77.5485298
PAST SALE,December-19-2018,Single Family Residential,8915 Norwick Rd,Henrico,VA,22229,1295000,5,4.5,Mooreland Farms,5186,27007,1955,1082,250,42,Sold,,,https://www.redfin.com/VA/Richmond/8915-Norwick-Rd-23229/home/59675473,CVRMLS,1836201,N,Y,37.5715194,-77.5932158
PAST SALE,October-20-2021,Single Family Residential,1210 Santa Anna Rd,Richmond,VA,23229,310000,4,3.0,Beverly Hills,1710,12196,1952,46,181,,Sold,,,https://www.redfin.com/VA/Richmond/1210-Santa-Anna-Rd-23229/home/59659521,CVRMLS,2128571,N,Y,37.5964209,-77.5546203
PAST SALE,July-16-2021,Single Family Residential,8796 River Rd,Henrico,VA,23229,741000,5,6.0,Sleepy Hollow,4174,84070,1984,142,178,,Sold,,,https://www.redfin.com/VA/Richmond/8796-River-Rd-23229/home/59675815,CVRMLS,2114853,N,Y,37.5721762,-77.577815
PAST SALE,,Single Family Residential,9504 Lakewater Ct,Richmond,VA,23229,350000,5,3.5,,2822,23890,1971,,124,,,,,https://www.redfin.com/VA/Richmond/9504-Lakewater-Ct-23229/home/59658134,,,N,Y,37.5974774,-77.590306
PAST SALE,June-5-2020,Single Family Residential,1613 Dena Dr,Henrico,VA,23229,226000,3,1.0,Ridgehaven,1092,11325,1955,548,207,,Sold,,,https://www.redfin.com/VA/Richmond/1613-Dena-Dr-23229/home/59658691,CVRMLS,2011244,N,Y,37.6068959,-77.5621882
PAST SALE,July-17-2020,Single Family Residential,511 Glendale Dr,Henrico,VA,23229,330000,3,2.0,,1433,19602,1958,506,230,,Sold,,,https://www.redfin.com/VA/Richmond/511-Glendale-Dr-23229/home/59665608,CVRMLS,2012414,N,Y,37.5875593,-77.5638846
PAST SALE,August-1-2019,Single Family Residential,8006 Michael Rd,Henrico,VA,23229,415000,3,1.5,,1906,43560,1939,857,218,,Sold,,,https://www.redfin.com/VA/Richmond/8006-Michael-Rd-23229/home/59652255,CVRMLS,1916541,N,Y,37.607877,-77.549569
PAST SALE,June-18-2021,Condo/Co-op,300 N Ridge Rd #58,Henrico,VA,23229,855000,4,4.5,Westham Green Condo,3261,3049,1977,170,262,803,Sold,,,https://www.redfin.com/VA/Henrico/300-N-Ridge-Rd-23229/unit-58/home/59672135,CVRMLS,2111405,N,Y,37.5788631,-77.5538276
PAST SALE,May-6-2020,Single Family Residential,8417 Sleepy Duck Pl,Richmond,VA,23229,705000,5,3.5,Westham Village,3723,13939,2000,578,189,5,Sold,,,https://www.redfin.com/VA/Richmond/8417-Sleepy-Duck-Pl-23229/home/59672401,CVRMLS,2004676,N,Y,37.5799315,-77.5605314
PAST SALE,September-30-2020,Townhouse,9110 Waterford Rhye Cir,Richmond,VA,23229,299950,3,3.5,Waterford Rhye,2088,3920,1988,431,144,290,Sold,,,https://www.redfin.com/VA/Richmond/9110-Waterford-Rhye-Cir-23229/home/59666172,CVRMLS,2022576,N,Y,37.59587,-77.581026
PAST SALE,March-18-2020,Single Family Residential,9212 Skylark Dr,Henrico,VA,23229,231000,4,2.0,Farmington,1953,10454,1959,627,118,,Sold,,,https://www.redfin.com/VA/Richmond/9212-Skylark-Dr-23229/home/59658007,CVRMLS,2000731,N,Y,37.6040658,-77.5772442
PAST SALE,May-10-2021,Single Family Residential,517 Raleigh Manor Rd,Henrico,VA,23229,1050000,4,3.5,Raleigh,4847,21780,2006,209,217,108,Sold,,,https://www.redfin.com/VA/Richmond/517-Raleigh-Manor-Rd-23229/home/59603311,CVRMLS,2105202,N,Y,37.5848936,-77.5716884
PAST SALE,December-2-2019,Single Family Residential,8 Paris Ridge Ln,Henrico,VA,23229,850000,5,4.5,,4287,13068,2011,734,198,,Sold,,,https://www.redfin.com/VA/Richmond/8-Paris-Ridge-Ln-23229/home/59607361,CVRMLS,1928074,N,Y,37.5869343,-77.5501868
PAST SALE,August-7-2020,Single Family Residential,8603 Julian Rd,Henrico,VA,23229,282500,3,2.0,Glen Ridge,1871,19602,1954,485,151,,Sold,,,https://www.redfin.com/VA/Richmond/8603-Julian-Rd-23229/home/59665315,CVRMLS,2017575,N,Y,37.593001,-77.5644271
PAST SALE,March-19-2021,Single Family Residential,100 Culpeper Rd,Richmond,VA,23229,1285000,5,4.5,Westham Ridge,4996,28314,1951,261,257,,Sold,,,https://www.redfin.com/VA/Richmond/100-Culpepper-Rd-23229/home/59676122,CVRMLS,2100298,N,Y,37.5710546,-77.5522916
PAST SALE,,Single Family Residential,8805 Dena Dr,Richmond,VA,23229,288500,3,2.0,,1492,10484,1956,,193,,,,,https://www.redfin.com/VA/Richmond/8805-Dena-Dr-23229/home/59658698,,,N,Y,37.6053194,-77.5627703
PAST SALE,August-25-2021,Single Family Residential,8902 Penguin Rd,Henrico,VA,23229,275000,3,1.5,Greenbrier Hills,1470,11761,1955,102,187,,Sold,,,https://www.redfin.com/VA/Richmond/8902-Penguin-Rd-23229/home/59658351,CVRMLS,2121552,N,Y,37.5962032,-77.5732259
PAST SALE,January-22-2019,Single Family Residential,8500 Weldon Dr,Henrico,VA,23229,195000,3,1.0,Beverly Hills,1160,12632,1954,1048,168,,Sold,,,https://www.redfin.com/VA/Richmond/8500-Weldon-Dr-23229/home/59659191,CVRMLS,1838300,N,Y,37.5963657,-77.5617852
PAST SALE,September-4-2019,Single Family Residential,203 Ralston Rd,Henrico,VA,23229,689500,4,3.0,River Road Hills,3602,,1956,823,191,,Sold,,,https://www.redfin.com/VA/Richmond/203-Ralston-Rd-23229/home/59672239,CVRMLS,1922698,N,Y,37.5748746,-77.5567922
PAST SALE,August-28-2020,Single Family Residential,8903 Sierra Rd,Richmond,VA,23229,811781,4,3.5,Sleepy Hollow Estates,4393,26136,1956,464,185,,Sold,,,https://www.redfin.com/VA/Richmond/8903-Sierra-Rd-23229/home/59671031,CVRMLS,2022102,N,Y,37.5753023,-77.5831205
PAST SALE,October-27-2020,Single Family Residential,461 Ziontown Rd,Henrico,VA,23229,740000,5,4.5,Zion Town,4400,16117,2006,404,168,,Sold,,,https://www.redfin.com/VA/Richmond/461-Ziontown-Rd-23229/home/59672614,CVRMLS,2014366,N,Y,37.5829472,-77.5561948
PAST SALE,August-7-2020,Single Family Residential,8904 Penguin Rd,Henrico,VA,23229,252000,3,2.0,Greenbriar Hills,1728,11761,1955,485,146,,Sold,,,https://www.redfin.com/VA/Richmond/8904-Penguin-Rd-23229/home/59658354,CVRMLS,2015312,N,Y,37.5961772,-77.573472
PAST SALE,June-4-2021,Single Family Residential,8906 Mapleton Rd,Henrico,VA,23238,289000,3,2.0,GREENBRIER HILLS,1168,13939,1955,184,247,,Sold,,,https://www.redfin.com/VA/Richmond/8906-Mapleton-Rd-23229/home/59658365,BRIGHT MLS,VAHN100858,N,Y,37.5970897,-77.5731668
PAST SALE,July-12-2021,Single Family Residential,528 Cedarbrooke Ln,Henrico,VA,23229,335000,3,2.0,Forest Ridge,1446,11761,1959,146,232,,Sold,,,https://www.redfin.com/VA/Richmond/528-Cedarbrooke-Ln-23229/home/59665519,CVRMLS,2115358,N,Y,37.5885755,-77.5671138
PAST SALE,July-30-2021,Single Family Residential,1409 Severn Rd,Henrico,VA,23229,354000,3,2.0,,1344,12632,1948,128,263,,Sold,,,https://www.redfin.com/VA/Richmond/1409-Severn-Rd-23229/home/59659736,CVRMLS,2116603,N,Y,37.5984733,-77.5446782
PAST SALE,July-30-2021,Single Family Residential,8421 Valley Wood Rd,Henrico,VA,23229,485000,4,2.5,Whitehall,2116,16117,1987,128,229,8,Sold,,,https://www.redfin.com/VA/Richmond/8421-Valley-Wood-Rd-23229/home/59671724,CVRMLS,2117467,N,Y,37.5847597,-77.5651436
PAST SALE,August-2-2021,Single Family Residential,109 Ralston Rd,Henrico,VA,23229,784050,4,3.5,River Road Hills,2658,25264,1963,125,295,,Sold,,,https://www.redfin.com/VA/Richmond/109-Ralston-Rd-23229/home/59675387,CVRMLS,2118762,N,Y,37.5736728,-77.5568594
PAST SALE,August-31-2021,Single Family Residential,1104 Hill Cir,Henrico,VA,23229,375000,3,2.5,,1694,10890,1942,96,221,,Sold,,,https://www.redfin.com/VA/Richmond/1104-Hill-Cir-23229/home/59666444,CVRMLS,2121692,N,Y,37.595179,-77.54404
PAST SALE,January-15-2021,Single Family Residential,1406 Dinwiddie Ave,Henrico,VA,23229,327200,3,1.5,Beverly Hills,1420,10890,1955,324,230,,Sold,,,https://www.redfin.com/VA/Richmond/1406-Dinwiddie-Ave-23229/home/59659498,CVRMLS,2036416,N,Y,37.5996178,-77.5504107
PAST SALE,September-4-2019,Single Family Residential,8800 Bellefonte Rd,Henrico,VA,23229,785000,6,4.0,Bellefonte,4870,27442,1969,823,161,,Sold,,,https://www.redfin.com/VA/Richmond/8800-Bellefonte-Rd-23229/home/59665187,CVRMLS,1923175,N,Y,37.5853548,-77.5780389
PAST SALE,April-29-2021,Single Family Residential,109 Doverland Rd,Richmond,VA,23229,950000,4,3.5,Sleepy Hollow,4651,28314,1971,220,204,,Sold,,,https://www.redfin.com/VA/Richmond/109-Doverland-Rd-23229/home/59671545,CVRMLS,2107380,N,Y,37.5772381,-77.5783971
PAST SALE,October-24-2019,Single Family Residential,6 S Country Squire Ln,Henrico,VA,23229,1650000,6,6.0,Westham Ridge,6916,43560,2007,773,239,,Sold,,,https://www.redfin.com/VA/Richmond/6-Country-Squire-Ln-23229/home/59675841,CVRMLS,1929108,N,Y,37.5717812,-77.5500748
PAST SALE,June-12-2020,Single Family Residential,1310 Condover Rd,Henrico,VA,23229,220000,3,2.0,Farmington,1008,11325,1990,541,218,,Sold,,,https://www.redfin.com/VA/Richmond/1310-Condover-Rd-23229/home/59659124,CVRMLS,2007887,N,Y,37.6035193,-77.576248
PAST SALE,,Townhouse,1200 Hyde Ln,Richmond,VA,23229,392850,3,2.5,,1940,2564,2006,,203,,,,,https://www.redfin.com/VA/Richmond/1200-Hyde-Ln-23229/home/59604770,,,N,Y,37.5939298,-77.5920071
PAST SALE,June-14-2019,Condo/Co-op,9111 Derbyshire Rd Unit I,Henrico,VA,23229,230000,3,2.0,Deerwood Condominium,1386,1306,1964,905,166,283,Sold,,,https://www.redfin.com/VA/Richmond/9111-Derbyshire-Rd-23229/unit-I/home/59666161,CVRMLS,1913680,N,Y,37.5880327,-77.5839487
PAST SALE,August-27-2020,Single Family Residential,1405 Shane Rd,Henrico,VA,23229,264000,4,2.0,Farmington,1588,19166,1959,465,166,,Sold,,,https://www.redfin.com/VA/Richmond/1405-Shane-Rd-23229/home/59658465,CVRMLS,2021086,N,Y,37.6062672,-77.5797402
PAST SALE,April-11-2019,Single Family Residential,8412 Copley Dr,Henrico,VA,23229,240000,3,2.0,Beverly Hills,1500,13068,1953,969,160,,Sold,,,https://www.redfin.com/VA/Richmond/8412-Copley-Dr-23229/home/59659036,CVRMLS,1907559,N,Y,37.5972491,-77.5591208
PAST SALE,April-19-2019,Single Family Residential,1118 Bridle Ln,Henrico,VA,23229,233500,3,1.0,Beverly Hills,1208,15245,1954,961,193,,Sold,,,https://www.redfin.com/VA/Richmond/1118-Bridle-Ln-23229/home/59665337,CVRMLS,1905293,N,Y,37.5959281,-77.561628
PAST SALE,November-1-2019,Condo/Co-op,8409 Holly Hill Rd,Henrico,VA,23229,272200,3,2.0,Beverly Hills,1608,10890,1954,765,169,,Sold,,,https://www.redfin.com/VA/Richmond/8409-Holly-Hill-Rd-23229/home/59659367,CVRMLS,1927484,N,Y,37.5988626,-77.5586814
PAST SALE,June-10-2020,Single Family Residential,8908 Penquin Rd,Henrico,VA,23229,289995,4,2.0,Greenbriar Hills,1856,14810,1955,543,156,,Sold,,,https://www.redfin.com/VA/Richmond/8908-Penguin-Rd-23229/home/59658356,CVRMLS,2009315,N,Y,37.5962439,-77.5740988
PAST SALE,October-23-2020,Single Family Residential,3 Westham Pkwy,Henrico,VA,23229,489000,3,2.0,Westham,1757,15245,1959,408,278,,Sold,,,https://www.redfin.com/VA/Richmond/3-Westham-Pkwy-23229/home/59675394,CVRMLS,2021817,N,Y,37.5734317,-77.5496046
PAST SALE,October-22-2021,Single Family Residential,1710 Chadwick Dr,Henrico,VA,23229,637500,3,2.5,Acreage,2450,91476,1953,44,260,,Sold,,,https://www.redfin.com/VA/Richmond/1710-Chadwick-Dr-23229/home/59652261,CVRMLS,2128517,N,Y,37.6072897,-77.5420806
PAST SALE,,Single Family Residential,8117 University Dr,Richmond,VA,23229,499900,3,2.5,,2411,15795,1957,,207,,,,,https://www.redfin.com/VA/Richmond/8117-University-Dr-23229/home/59672228,,,N,Y,37.5761297,-77.5564563
PAST SALE,December-4-2019,Single Family Residential,710 Timken Dr,Henrico,VA,23229,250000,3,1.0,Sheridan Hills,1102,16552,1957,732,227,,Sold,,,https://www.redfin.com/VA/Richmond/710-Timken-Dr-23229/home/59663903,CVRMLS,1930608,N,Y,37.5896391,-77.5896688
PAST SALE,,Single Family Residential,8304 Kingsthorpe Ter,Richmond,VA,23229,995000,4,3.0,,3370,19026,2000,,295,,,,,https://www.redfin.com/VA/Richmond/8304-Kingsthorpe-Ter-23229/home/59672420,,,N,Y,37.5816213,-77.5583819
PAST SALE,November-21-2019,Single Family Residential,1409 Blue Jay Ln,Henrico,VA,23229,240000,3,1.5,Greenbriar Hills,1088,18730,1957,745,221,,Sold,,,https://www.redfin.com/VA/Richmond/1409-Blue-Jay-Ln-23229/home/59658714,CVRMLS,1930573,N,Y,37.6040229,-77.5726101
PAST SALE,July-1-2020,Condo/Co-op,1503 Thistle Rd #301,Richmond,VA,23238,162000,3,2.5,Regency Woods Condominiums,2033,2178,1981,522,80,533,Sold,,,https://www.redfin.com/VA/Richmond/1503-Thistle-Rd-23238/unit-301/home/59650548,CVRMLS,2004329,N,Y,37.6078754,-77.5883
PAST SALE,December-7-2020,Townhouse,9108 Waterford Rhye Cir,Henrico,VA,23229,255000,2,2.5,Waterford Rhye,1642,1742,1988,363,155,290,Sold,,,https://www.redfin.com/VA/Richmond/9108-Waterford-Rhye-Cir-23229/home/59666171,CVRMLS,2033936,N,Y,37.595873,-77.58113
PAST SALE,May-6-2019,Single Family Residential,310 Glendale Dr,Henrico,VA,23229,349000,4,2.5,Ridgeview,2298,15681,1990,944,152,,Sold,,,https://www.redfin.com/VA/Richmond/310-Glendale-Dr-23229/home/59665668,CVRMLS,1906852,N,Y,37.5852633,-77.5675616
PAST SALE,June-13-2019,Single Family Residential,1302 Rosecroft Rd,Henrico,VA,23229,220000,3,1.0,Ridgecrest,1245,11761,1956,906,177,,Sold,,,https://www.redfin.com/VA/Richmond/1302-Rosecroft-Rd-23229/home/59658486,CVRMLS,1909886,N,Y,37.5989247,-77.5711884
PAST SALE,December-19-2019,Single Family Residential,1603 Westbury Dr,Henrico,VA,23229,279900,3,2.0,Westbury Estates,2136,15681,1958,717,131,,Sold,,,https://www.redfin.com/VA/Richmond/1603-Westbury-Dr-23229/home/59658791,CVRMLS,1932402,N,Y,37.6052544,-77.5525603
PAST SALE,,Single Family Residential,1506 Bexhill Rd,Richmond,VA,23229,260000,3,1.5,,1632,11885,1957,,159,,,,,https://www.redfin.com/VA/Richmond/1506-Bexhill-Rd-23229/home/59658767,,,N,Y,37.6033375,-77.5569153
PAST SALE,July-31-2020,Single Family Residential,1319 Elon Rd,Henrico,VA,23229,265950,4,2.0,Farmington,1953,11761,1958,492,136,,Sold,,,https://www.redfin.com/VA/Richmond/1319-Elon-Rd-23229/home/59657850,CVRMLS,2018750,N,Y,37.6037074,-77.5803223
PAST SALE,January-10-2020,Single Family Residential,1413 Coronet Dr,Henrico,VA,23229,195000,3,1.0,Ridgeway Farms,1008,10454,1955,695,193,,Sold,,,https://www.redfin.com/VA/Richmond/1413-Coronet-Dr-23229/home/59659401,CVRMLS,1935745,N,Y,37.5997932,-77.5535903
PAST SALE,April-14-2021,Single Family Residential,9411 Farmington Dr,Henrico,VA,23229,322000,4,2.5,Farmington,2068,11325,1963,235,156,,Sold,,,https://www.redfin.com/VA/Richmond/9411-Farmington-Dr-23229/home/59657951,CVRMLS,2105742,N,Y,37.6059178,-77.5837697
PAST SALE,October-25-2019,Single Family Residential,9016 Farmington Dr,Henrico,VA,23229,211000,3,1.5,Greenbriar Hills,1088,10890,1956,772,194,,Sold,,,https://www.redfin.com/VA/Richmond/9016-Farmington-Dr-23229/home/59658627,CVRMLS,1926063,N,Y,37.6014485,-77.5729105
PAST SALE,January-18-2019,Condo/Co-op,1503 Thistle Rd #202,Henrico,VA,23238,119950,2,2.0,Regency Woods Condominiums,1090,1306,1981,1052,110,275,Sold,,,https://www.redfin.com/VA/Richmond/1503-Thistle-Rd-23238/unit-202/home/59650528,CVRMLS,1840104,N,Y,37.6078754,-77.5883
PAST SALE,September-24-2019,Condo/Co-op,1300 Maywood Rd,Henrico,VA,23229,249550,4,2.0,Ridgeway Farms,1566,11325,1954,803,159,,Sold,,,https://www.redfin.com/VA/Richmond/1300-Maywood-Rd-23229/home/59659245,CVRMLS,1925302,N,Y,37.5981816,-77.5580684
PAST SALE,,Single Family Residential,9617 Asbury Ct,Richmond,VA,23229,230000,4,2.5,,2068,13285,1963,,111,,,,,https://www.redfin.com/VA/Richmond/9617-Asbury-Ct-23229/home/59658183,,,N,Y,37.6063304,-77.5891868
PAST SALE,June-5-2020,Single Family Residential,8913 Sierra Rd,Richmond,VA,23229,600000,4,3.0,Sleepy Hollow,3588,27442,1957,548,167,,Sold,,,https://www.redfin.com/VA/Richmond/8913-Sierra-Rd-23229/home/59670685,CVRMLS,2009520,N,Y,37.5759923,-77.5855605
PAST SALE,December-1-2020,Single Family Residential,8403 Valley Wood Rd,Henrico,VA,23229,625000,5,3.5,Whitehall,3245,8712,1987,369,193,8,Sold,,,https://www.redfin.com/VA/Richmond/8403-Valley-Wood-Rd-23229/home/59671683,CVRMLS,2029188,N,Y,37.5846195,-77.5629671
PAST SALE,,Single Family Residential,1313 St Michaels Ln,Richmond,VA,23229,160000,3,1.0,,720,9921,1950,,222,,,,,https://www.redfin.com/VA/Richmond/1313-St-Michaels-Ln-23229/home/59658539,,,N,Y,37.5992542,-77.565054
PAST SALE,,Single Family Residential,910 Westham Pkwy,Richmond,VA,23229,903000,3,1.0,,1152,13281,1952,,784,,,,,https://www.redfin.com/VA/Richmond/910-Westham-Pkwy-23229/home/59666651,,,N,Y,37.5891596,-77.5410953
PAST SALE,August-20-2021,Single Family Residential,501 Cokesburg Ln,Henrico,VA,23229,350000,3,2.0,Ridgeview,1433,10890,1957,107,244,,Sold,,,https://www.redfin.com/VA/Richmond/501-Cokesburg-Ln-23229/home/59665595,CVRMLS,2122488,N,Y,37.5875528,-77.5655914
PAST SALE,July-17-2019,Single Family Residential,507 Greene Ridge Rd,Henrico,VA,23229,555000,4,2.0,Whitehall,3288,,1986,872,169,7,Sold,,,https://www.redfin.com/VA/Richmond/507-Greene-Ridge-Rd-23229/home/59671758,CVRMLS,1919563,N,Y,37.5848002,-77.5622554
PAST SALE,May-28-2021,Townhouse,501 St Albans Way,Henrico,VA,23229,600000,3,3.0,St Albans Condominium,2382,2178,1993,191,252,572,Sold,,,https://www.redfin.com/VA/Richmond/501-St-Albans-Way-23229/home/59672566,CVRMLS,2110612,N,Y,37.583854,-77.560079
PAST SALE,August-7-2019,Single Family Residential,8813 Avalon Dr,Henrico,VA,23229,285000,3,1.5,Sharon Hills,1404,13503,1957,851,203,,Sold,,,https://www.redfin.com/VA/Richmond/8813-Avalon-Dr-23229/home/59665081,CVRMLS,1922702,N,Y,37.5895953,-77.5774568
PAST SALE,,Condo/Co-op,9016 Wood Sorrel Dr,Richmond,VA,23229,460000,3,2.5,,1913,,1983,,240,,,,,https://www.redfin.com/VA/Richmond/9016-Wood-Sorrel-Dr-23229/home/59664521,,,N,Y,37.588203,-77.586403
PAST SALE,April-2-2019,Single Family Residential,6 Carterham Ct,Richmond,VA,23229,834150,5,3.5,River Place,4224,23522,1986,978,197,10,Sold,,,https://www.redfin.com/VA/Richmond/6-Carterham-Ct-23229/home/59670752,CVRMLS,1900669,N,Y,37.5805046,-77.5913804
PAST SALE,October-27-2021,Townhouse,8917 Ginger Way Ct,Henrico,VA,23229,505000,3,3.0,Mooreland Commons,2140,2613,1981,39,236,557,Sold,,,https://www.redfin.com/VA/Richmond/8917-Ginger-Way-Ct-23229/home/59664482,CVRMLS,2127105,N,Y,37.5881098,-77.5864045
PAST SALE,,Single Family Residential,1331 Camrose Rd,Richmond,VA,23229,130000,4,2.0,,1953,11100,1958,,67,,,,,https://www.redfin.com/VA/Richmond/1331-Camrose-Rd-23229/home/59657819,,,N,Y,37.6046107,-77.5826504
PAST SALE,December-23-2019,Single Family Residential,400 Glendale Dr,Henrico,VA,23229,245500,3,1.5,Ridgeview,1205,14374,1958,713,204,,Sold,,,https://www.redfin.com/VA/Richmond/400-Glendale-Dr-23229/home/59665655,CVRMLS,1935840,N,Y,37.585874,-77.5671334
PAST SALE,April-14-2020,Single Family Residential,8709 Mapleton Rd,Henrico,VA,23229,250000,3,1.5,Ridgecrest,1317,12196,1955,600,190,,Sold,,,https://www.redfin.com/VA/Richmond/8709-Mapleton-Rd-23229/home/59664916,CVRMLS,2004868,N,Y,37.5952352,-77.5688601
PAST SALE,September-10-2021,Single Family Residential,1219 Bowden Rd,Henrico,VA,23229,305000,4,2.0,Farmington,1588,10890,1959,86,192,,Sold,,,https://www.redfin.com/VA/Richmond/1219-Bowden-Rd-23229/home/59657786,CVRMLS,2116672,N,Y,37.6014283,-77.5777702
PAST SALE,May-20-2019,Single Family Residential,8901 Avalon Dr,Henrico,VA,23229,268300,3,1.5,Sharon Hills,1425,17424,1957,930,188,,Sold,,,https://www.redfin.com/VA/Richmond/8901-Avalon-Dr-23229/home/59665104,CVRMLS,1907715,N,Y,37.5895944,-77.578218
PAST SALE,March-27-2020,Single Family Residential,9107 Mapleton Rd,Henrico,VA,23229,258000,3,2.5,Greenbriar West,1650,19166,1985,618,156,,Sold,,,https://www.redfin.com/VA/Richmond/9107-Mapleton-Rd-23229/home/59659111,CVRMLS,2003497,N,Y,37.5987491,-77.577233
PAST SALE,,Single Family Residential,7700 Three Chopt Rd,Richmond,VA,23229,282000,3,1.5,,1190,13280,1954,,237,,,,,https://www.redfin.com/VA/Richmond/7700-Three-Chopt-Rd-23229/home/59660096,,,N,Y,37.5978808,-77.540569
PAST SALE,,Single Family Residential,7608 Sweetbriar Rd,Richmond,VA,23229,410000,4,2.0,,1704,12363,1940,,241,,,,,https://www.redfin.com/VA/Richmond/7608-Sweetbriar-Rd-23229/home/59666383,,,N,Y,37.591921,-77.5416327
PAST SALE,May-19-2020,Single Family Residential,8906 Norwick Rd,Henrico,VA,23229,696000,6,4.0,Mooreland Farms,5170,27878,1956,565,135,,Sold,,,https://www.redfin.com/VA/Richmond/8906-Norwick-Rd-23229/home/59675576,CVRMLS,2004632,N,Y,37.57082,-77.591649
PAST SALE,September-5-2019,Single Family Residential,517 Belle Grove Ln,Richmond,VA,23229,589950,4,2.5,Belle Grove,3289,13503,1984,822,179,,Sold,,,https://www.redfin.com/VA/Richmond/517-Belle-Grove-Ln-23229/home/59672486,CVRMLS,1921533,N,Y,37.5842838,-77.5609187
PAST SALE,May-27-2021,Single Family Residential,203 Cyril Ln,Henrico,VA,23229,1250000,5,4.0,Mooreland West,4438,28749,1985,192,282,,Sold,,,https://www.redfin.com/VA/Richmond/203-Cyril-Ln-23229/home/59671214,CVRMLS,2108249,N,Y,37.5749698,-77.5929025
PAST SALE,,Single Family Residential,202 Naman Rd,Richmond,VA,23229,399900,4,2.5,,2331,34806,1964,,172,,,,,https://www.redfin.com/VA/Richmond/202-Naman-Rd-23229/home/59670509,,,N,Y,37.5826155,-77.5919624
PAST SALE,,Single Family Residential,9404 Epson Downs Dr,Richmond,VA,23229,525000,5,3.0,,2727,13937,2002,,193,,,,,https://www.redfin.com/VA/Richmond/9404-Epson-Downs-Dr-23229/home/59664641,,,N,Y,37.5888728,-77.5912685
PAST SALE,April-14-2021,Single Family Residential,9305 Derbyshire Rd,Henrico,VA,23229,289000,4,1.5,Brandon,1502,26571,1959,235,192,,Sold,,,https://www.redfin.com/VA/Richmond/9305-Derbyshire-Rd-23229/home/59663812,CVRMLS,2107657,N,Y,37.588022,-77.5884705
PAST SALE,January-17-2019,Single Family Residential,9401 Paigefield Ct,Henrico,VA,23229,399500,4,2.5,Sleepy Hollow Forest,2444,12632,1988,1053,163,5,Sold,,,https://www.redfin.com/VA/Richmond/9401-Paigefield-Ct-23229/home/59664409,CVRMLS,1829338,N,Y,37.5903824,-77.5898583
PAST SALE,December-10-2019,Single Family Residential,9400 Treetop Ln,Henrico,VA,23229,287000,4,2.5,Westmoor,2422,14810,1966,726,118,,Sold,,,https://www.redfin.com/VA/Richmond/9400-Treetop-Ln-23229/home/59664005,CVRMLS,1932927,N,Y,37.5925855,-77.5892875
PAST SALE,July-2-2021,Condo/Co-op,1505 Largo Rd #102,Richmond,VA,23238,140000,2,2.0,Regency Woods Condominiums,1239,871,1976,156,113,336,Sold,,,https://www.redfin.com/VA/Richmond/1505-Largo-Rd-23238/unit-102/home/59650448,CVRMLS,2117469,N,Y,37.6079035,-77.5859766
PAST SALE,,Single Family Residential,1303 Forest Ave,Richmond,VA,23229,251000,4,2.0,,1640,10571,1947,,153,,,,,https://www.redfin.com/VA/Richmond/1303-Forest-Ave-23229/home/59659532,,,N,Y,37.5969364,-77.5467831
PAST SALE,August-27-2020,Townhouse,8251 Greystone West Cir,Henrico,VA,23229,371000,3,2.0,Greystone Condominium,1728,,1996,465,215,450,Sold,,,https://www.redfin.com/VA/Richmond/8251-Greystone-Cir-W-23229/home/59672344,CVRMLS,2019164,N,Y,37.5837623,-77.5593336
PAST SALE,November-13-2020,Single Family Residential,1216 Hillside Ave,Henrico,VA,23229,352000,4,2.5,Sterlingwood,1734,10454,1948,387,203,,Sold,,,https://www.redfin.com/VA/Richmond/1216-Hillside-Ave-23229/home/59659661,CVRMLS,2028768,N,Y,37.596934,-77.5410057
PAST SALE,January-11-2019,Single Family Residential,7710 Patterson Ave,Henrico,VA,23229,222000,3,2.0,North Rollingwood,1472,12196,1940,1059,151,,Sold,,,https://www.redfin.com/VA/Richmond/7710-Patterson-Ave-23229/home/59666459,CVRMLS,1834395,N,Y,37.5938003,-77.5450365
PAST SALE,,Single Family Residential,8505 Weldon Dr,Richmond,VA,23229,128750,3,1.0,,1008,10065,1954,,128,,,,,https://www.redfin.com/VA/Richmond/8505-Weldon-Dr-23229/home/59659137,,,N,Y,37.5960562,-77.5627255
PAST SALE,August-12-2020,Condo/Co-op,1503 Largo Rd #302,Henrico,VA,23238,143500,2,2.0,Regency Woods Condominiums,1239,871,1977,480,116,325,Sold,,,https://www.redfin.com/VA/Richmond/1503-Largo-Rd-23238/unit-302/home/59650441,CVRMLS,2019757,N,Y,37.6077891,-77.5859169
PAST SALE,March-10-2020,Condo/Co-op,9105 Derbyshire Rd Unit E,Henrico,VA,23229,135000,1,1.0,Deerwood Condo,588,435,1964,635,230,190,Sold,,,https://www.redfin.com/VA/Richmond/9105-Derbyshire-Rd-23229/unit-E/home/59666132,CVRMLS,2001109,N,Y,37.5880575,-77.5831139
PAST SALE,September-24-2020,Single Family Residential,1218 Condover Rd,Henrico,VA,23229,300000,4,2.0,Farmington,2228,10018,1959,437,135,,Sold,,,https://www.redfin.com/VA/Richmond/1218-Condover-Rd-23229/home/59657770,CVRMLS,2024212,N,Y,37.6013301,-77.577233
PAST SALE,June-28-2019,Condo/Co-op,300 N Ridge Rd #23,Henrico,VA,23229,260000,2,2.5,Westham Green Condo,1482,1306,1973,891,175,341,Sold,,,https://www.redfin.com/VA/Henrico/300-N-Ridge-Rd-23229/unit-23/home/59672105,CVRMLS,1906206,N,Y,37.5788631,-77.5538276
PAST SALE,March-6-2019,Single Family Residential,8102 University Dr,Richmond,VA,23229,675000,4,3.0,River Road Hills,3275,26136,1948,1005,206,,Sold,,,https://www.redfin.com/VA/Richmond/8102-University-Dr-23229/home/59672259,CVRMLS,1840335,N,Y,37.5767555,-77.5550233
PAST SALE,May-17-2019,Condo/Co-op,9035 Wood Sorrel Dr #9035,Henrico,VA,23229,333000,2,2.5,Mooreland Commons,1863,2613,1984,933,179,545,Sold,,,https://www.redfin.com/VA/Richmond/9035-Wood-Sorrel-Dr-23229/home/59664520,CVRMLS,1903908,N,Y,37.588203,-77.586403
PAST SALE,June-11-2020,Single Family Residential,4 N Mooreland Rd,Henrico,VA,23229,627500,4,3.5,Deer Lodge,3344,40946,1968,542,188,,Sold,,,https://www.redfin.com/VA/Richmond/4-N-Mooreland-Rd-23229/home/59595496,CVRMLS,2007603,N,Y,37.5779906,-77.5893211
PAST SALE,June-29-2021,Single Family Residential,215 Roslyn Hills Dr,Henrico,VA,23229,489000,4,2.5,Roslyn Hills,2026,20037,1959,159,241,,Sold,,,https://www.redfin.com/VA/Richmond/215-Roslyn-Hills-Dr-23229/home/59671380,CVRMLS,2114290,N,Y,37.5798123,-77.5617852
PAST SALE,October-30-2019,Condo/Co-op,1219 Hyde Ln,Henrico,VA,23229,755000,3,3.5,Grayson Hill,3708,5227,2006,767,204,285,Sold,,,https://www.redfin.com/VA/Richmond/1219-Hyde-Ln-23229/home/59603637,CVRMLS,1928870,N,Y,37.594413,-77.5911566
PAST SALE,June-13-2019,Single Family Residential,1431 Myradare Dr,Henrico,VA,23229,250000,3,2.0,Beverly Hills,1796,13503,1952,906,139,,Sold,,,https://www.redfin.com/VA/Richmond/1431-Myradare-Dr-23229/home/59659353,CVRMLS,1911289,N,Y,37.6008215,-77.5517094
PAST SALE,,Single Family Residential,9112 Mapleton Rd,Richmond,VA,23229,260000,3,2.5,,1713,11506,1985,,152,,,,,https://www.redfin.com/VA/Richmond/9112-Mapleton-Rd-23229/home/59658872,,,N,Y,37.5996343,-77.5781396
PAST SALE,April-16-2019,Condo/Co-op,9002 Wood Sorrel Ct,Henrico,VA,23229,385000,3,3.0,Mooreland Commons,2140,2613,1984,964,180,545,Sold,,,https://www.redfin.com/VA/Richmond/9002-Wood-Sorrel-Ct-23229/home/59664502,CVRMLS,1833397,N,Y,37.588203,-77.586403
PAST SALE,March-30-2020,Single Family Residential,9106 Derbyshire Rd,Henrico,VA,23229,240000,3,1.0,Westriver Hills,1096,12632,1955,615,219,,Sold,,,https://www.redfin.com/VA/Richmond/9106-Derbyshire-Rd-23229/home/59665265,CVRMLS,2003739,N,Y,37.5885225,-77.5835458
PAST SALE,April-16-2019,Single Family Residential,1321 Asbury Rd,Henrico,VA,23229,191000,4,2.0,Farmington,2228,9583,1957,964,86,,Sold,,,https://www.redfin.com/VA/Richmond/1321-Asbury-Rd-23229/home/59657513,CVRMLS,1906569,N,Y,37.6052834,-77.5862768
PAST SALE,March-6-2020,Single Family Residential,1205 Blue Jay Ln,Henrico,VA,23229,262000,3,2.0,Greenbrier Hills,1367,11325,1955,639,192,,Sold,,,https://www.redfin.com/VA/Richmond/1205-Blue-Jay-Ln-23229/home/59658272,CVRMLS,2000590,N,Y,37.5990405,-77.5753525
PAST SALE,March-29-2019,Single Family Residential,9005 Tarrytown Dr,Henrico,VA,23229,719500,5,3.5,Deer Lodge,3607,17859,1987,982,199,,Sold,,,https://www.redfin.com/VA/Richmond/9005-Tarrytown-Dr-23229/home/59670732,CVRMLS,1902127,N,Y,37.5834449,-77.5882019
PAST SALE,June-28-2019,Single Family Residential,3 Bridgehampton Pl,Henrico,VA,23229,410000,4,2.5,Yorkshire,2300,25700,1980,891,178,,Sold,,,https://www.redfin.com/VA/Richmond/3-Bridgehampton-Pl-23229/home/59671498,CVRMLS,1914063,N,Y,37.5829343,-77.5680093
PAST SALE,,Single Family Residential,8024 Spottswood Rd,Richmond,VA,23229,605000,3,2.5,,2341,15123,1948,,258,,,,,https://www.redfin.com/VA/Richmond/8024-Spottswood-Rd-23229/home/59665865,,,N,Y,37.5875403,-77.5566355
PAST SALE,,Single Family Residential,8324 University Ct,Richmond,VA,23229,650000,4,3.5,,5164,17811,2019,,126,,,,,https://www.redfin.com/VA/Richmond/8324-University-Ct-23229/home/59671637,,,N,Y,37.578006,-77.55961
PAST SALE,December-17-2018,Single Family Residential,1308 Camrose Rd,Henrico,VA,23229,240000,4,2.0,Farmington,2228,12632,1958,1084,108,,Sold,,,https://www.redfin.com/VA/Richmond/1308-Camrose-Rd-23229/home/59657917,CVRMLS,1837853,N,Y,37.603416,-77.5822027
PAST SALE,June-3-2019,Single Family Residential,1210 Blue Jay Ln,Henrico,VA,23229,236000,3,1.0,Greenbriar Hills,1088,10018,1956,916,217,,Sold,,,https://www.redfin.com/VA/Richmond/1210-Blue-Jay-Ln-23229/home/59658251,CVRMLS,1912543,N,Y,37.5994111,-77.5757554
PAST SALE,May-27-2020,Single Family Residential,204 El Dorado Dr,Richmond,VA,23229,555000,3,2.5,Sleepy Hollow Estates,2650,25264,1959,557,209,,Sold,,,https://www.redfin.com/VA/Richmond/204-El-Dorado-Dr-23229/home/59670960,CVRMLS,2011763,N,Y,37.5786632,-77.5822775
PAST SALE,February-19-2021,Single Family Residential,105 El Dorado Dr,Henrico,VA,23229,498114,4,2.5,Sleepy Hollow Estates,2336,26136,1957,289,213,,Sold,,,https://www.redfin.com/VA/Richmond/105-El-Dorado-Dr-23229/home/59671040,CVRMLS,2037635,N,Y,37.5767024,-77.5826056
PAST SALE,December-21-2020,Single Family Residential,209 Desota Dr,Henrico,VA,23229,565000,3,2.5,Sleepy Hollow Estates,2398,24393,1959,349,236,,Sold,,,https://www.redfin.com/VA/Richmond/209-Desota-Dr-23229/home/59670966,CVRMLS,2034227,N,Y,37.5805146,-77.5818445
PAST SALE,July-24-2020,Single Family Residential,8952 Tarrytown Dr,Henrico,VA,23229,550000,4,2.5,Deer Lodge,2888,19602,1970,499,190,,Sold,,,https://www.redfin.com/VA/Richmond/8952-Tarrytown-Dr-23229/home/59670899,CVRMLS,2014721,N,Y,37.5840951,-77.5831429
PAST SALE,May-10-2021,Townhouse,1208 Hyde Ln,Henrico,VA,23229,470000,4,3.0,Grayson Hill,1952,2613,2006,209,241,350,Sold,,,https://www.redfin.com/VA/Richmond/1208-Hyde-Ln-23229/home/59604769,CVRMLS,2105708,N,Y,37.5941295,-77.5918616
PAST SALE,July-23-2021,Single Family Residential,11 Westham Pkwy,Henrico,VA,23229,1300000,5,5.5,Westham,4849,39639,1956,135,268,,Sold,,,https://www.redfin.com/VA/Richmond/11-Westham-Pkwy-23229/home/59671977,CVRMLS,2112700,N,Y,37.5750556,-77.5492687
PAST SALE,October-11-2019,Single Family Residential,8710 Wytheland Rd,Henrico,VA,23229,245000,3,1.0,Ridgecrest,1445,14374,1955,786,170,,Sold,,,https://www.redfin.com/VA/Richmond/8710-Wytheland-Rd-23229/home/59658734,CVRMLS,1926480,N,Y,37.5964828,-77.5686696
PAST SALE,June-26-2019,Single Family Residential,8900 Bellefonte Rd,Henrico,VA,23229,540000,4,2.5,Bellefonte,2623,27442,1965,893,206,,Sold,,,https://www.redfin.com/VA/Richmond/8900-Bellefonte-Rd-23229/home/59665237,CVRMLS,1907583,N,Y,37.5852624,-77.5806357
PAST SALE,May-29-2020,Condo/Co-op,1311 Barnard Dr,Henrico,VA,23229,210000,4,2.0,Farmington,1588,12632,1957,555,132,,Sold,,,https://www.redfin.com/VA/Richmond/1311-Barnard-Dr-23229/home/59657991,CVRMLS,2012335,N,Y,37.6043106,-77.5841614
PAST SALE,,Single Family Residential,1211 Rosecroft Rd,Richmond,VA,23229,255000,3,1.0,,1125,11047,1955,,227,,,,,https://www.redfin.com/VA/Richmond/1211-Rosecroft-Rd-23229/home/59659145,,,N,Y,37.5975679,-77.5711437
PAST SALE,October-2-2020,Single Family Residential,1219 Dinwiddie Ave,Henrico,VA,23229,320500,3,2.5,Beverly Hills,1562,8276,1992,429,205,,Sold,,,https://www.redfin.com/VA/Richmond/1219-Dinwiddie-Ave-23229/home/59659446,CVRMLS,2024874,N,Y,37.5967162,-77.5512879
PAST SALE,July-29-2019,Condo/Co-op,300 N Ridge Rd #69,Henrico,VA,23229,330000,2,2.0,Westham Green Condo,1915,1742,1980,860,172,440,Sold,,,https://www.redfin.com/VA/Henrico/300-N-Ridge-Rd-23229/unit-69/home/59672147,CVRMLS,1910849,N,Y,37.5788631,-77.5538276
PAST SALE,,Single Family Residential,8708 Tarrytown Dr,Richmond,VA,23229,592000,3,3.5,,3189,30201,1958,,186,,,,,https://www.redfin.com/VA/Richmond/8708-Tarrytown-Dr-23229/home/59670913,,,N,Y,37.5839502,-77.5794716
PAST SALE,December-16-2019,Single Family Residential,717 Keats Rd,Henrico,VA,23229,440000,3,2.5,University Heights,2300,14810,1959,720,191,,Sold,,,https://www.redfin.com/VA/Richmond/717-Keats-Rd-23229/home/59666282,CVRMLS,1933732,N,Y,37.5912045,-77.5583371
PAST SALE,April-20-2020,Single Family Residential,8906 Wishart Rd,Henrico,VA,23229,555000,4,2.5,Derbyshire Place,2652,14810,1962,594,209,,Sold,,,https://www.redfin.com/VA/Richmond/8906-Wishart-Rd-23229/home/59665112,CVRMLS,2005781,N,Y,37.5863822,-77.5815311
PAST SALE,March-20-2020,Vacant Land,8907 Norwick Rd,Henrico,VA,23229,250000,,,Mooreland Farms,,29185,,625,,,Sold,,,https://www.redfin.com/VA/Richmond/8907-Norwick-Rd-23229/home/59675445,CVRMLS,2004466,N,Y,37.569788,-77.592676
PAST SALE,April-23-2021,Single Family Residential,109 Williamson Ct,Henrico,VA,23229,915000,5,4.5,River Place,4254,24829,1988,226,215,10,Sold,,,https://www.redfin.com/VA/Richmond/109-Williamson-Ct-23229/home/59671013,CVRMLS,2107821,N,Y,37.5814887,-77.5944693
PAST SALE,,Single Family Residential,301 Coalport Rd,Richmond,VA,23229,345000,4,2.5,,2331,16408,1964,,148,,,,,https://www.redfin.com/VA/Richmond/301-Coalport-Rd-23229/home/59664528,,,N,Y,37.5853247,-77.5939321
PAST SALE,May-1-2019,Single Family Residential,603 Heathfield Rd,Henrico,VA,23229,380000,4,2.5,Brandon West,2367,17859,1965,949,161,,Sold,,,https://www.redfin.com/VA/Richmond/603-Heathfield-Rd-23229/home/59664116,CVRMLS,1905827,N,Y,37.5886745,-77.5926786
PAST SALE,August-10-2021,Townhouse,1003 Hyde Ln,Henrico,VA,23229,800000,4,3.5,Grayson Hill,3470,5227,2012,117,231,349,Sold,,,https://www.redfin.com/VA/Richmond/1003-Hyde-Ln-23229/home/59605373,CVRMLS,2120525,N,Y,37.5940592,-77.5943798
PAST SALE,January-31-2020,Single Family Residential,8899 River Rd,Henrico,VA,23229,10000000,8,8.0,,11318,11369160,1928,674,884,,Sold,,,https://www.redfin.com/VA/Henrico/8899-River-Rd-23229/home/59675726,CVRMLS,1924652,N,Y,37.575133,-77.5861277
PAST SALE,,Condo/Co-op,9019 Wood Sorrel Dr,Richmond,VA,23229,464000,4,3.5,,2621,,1983,,177,,,,,https://www.redfin.com/VA/Richmond/9019-Wood-Sorrel-Dr-23229/home/59664512,,,N,Y,37.588203,-77.586403
PAST SALE,,Single Family Residential,9308 Westmoor Dr,Richmond,VA,23229,495000,4,2.5,,2422,17705,1965,,204,,,,,https://www.redfin.com/VA/Richmond/9308-Westmoor-Dr-23229/home/59663988,,,N,Y,37.5942474,-77.5869036
PAST SALE,July-8-2019,Single Family Residential,9420 Gayton Rd,Henrico,VA,23229,239000,4,2.0,Farmington,2480,12632,1957,881,96,,Sold,,,https://www.redfin.com/VA/Richmond/9420-Gayton-Rd-23229/home/59657556,CVRMLS,1918662,N,Y,37.60239,-77.58565
PAST SALE,,Single Family Residential,1319 Westridge Rd,Richmond,VA,23229,255000,4,2.0,,1953,8549,1957,,131,,,,,https://www.redfin.com/VA/Richmond/1319-Westridge-Rd-23229/home/59658041,,,N,Y,37.6053739,-77.5871274
PAST SALE,March-8-2019,Single Family Residential,1326 Andover Rd,Henrico,VA,23229,245100,4,2.0,Farmington,1953,9583,1957,1003,125,,Sold,,,https://www.redfin.com/VA/Richmond/1326-Andover-Rd-23229/home/59657523,CVRMLS,1903725,N,Y,37.6058021,-77.5856753
PAST SALE,July-9-2021,Condo/Co-op,1501 Regency Woods #202,Henrico,VA,23238,165000,2,2.0,Regency Woods Condominiums,1239,,1977,149,133,336,Sold,,,https://www.redfin.com/VA/Richmond/1501-Regency-Woods-Rd-23238/unit-202/home/59650595,CVRMLS,2116633,N,Y,37.6078282,-77.5872072
PAST SALE,April-15-2020,Single Family Residential,101 El Dorado Dr,Henrico,VA,23229,538500,3,2.5,Sleepy Hollow,2771,28314,1959,599,194,,Sold,,,https://www.redfin.com/VA/Richmond/101-El-Dorado-Dr-23229/home/59671038,CVRMLS,2003045,N,Y,37.5758894,-77.5830533
PAST SALE,July-7-2020,Single Family Residential,115 Santa Clara Dr,Henrico,VA,23229,632000,3,3.0,Sleepy Hollow Estates,2471,27878,1958,516,256,,Sold,,,https://www.redfin.com/VA/Richmond/115-Santa-Clara-Dr-23229/home/59671057,CVRMLS,2016526,N,Y,37.5781174,-77.5842415
PAST SALE,July-17-2019,Condo/Co-op,9103 Derbyshire Rd Unit C,Henrico,VA,23229,180000,2,1.5,Deerwood Condo,980,871,1964,872,184,260,Sold,,,https://www.redfin.com/VA/Richmond/9103-Derbyshire-Rd-23229/unit-C/home/59666097,CVRMLS,1915898,N,Y,37.587669,-77.584031
PAST SALE,September-15-2020,Condo/Co-op,9103 Derbyshire Rd Unit I,Henrico,VA,23229,182000,2,1.5,Deerwood Condominium,980,871,1964,446,186,263,Sold,,,https://www.redfin.com/VA/Richmond/9103-Derbyshire-Rd-23229/unit-I/home/59666091,CVRMLS,2020820,N,Y,37.587669,-77.584031
PAST SALE,May-27-2020,Condo/Co-op,9109 Derbyshire Rd Unit I,Henrico,VA,23229,205000,2,1.5,Deerwood Condo,1000,871,1964,557,205,273,Sold,,,https://www.redfin.com/VA/Henrico/9109-Derbyshire-Rd-23229/unit-I/home/59666106,CVRMLS,2008244,N,Y,37.5881636,-77.5835765
PAST SALE,March-18-2021,Condo/Co-op,9111 Derbyshire Rd Unit G,Henrico,VA,23229,197000,2,1.5,Deerwood Condo,980,871,1964,262,201,263,Sold,,,https://www.redfin.com/VA/Richmond/9111-Derbyshire-Rd-23229/unit-G/home/59666163,CVRMLS,2101137,N,Y,37.5880327,-77.5839487
PAST SALE,April-19-2019,Condo/Co-op,9113 Derbyshire Rd Unit B,Henrico,VA,23229,159000,2,1.5,Deerwood Condo,976,871,1964,961,163,263,Sold,,,https://www.redfin.com/VA/Richmond/9113-Derbyshire-Rd-23229/unit-B/home/59666167,CVRMLS,1905701,N,Y,37.587669,-77.584031
PAST SALE,,Condo/Co-op,9129 Derbyshire Rd Unit A,Richmond,VA,23229,240000,3,2.0,,1289,,1964,,186,,,,,https://www.redfin.com/VA/Richmond/9129-Derbyshire-Rd-23229/unit-A/home/59666154,,,N,Y,37.5877348,-77.584656
PAST SALE,June-22-2021,Condo/Co-op,9135 Derbyshire Rd Unit D,Henrico,VA,23229,250000,3,2.5,Deerwood Condominium,1392,1306,1964,166,180,286,Sold,,,https://www.redfin.com/VA/Richmond/9135-Derbyshire-Rd-23229/unit-D/home/59664378,CVRMLS,2112229,N,Y,37.587669,-77.584031
PAST SALE,,Single Family Residential,802 Derby Dr,Richmond,VA,23229,215000,3,1.0,,1534,14278,1955,,140,,,,,https://www.redfin.com/VA/Richmond/802-Derby-Dr-23229/home/59665292,,,N,Y,37.5897889,-77.5827399
PAST SALE,April-1-2021,Single Family Residential,808 Derby Dr,Henrico,VA,23229,370000,3,2.0,West River Hills,1814,12632,1965,248,204,,Sold,,,https://www.redfin.com/VA/Richmond/808-Derby-Dr-23229/home/59665281,CVRMLS,2105352,N,Y,37.5905703,-77.5823818
PAST SALE,May-12-2020,Townhouse,1106 Lakeland Cir,Henrico,VA,23229,285000,3,3.0,Waterford Rhye,1936,3920,1988,572,147,290,Sold,,,https://www.redfin.com/VA/Richmond/1106-Lakeland-Cir-23229/home/59666183,CVRMLS,2003404,N,Y,37.5959519,-77.582946
PAST SALE,March-24-2020,Single Family Residential,9412 Gayton Rd,Richmond,VA,23229,240000,3,1.5,,1416,93218,1950,621,169,,Sold,,,https://www.redfin.com/VA/Richmond/9412-Gayton-Rd-23229/home/59659065,CVRMLS,2005317,N,Y,37.6022204,-77.5844412
PAST SALE,March-24-2020,Single Family Residential,8659 Irving Ln,Henrico,VA,23229,735000,4,4.0,Sleepy Hollow,4050,25700,1958,621,181,,Sold,,,https://www.redfin.com/VA/Richmond/8659-Irving-Ln-23229/home/59670851,CVRMLS,2004304,N,Y,37.577689,-77.5804009
PAST SALE,July-2-2021,Single Family Residential,8812 Watlington Rd,Henrico,VA,23229,590000,5,3.0,Derbyshire Place,2824,15681,1962,156,209,,Sold,,,https://www.redfin.com/VA/Richmond/8812-Watlington-Rd-23229/home/59665168,CVRMLS,2117833,N,Y,37.5874361,-77.5791134
PAST SALE,,Single Family Residential,8820 Derbyshire Rd,Richmond,VA,23229,210000,4,2.0,,2200,48700,1947,,95,,,,,https://www.redfin.com/VA/Richmond/8820-Derbyshire-Rd-23229/home/59664818,,,N,Y,37.5885748,-77.580188
PAST SALE,,Vacant Land,703 Midway Rd,Henrico,VA,23229,160000,,,,,,,,,,,,,https://www.redfin.com/VA/Henrico/703-Midway-Rd-23229/home/175018440,,,N,Y,37.5882955,-77.581034
PAST SALE,July-16-2021,Single Family Residential,1320 Elon Rd,Henrico,VA,23229,320000,4,3.0,Farmington,2361,16552,1958,142,136,,Sold,,,https://www.redfin.com/VA/Richmond/1320-Elon-Rd-23229/home/59657827,CVRMLS,2113754,N,Y,37.6039504,-77.5811617
PAST SALE,May-6-2021,Single Family Residential,12 Doverland Ct,Henrico,VA,23229,1220000,4,5.5,Sleepy Hollow,6728,52272,1974,213,181,,Sold,,,https://www.redfin.com/VA/Richmond/12-Doverland-Ct-23229/home/59671519,CVRMLS,2108836,N,Y,37.5770655,-77.5765838
PAST SALE,,Single Family Residential,314 Tarrytown Dr,Richmond,VA,23229,649000,3,2.5,,3895,47480,1969,,167,,,,,https://www.redfin.com/VA/Richmond/314-Tarrytown-Dr-23229/home/59671688,,,N,Y,37.5822839,-77.5765745
PAST SALE,September-25-2020,Single Family Residential,214 Doverland Rd,Henrico,VA,23229,450000,4,3.0,Sleepy Hollow,1885,34848,1962,436,239,,Sold,,,https://www.redfin.com/VA/Richmond/214-Doverland-Rd-23229/home/59670831,CVRMLS,2021955,N,Y,37.5804697,-77.5762256
PAST SALE,,Single Family Residential,8700 Derbyshire Rd,Richmond,VA,23229,222500,3,2.0,,1906,43560,1964,,117,,,,,https://www.redfin.com/VA/Richmond/8700-Derbyshire-Rd-23229/home/59664816,,,N,Y,37.5886079,-77.5756883
PAST SALE,May-20-2021,Single Family Residential,9110 Gayton Rd,Henrico,VA,23229,293000,3,3.0,St Andrews Terr,1888,15681,1987,199,155,,Sold,,,https://www.redfin.com/VA/Richmond/9110-Gayton-Rd-23229/home/59596176,CVRMLS,2109915,N,Y,37.5976925,-77.5780837
PAST SALE,May-29-2020,Single Family Residential,1103 Blue Jay Ln,Henrico,VA,23229,233700,3,1.5,Greenbriar Hills,1184,10890,1955,555,197,,Sold,,,https://www.redfin.com/VA/Richmond/1103-Blue-Jay-Ln-23229/home/59658314,CVRMLS,2009978,N,Y,37.597396,-77.5760689
PAST SALE,August-9-2019,Single Family Residential,8713 Gayton Rd,Henrico,VA,23229,225000,3,1.5,Hill And Dale,1310,17424,1955,849,172,,Sold,,,https://www.redfin.com/VA/Richmond/8713-Gayton-Rd-23229/home/59665003,CVRMLS,1922138,N,Y,37.5934124,-77.5689608
PAST SALE,December-14-2020,Single Family Residential,8908 Brieryle Rd,Henrico,VA,23229,745000,5,3.5,Mooreland Farms,4345,27007,1952,356,171,42,Sold,,,https://www.redfin.com/VA/Richmond/8908-Brieryle-Rd-23229/home/59675327,CVRMLS,2029375,N,Y,37.5741934,-77.5894554
PAST SALE,June-30-2020,Single Family Residential,8915 Brieryle Rd,Henrico,VA,23229,760000,4,2.5,Mooreland Farms,3740,29185,1950,523,203,42,Sold,,,https://www.redfin.com/VA/Richmond/8915-Brieryle-Rd-23229/home/59670709,CVRMLS,2008342,N,Y,37.5746174,-77.5915147
PAST SALE,August-12-2020,Single Family Residential,9006 Rio Grande Rd,Henrico,VA,23229,625000,4,3.5,Deer Lodge,3336,20473,1986,480,187,,Sold,,,https://www.redfin.com/VA/Richmond/9006-Rio-Grande-Rd-23229/home/59670781,CVRMLS,2020740,N,Y,37.5814769,-77.5889629
PAST SALE,February-26-2021,Single Family Residential,402 Aubery Rd,Henrico,VA,23229,411000,3,2.5,Brandon,2277,13939,1964,282,181,,Sold,,,https://www.redfin.com/VA/Richmond/402-Aubery-Rd-23229/home/59670540,CVRMLS,2100536,N,Y,37.5849076,-77.5903955
PAST SALE,May-24-2021,Single Family Residential,709 Timken Dr,Henrico,VA,23229,289500,3,1.0,Sheridan Hills,1145,16988,1957,195,253,,Sold,,,https://www.redfin.com/VA/Richmond/709-Timken-Dr-23229/home/59663951,CVRMLS,2111448,N,Y,37.5894771,-77.5890525
PAST SALE,August-21-2020,Townhouse,9407 Tatton Park Cir,Henrico,VA,23229,875000,4,4.5,Grayson Hill,3732,5227,2013,471,234,380,Sold,,,https://www.redfin.com/VA/Richmond/9407-Tatton-Park-Cir-23229/home/59605652,CVRMLS,2016976,N,Y,37.5930913,-77.5918281
PAST SALE,,Single Family Residential,8911 Midway Rd,Richmond,VA,23229,305000,3,2.0,,1164,16725,2002,,262,,,,,https://www.redfin.com/VA/Richmond/8911-Midway-Rd-23229/home/59664807,,,N,Y,37.590584,-77.5764051
PAST SALE,,Single Family Residential,8725 Ruggles Rd,Richmond,VA,23229,735000,4,3.0,,3072,31286,1979,,239,,,,,https://www.redfin.com/VA/Richmond/8725-Ruggles-Rd-23229/home/59675829,,,N,Y,37.5735941,-77.5715019
PAST SALE,September-30-2020,Single Family Residential,205 Ruggles Pl,Henrico,VA,23229,975000,5,4.5,Countryside,4719,41382,1979,431,207,17,Sold,,,https://www.redfin.com/VA/Richmond/205-Ruggles-Pl-23229/home/59671479,CVRMLS,2020567,N,Y,37.574854,-77.5702481
PAST SALE,August-27-2021,Vacant Land,306 Running Cedar Ln,Henrico,VA,23229,249500,,,Countryside,,30491,,100,,17,Sold,,,https://www.redfin.com/VA/Richmond/306-Running-Cedar-Ln-23229/home/59671476,CVRMLS,2102556,N,Y,37.5780079,-77.5704839
PAST SALE,August-27-2021,Vacant Land,312 Running Cedar Ln,Henrico,VA,23229,249500,,,Countryside,,44431,,100,,17,Sold,,,https://www.redfin.com/VA/Richmond/312-Running-Cedar-Ln-23229/home/59671471,CVRMLS,2026590,N,Y,37.57917,-77.5695889
PAST SALE,,Single Family Residential,402 Berwickshire Dr,Richmond,VA,23229,500000,4,3.0,,3404,26179,1969,,147,,,,,https://www.redfin.com/VA/Richmond/402-Berwickshire-Dr-23229/home/59671573,,,N,Y,37.580658,-77.570875
PAST SALE,June-25-2021,Single Family Residential,8805 Gayton Rd,Henrico,VA,23229,212000,3,1.5,Hill And Dale,1310,16988,1955,163,162,,Sold,,,https://www.redfin.com/VA/Richmond/8805-Gayton-Rd-23229/home/59664967,CVRMLS,2117983,N,Y,37.5938986,-77.5701586
PAST SALE,,Single Family Residential,29 Countryside Ln,Richmond,VA,23229,699000,5,3.5,,4359,25891,1979,,160,,,,,https://www.redfin.com/VA/Richmond/29-Countryside-Ln-23229/home/59671514,,,N,Y,37.5752159,-77.567875
PAST SALE,May-18-2021,Vacant Land,109 Countryside Ln,Henrico,VA,23229,275000,,,Countryside,,33105,,201,,17,Sold,,,https://www.redfin.com/VA/Richmond/109-Countryside-Ln-23229/home/59671445,CVRMLS,2026793,N,Y,37.578127,-77.566343
PAST SALE,January-28-2019,Single Family Residential,111 Charnwood Rd,Henrico,VA,23229,590000,4,2.5,Roslyn Hills,2610,26571,1964,1042,226,,Sold,,,https://www.redfin.com/VA/Richmond/111-Charnwood-Rd-23229/home/59671406,CVRMLS,1839361,N,Y,37.5775547,-77.5650291
PAST SALE,June-23-2021,Single Family Residential,1314 N Parham Rd,Henrico,VA,23229,200000,2,1.0,Ridgecrest,720,,1951,165,278,,Sold,,,https://www.redfin.com/VA/Richmond/1314-N-Parham-Rd-23229/home/59658517,CVRMLS,2106266,N,Y,37.5993198,-77.5645167
PAST SALE,August-19-2020,Single Family Residential,13 Twin Lake Ln,Henrico,VA,23229,1010000,4,4.0,Glenbrooke Hills,3640,92347,1957,473,277,,Sold,,,https://www.redfin.com/VA/Richmond/13-Twin-Lake-Ln-23229/home/59675626,CVRMLS,2018921,N,Y,37.5725928,-77.5631621
PAST SALE,March-22-2021,Single Family Residential,501 Belle Grove Ln,Henrico,VA,23229,640000,4,2.5,Belle Grove,3157,15245,1983,258,203,,Sold,,,https://www.redfin.com/VA/Richmond/501-Belle-Grove-Ln-23229/home/59671701,CVRMLS,2103082,N,Y,37.5825607,-77.5619083
PAST SALE,,Single Family Residential,518 Old Providence Cir,Henrico,VA,23229,950000,5,4.5,,4783,43560,2015,,199,,,,,https://www.redfin.com/VA/Henrico/518-Old-Providence-Cir-23229/home/113276140,,,N,Y,37.5865629,-77.5609745
PAST SALE,October-11-2019,Single Family Residential,8909 Derbyshire Rd,Henrico,VA,23229,321000,4,2.5,Derbyshire Place,2016,20473,1986,786,159,,Sold,,,https://www.redfin.com/VA/Richmond/8909-Derbyshire-Rd-23229/home/59665134,CVRMLS,1922338,N,Y,37.5879698,-77.5822027
PAST SALE,,Single Family Residential,604 Silverspring Dr,Richmond,VA,23229,595000,3,2.5,,2358,14810,1948,,252,,,,,https://www.redfin.com/VA/Richmond/604-Silverspring-Dr-23229/home/59672607,,,N,Y,37.5848081,-77.5556256
