SALE TYPE,SOLD DATE,PROPERTY TYPE,ADDRESS,CITY,STATE OR PROVINCE,ZIP OR POSTAL CODE,PRICE,BEDS,BATHS,LOCATION,SQUARE FEET,LOT SIZE,YEAR BUILT,DAYS ON MARKET,$/SQUARE FEET,HOA/MONTH,STATUS,NEXT OPEN HOUSE START TIME,NEXT OPEN HOUSE END TIME,URL (SEE https://www.redfin.com/buy-a-home/comparative-market-analysis FOR INFO ON PRICING),SOURCE,MLS#,FAVORITE,INTERESTED,LATITUDE,LONGITUDE
PAST SALE,May-14-2021,Single Family Residential,2717 Parkview Dr,Riva,MD,21140,465000,4,2.0,GLEN ISLE,2153,10450,1970,205,216,,Sold,,,https://www.redfin.com/MD/Riva/2717-Parkview-Dr-21140/home/10003822,BRIGHT MLS,MDAA464878,N,Y,38.9581291,-76.5909477
PAST SALE,August-10-2020,Single Family Residential,3134 Riva Rd,Riva,MD,21140,490000,4,3.0,AA COUNTY,2100,7728,2020,482,233,,Sold,,,https://www.redfin.com/MD/Riva/3134-Riva-Rd-21140/home/175470255,BRIGHT MLS,MDAA431426,N,Y,38.9504684,-76.5866383
PAST SALE,May-20-2020,Single Family Residential,307 Cove Rd,Riva,MD,21140,527000,2,2.0,SYLVAN SHORES,1310,6600,1925,564,402,,Sold,,,https://www.redfin.com/MD/Riva/307-Cove-Rd-21140/home/10068479,BRIGHT MLS,MDAA425134,N,Y,38.956505,-76.583234
PAST SALE,September-15-2021,Single Family Residential,3059 Shad Pl,Riva,MD,21140,560000,5,3.0,RIVA FARMS,2508,18000,1971,81,223,,Sold,,,https://www.redfin.com/MD/Riva/3059-Shad-Pl-21140/home/10048077,BRIGHT MLS,MDAA2000462,N,Y,38.953355,-76.582757
PAST SALE,August-25-2020,Single Family Residential,3061 Shad Pl,Riva,MD,21140,417500,4,2.0,RIVA FARMS,1880,17500,1971,467,222,,Sold,,,https://www.redfin.com/MD/Riva/3061-Shad-Pl-21140/home/10048437,BRIGHT MLS,MDAA436858,N,Y,38.9527573,-76.5827373
PAST SALE,September-9-2019,Single Family Residential,3219 Breckenridge Way,Riva,MD,21140,640000,4,3.5,AISQUITH FARMS,4086,17050,1997,818,157,33,Sold,,,https://www.redfin.com/MD/Riva/3219-Breckenridge-Way-21140/home/9863014,BRIGHT MLS,MDAA394616,N,Y,38.9469552,-76.5897514
PAST SALE,September-25-2020,Single Family Residential,395 Westbury Dr,Riva,MD,21140,475000,3,2.5,ANNAPOLIS LANDING,2053,10144,1979,436,231,30,Sold,,,https://www.redfin.com/MD/Riva/395-Westbury-Dr-21140/home/9861857,BRIGHT MLS,MDAA439664,N,Y,38.9467979,-76.5849662
PAST SALE,November-17-2021,Single Family Residential,379 Yorkshire Ln,Riva,MD,21140,650000,4,2.5,BERKSHIRE,2134,15000,1979,18,305,27,Sold,,,https://www.redfin.com/MD/Riva/379-Yorkshire-Ln-21140/home/9865160,BRIGHT MLS,MDAA2000241,N,Y,38.9459425,-76.5807226
MLS Listing,,Single Family Residential,501 Forest Rd,Riva,MD,21140,595000,4,2.0,SYLVAN SHORES & FOREST A,1628,5830,1947,8,365,,Active,,,https://www.redfin.com/MD/Riva/501-Forest-Rd-21140/home/9895401,BRIGHT MLS,MDAA2015048,N,Y,38.9513994,-76.5797745
MLS Listing,,Single Family Residential,120 Ridge Rd,Riva,MD,21140,474900,4,1.5,SYLVAN SHORES,1064,4000,1927,31,446,,Active,,,https://www.redfin.com/MD/Riva/120-Ridge-Rd-21140/home/10068125,BRIGHT MLS,MDAA2013254,N,Y,38.955992,-76.581116
MLS Listing,,Single Family Residential,22 Shore Walk Rd,Riva,MD,21140,615000,3,2.0,SYLVAN SHORES,1674,2880,1951,36,367,,Active,,,https://www.redfin.com/MD/Riva/22-Shorewalk-Rd-21140/home/10068623,BRIGHT MLS,MDAA2000557,N,Y,38.953743,-76.579566
MLS Listing,,Single Family Residential,214 Park Rd,Riva,MD,21140,1888000,5,5.0,SYLVAN SHORES,5500,12170,2005,81,343,,Active,,,https://www.redfin.com/MD/Riva/214-Park-Rd-21140/home/10067878,BRIGHT MLS,MDAA2007892,N,Y,38.956699,-76.58104
MLS Listing,,Single Family Residential,3050 Tudor Hall Rd,Riva,MD,21140,465000,3,2.0,SOUTH RIVER HEIGHTS,1824,14000,1964,166,255,,Active,,,https://www.redfin.com/MD/Riva/3050-Tudor-Hall-Rd-21140/home/9895812,BRIGHT MLS,MDAA2000888,N,Y,38.951852,-76.578673
PAST SALE,July-9-2021,Single Family Residential,3213 Menia St,Riva,MD,21140,825000,4,3.5,STONE RIDGE,3949,15236,2009,149,209,67,Sold,,,https://www.redfin.com/MD/Riva/3213-Menia-St-21140/home/10481605,BRIGHT MLS,MDAA468290,N,Y,38.9476014,-76.5949421
PAST SALE,August-23-2019,Single Family Residential,3328 Breckenridge Way,Riva,MD,21140,1365000,5,4.0,Riva,6366,93654,2002,835,214,,Sold,,,https://www.redfin.com/MD/Riva/3328-Breckenridge-Way-21140/home/9858155,BRIGHT MLS,MDAA343988,N,Y,38.9391257,-76.582551
PAST SALE,August-14-2020,Single Family Residential,2732 Cedar Dr,Riva,MD,21140,812000,4,3.0,GLEN ISLE,1844,16744,1976,478,440,29,Sold,,,https://www.redfin.com/MD/Riva/2732-Cedar-Dr-21140/home/10004334,BRIGHT MLS,MDAA430194,N,Y,38.9597443,-76.5902028
PAST SALE,July-16-2020,Single Family Residential,2803 Grey Havens Way,Riva,MD,21140,824780,4,4.0,SHIRE OAKS,,44780,2020,507,,50,Sold,,,https://www.redfin.com/MD/Riva/2803-Grey-Havens-Way-21140/home/11749921,BRIGHT MLS,MDAA417514,N,Y,38.948793,-76.594579
PAST SALE,December-20-2019,Single Family Residential,3058 Perch Dr,Riva,MD,21140,439000,4,3.0,RIVA FARMS,1982,11250,1971,716,221,,Sold,,,https://www.redfin.com/MD/Riva/3058-Perch-Dr-21140/home/10048472,BRIGHT MLS,MDAA415770,N,Y,38.9529652,-76.5839279
PAST SALE,October-30-2020,Townhouse,3223 Escapade Cir,Riva,MD,21140,440000,3,3.0,AISQUITH FARMS,2340,1760,1996,401,188,64,Sold,,,https://www.redfin.com/MD/Riva/3223-Escapade-Cir-21140/home/9863878,BRIGHT MLS,MDAA444048,N,Y,38.943302,-76.588031
PAST SALE,April-5-2021,Single Family Residential,514 Hoot Owl Rd,Riva,MD,21140,584000,4,3.0,SYLVAN SHORES & FOREST A,2648,19414,1955,244,221,,Sold,,,https://www.redfin.com/MD/Riva/514-Hoot-Owl-Rd-21140/home/9895480,BRIGHT MLS,MDAA461470,N,Y,38.9490806,-76.5787813
PAST SALE,November-13-2020,Townhouse,1390 Escapade Ct,Riva,MD,21140,440000,3,3.0,AISQUITH FARMS,2323,2400,1996,387,189,64,Sold,,,https://www.redfin.com/MD/Riva/1390-Escapade-Ct-21140/home/9863678,BRIGHT MLS,MDAA448598,N,Y,38.941358,-76.588476
PAST SALE,August-19-2019,Townhouse,1392 Escapade Ct,Riva,MD,21140,392500,2,2.5,AISQUITH FARMS,1828,1760,1996,839,215,61,Sold,,,https://www.redfin.com/MD/Riva/1392-Escapade-Ct-21140/home/9863673,BRIGHT MLS,MDAA405800,N,Y,38.941304,-76.588538
PAST SALE,June-30-2020,Single Family Residential,2753 Pinecrest Dr,Riva,MD,21140,450000,3,2.5,GLEN ISLE,1844,6000,2018,523,244,29,Sold,,,https://www.redfin.com/MD/Riva/2753-Pinecrest-Dr-21140/home/10003681,BRIGHT MLS,MDAA431592,N,Y,38.9564674,-76.5909581
PAST SALE,April-23-2021,Single Family Residential,2728 Cedar Dr,Riva,MD,21140,561221,3,2.0,GLEN ISLE,1784,12880,1966,226,315,31,Sold,,,https://www.redfin.com/MD/Riva/2728-Cedar-Dr-21140/home/10004086,BRIGHT MLS,MDAA459356,N,Y,38.9602892,-76.5900674
PAST SALE,,Single Family Residential,2714 Parkview Dr,Riva,MD,21140,344000,,2.0,,3864,12508,1940,,89,,,,,https://www.redfin.com/MD/Riva/2714-Parkview-Dr-21140/home/10004100,,,N,Y,38.958359,-76.5914297
PAST SALE,May-24-2019,Single Family Residential,2708 Parkview Dr,Riva,MD,21140,312000,2,1.0,GLEN ISLE,812,15015,1955,926,384,29,Sold,,,https://www.redfin.com/MD/Riva/2708-Parkview-Dr-21140/home/10004316,BRIGHT MLS,MDAA395748,N,Y,38.9587893,-76.5912862
PAST SALE,January-31-2020,Single Family Residential,2812 Glen Isle Rd,Riva,MD,21140,320000,3,1.5,GLEN ISLE,1672,12500,1976,674,191,38,Sold,,,https://www.redfin.com/MD/Riva/2812-Glen-Isle-Rd-21140/home/10004348,BRIGHT MLS,MDAA418650,N,Y,38.9536172,-76.5929565
PAST SALE,October-9-2020,Single Family Residential,2721 Pinecrest Dr,Riva,MD,21140,390000,2,1.5,GLEN ISLE,900,9630,1950,422,433,29,Sold,,,https://www.redfin.com/MD/Riva/2721-Pinecrest-Dr-21140/home/10004392,BRIGHT MLS,MDAA444012,N,Y,38.9583406,-76.5898417
PAST SALE,June-25-2019,Single Family Residential,2808 Glen Isle Rd,Riva,MD,21140,375000,3,2.0,GLEN ISLE,1026,13750,1950,894,365,29,Sold,,,https://www.redfin.com/MD/Riva/2808-Glen-Isle-Rd-21140/home/10004464,BRIGHT MLS,MDAA398006,N,Y,38.954011,-76.592491
PAST SALE,May-20-2019,Single Family Residential,2739 Riverview Dr,Riva,MD,21140,448000,3,3.0,GLEN ISLE,3437,18970,1968,930,130,29,Sold,,,https://www.redfin.com/MD/Riva/2739-Riverview-Dr-21140/home/10004042,BRIGHT MLS,MDAA394234,N,Y,38.9563224,-76.5934394
PAST SALE,November-19-2021,Single Family Residential,109 Remital Rd,Riva,MD,21140,315000,3,2.0,SYLVAN SHORES,905,5201,1951,16,348,,Sold,,,https://www.redfin.com/MD/Riva/109-Remital-Rd-21140/home/176731600,BRIGHT MLS,MDAA2000293,N,Y,38.9540665,-76.5821682
PAST SALE,June-17-2020,Single Family Residential,2714 Hambleton Rd,Riva,MD,21140,850000,3,3.0,HAMBLETON ESTATES,2182,30780,1960,536,390,,Sold,,,https://www.redfin.com/MD/Riva/2714-Hambleton-Rd-21140/home/10009057,BRIGHT MLS,MDAA432800,N,Y,38.958293,-76.583931
PAST SALE,,Single Family Residential,400 Granville Dr,Riva,MD,21140,400000,,2.5,,2256,65340,1965,,177,,,,,https://www.redfin.com/MD/Riva/400-Granville-Dr-21140/home/10009101,,,N,Y,38.9550495,-76.58772
PAST SALE,September-9-2020,Single Family Residential,3061 Centre Rd,Riva,MD,21140,519000,5,3.0,SOUTH RIVER HEIGHTS,1223,11250,1960,452,424,,Sold,,,https://www.redfin.com/MD/Riva/3061-Centre-Rd-21140/home/9895919,BRIGHT MLS,MDAA440420,N,Y,38.9514955,-76.5764788
PAST SALE,September-24-2021,Single Family Residential,12 Shore Walk Rd,Riva,MD,21140,995000,3,2.5,SYLVAN SHORES,2413,2848,2021,72,412,,Sold,,,https://www.redfin.com/MD/Riva/12-Shorewalk-Rd-21140/home/10068782,BRIGHT MLS,MDAA456352,N,Y,38.953434,-76.578925
PAST SALE,April-9-2020,Townhouse,1304 Breckenridge Cir,Riva,MD,21140,412000,3,2.5,AISQUITH FARMS,1928,1760,1994,605,214,61,Sold,,,https://www.redfin.com/MD/Riva/1304-Breckenridge-Cir-21140/home/9863210,BRIGHT MLS,MDAA425698,N,Y,38.944988,-76.58971
PAST SALE,,Single Family Residential,302 Cove Rd,Riva,MD,21140,275000,,1.0,,920,4889,1951,,299,,,,,https://www.redfin.com/MD/Riva/302-Cove-Rd-21140/home/10068167,,,N,Y,38.9560134,-76.5829347
PAST SALE,September-17-2019,Townhouse,1262 Breckenridge Cir,Riva,MD,21140,399000,3,2.5,AISQUITH FARMS,1684,1760,1994,810,237,61,Sold,,,https://www.redfin.com/MD/Riva/1262-Breckenridge-Cir-21140/home/9863338,BRIGHT MLS,MDAA407292,N,Y,38.945952,-76.591269
PAST SALE,October-7-2019,Single Family Residential,3028 Marlin Dr,Riva,MD,21140,297000,4,2.0,RIVA FARMS,1739,11800,1970,790,171,,Sold,,,https://www.redfin.com/MD/Riva/3028-Marlin-Dr-21140/home/10047782,BRIGHT MLS,MDAA409564,N,Y,38.9521312,-76.5860496
PAST SALE,October-6-2020,Single Family Residential,3051 Perch Dr,Riva,MD,21140,498000,4,2.0,RIVA FARMS,1880,12000,1971,425,265,,Sold,,,https://www.redfin.com/MD/Riva/3051-Perch-Dr-21140/home/10047858,BRIGHT MLS,MDAA442548,N,Y,38.953888,-76.583468
PAST SALE,May-21-2021,Single Family Residential,3006 Bass Pl,Riva,MD,21140,479500,3,3.0,RIVA FARMS,1880,24600,1972,198,255,,Sold,,,https://www.redfin.com/MD/Riva/3006-Bass-Pl-21140/home/10047893,BRIGHT MLS,MDAA462122,N,Y,38.9547661,-76.5863205
PAST SALE,May-7-2021,Single Family Residential,3172 Riva Rd,Riva,MD,21140,551000,3,2.5,RIVA FARMS,1880,12000,1971,212,293,,Sold,,,https://www.redfin.com/MD/Riva/3172-Riva-Rd-21140/home/10047903,BRIGHT MLS,MDAA462102,N,Y,38.9507136,-76.5859142
PAST SALE,,Single Family Residential,3036 Rock Dr,Riva,MD,21140,365000,,2.0,,1880,12500,1971,,194,,,,,https://www.redfin.com/MD/Riva/3036-Rock-Dr-21140/home/10047941,,,N,Y,38.9513959,-76.5835216
PAST SALE,,Single Family Residential,3044 Pike Dr,Riva,MD,21140,320000,,2.5,,1602,25000,1965,,200,,,,,https://www.redfin.com/MD/Riva/3044-Pike-Dr-21140/home/10047948,,,N,Y,38.951608,-76.5891194
PAST SALE,December-20-2018,Single Family Residential,3003 Marlin Dr,Riva,MD,21140,367000,4,2.0,RIVA FARMS,2230,15950,1972,1081,165,,Sold,,,https://www.redfin.com/MD/Riva/3003-Marlin-Dr-21140/home/10048346,BRIGHT MLS,1009926942,N,Y,38.9551458,-76.5844245
PAST SALE,February-25-2021,Single Family Residential,3022 Tarpon Rd,Riva,MD,21140,425000,4,3.0,RIVA FARMS,1842,11925,1972,283,231,,Sold,,,https://www.redfin.com/MD/Riva/3022-Tarpon-Rd-21140/home/10048563,BRIGHT MLS,MDAA448396,N,Y,38.952892,-76.5877651
PAST SALE,October-31-2019,Single Family Residential,3026 Rock Dr,Riva,MD,21140,330000,3,2.0,RIVA FARMS,1880,11250,1971,766,176,,Sold,,,https://www.redfin.com/MD/Riva/3026-Rock-Dr-21140/home/10048610,BRIGHT MLS,MDAA413224,N,Y,38.952734,-76.584858
PAST SALE,,Single Family Residential,1202 Breckenridge Ct,Riva,MD,21140,610000,,3.0,,3644,21032,1996,,167,,,,,https://www.redfin.com/MD/Riva/1202-Breckenridge-Ct-21140/home/9862833,,,N,Y,38.9486805,-76.5911508
PAST SALE,August-6-2019,Single Family Residential,104 Meadow Rd,Riva,MD,21140,225000,3,2.0,SYLVAN SHORES,1361,5000,1951,852,165,,Sold,,,https://www.redfin.com/MD/Riva/104-Meadow-Rd-21140/home/10068254,BRIGHT MLS,MDAA395438,N,Y,38.9537384,-76.5818518
PAST SALE,,Single Family Residential,100 Orchard Rd,Riva,MD,21140,171500,,1.0,,576,3900,1931,,298,,,,,https://www.redfin.com/MD/Riva/100-Orchard-Rd-21140/home/10067993,,,N,Y,38.9544796,-76.5807599
PAST SALE,,Single Family Residential,2 Dogwood Rd,Riva,MD,21140,215000,,1.0,,1260,5385,1951,,171,,,,,https://www.redfin.com/MD/Riva/2-Dogwood-Rd-21140/home/10067952,,,N,Y,38.9526829,-76.5806881
PAST SALE,December-4-2019,Single Family Residential,7 Apple Rd,Riva,MD,21140,660000,4,3.5,SYLVAN SHORES,2548,4183,2009,732,259,,Sold,,,https://www.redfin.com/MD/Riva/7-Apple-Rd-21140/home/10068260,BRIGHT MLS,MDAA414092,N,Y,38.9531087,-76.5784322
PAST SALE,December-16-2019,Single Family Residential,15 Dogwood Rd,Riva,MD,21140,257500,2,1.0,SYLVAN SHORES,940,2730,1940,720,274,,Sold,,,https://www.redfin.com/MD/Riva/15-Dogwood-Rd-21140/home/10068395,BRIGHT MLS,MDAA415286,N,Y,38.9534407,-76.5799531
PAST SALE,November-18-2019,Single Family Residential,3110 Riva Rd,Riva,MD,21140,204000,1,1.0,SYLVAN SHORES,624,3044,1951,748,327,,Sold,,,https://www.redfin.com/MD/Riva/3110-Riva-Rd-21140/home/10068820,BRIGHT MLS,MDAA415192,N,Y,38.9519505,-76.5807226
PAST SALE,December-4-2020,Single Family Residential,2 Butternut Rd,Riva,MD,21140,386000,3,2.5,SYLVAN SHORES,1446,4936,1951,366,267,,Sold,,,https://www.redfin.com/MD/Riva/2-Butternut-Rd-21140/home/10068840,BRIGHT MLS,MDAA449262,N,Y,38.9526443,-76.578828
PAST SALE,September-9-2019,Single Family Residential,102 Orchard Rd,Riva,MD,21140,515000,3,2.5,SYLVAN SHORES,2090,3325,2019,818,246,,Sold,,,https://www.redfin.com/MD/Riva/102-Orchard-Rd-21140/home/10068693,BRIGHT MLS,MDAA407660,N,Y,38.9543547,-76.5808828
PAST SALE,August-13-2021,Townhouse,1353 Escapade Ct,Riva,MD,21140,425000,3,2.5,AISQUITH FARMS,2052,1760,1995,114,207,70,Sold,,,https://www.redfin.com/MD/Riva/1353-Escapade-Ct-21140/home/9863579,BRIGHT MLS,MDAA2000560,N,Y,38.941152,-76.587136
PAST SALE,July-22-2021,Single Family Residential,408 Hampshire Ct,Riva,MD,21140,725000,5,2.5,BERKSHIRE,2376,18229,1978,136,305,23,Sold,,,https://www.redfin.com/MD/Riva/408-Hampshire-Ct-21140/home/9864781,BRIGHT MLS,MDAA472072,N,Y,38.9488977,-76.5844245
PAST SALE,June-21-2019,Single Family Residential,2802 Grey Haven's Way,Riva,MD,21140,798400,4,4.0,SHIRE OAKS,3010,46043,2019,898,265,31,Sold,,,https://www.redfin.com/MD/Riva/2802-Grey-Havens-Way-21140/home/9926118,BRIGHT MLS,MDAA400128,N,Y,38.9487438,-76.595106
PAST SALE,May-24-2019,Vacant Land,2718 Pinecrest Dr,Riva,MD,21140,125000,,,GLEN ISLE,,14095,,926,,29,Sold,,,https://www.redfin.com/MD/Riva/2718-Pinecrest-Dr-21140/home/10003968,BRIGHT MLS,1004009969,N,Y,38.95897,-76.590052
PAST SALE,March-8-2021,Single Family Residential,565 Laurel Ct,Riva,MD,21140,690000,4,2.5,PORT ISLE,3433,40295,1987,272,201,31,Sold,,,https://www.redfin.com/MD/Riva/565-Laurel-Ct-21140/home/10097720,BRIGHT MLS,MDAA456984,N,Y,38.95727,-76.594401
PAST SALE,July-19-2021,Single Family Residential,500 Forest Rd,Riva,MD,21140,424900,3,1.5,SYLVAN SHORES & FOREST A,1421,8748,1940,139,299,,Sold,,,https://www.redfin.com/MD/Riva/500-Forest-Rd-21140/home/9895577,BRIGHT MLS,MDAA470090,N,Y,38.9513266,-76.5801808
PAST SALE,June-11-2021,Single Family Residential,3200 Douglas Point Ct,Riva,MD,21140,665000,3,2.0,HAMBLETON ESTATES,2326,57063,2000,177,286,,Sold,,,https://www.redfin.com/MD/Riva/3200-Douglas-Point-Ct-21140/home/10009165,BRIGHT MLS,MDAA464866,N,Y,38.9521636,-76.5913088
PAST SALE,November-22-2021,Single Family Residential,397 Westbury Dr,Riva,MD,21140,525000,3,2.5,ANNAPOLIS LANDING,2022,10359,1979,13,260,33,Sold,,,https://www.redfin.com/MD/Riva/397-Westbury-Dr-21140/home/9861861,BRIGHT MLS,MDAA2007788,N,Y,38.9469096,-76.5852371
PAST SALE,December-17-2020,Single Family Residential,504 Southview Dr,Riva,MD,21140,595000,5,4.0,GLEN ISLE,3512,10131,1992,353,169,30,Sold,,,https://www.redfin.com/MD/Riva/504-Southview-Dr-21140/home/10004499,BRIGHT MLS,MDAA438102,N,Y,38.9572604,-76.5891645
PAST SALE,July-23-2021,Single Family Residential,3051 Centre Rd,Riva,MD,21140,600000,4,3.0,SOUTH RIVER HEIGHTS,2428,15000,1963,135,247,12,Sold,,,https://www.redfin.com/MD/Riva/3051-Centre-Rd-21140/home/9895763,BRIGHT MLS,MDAA469050,N,Y,38.9520419,-76.5767577
PAST SALE,,Single Family Residential,3033 Pike Dr,Riva,MD,21140,240000,,2.0,,1960,12700,1970,,122,,,,,https://www.redfin.com/MD/Riva/3033-Pike-Dr-21140/home/10048433,,,N,Y,38.9519222,-76.588036
PAST SALE,November-8-2019,Single Family Residential,2772 Riverview Dr,Riva,MD,21140,315000,2,1.0,GLEN ISLE,1104,7040,1945,758,285,29,Sold,,,https://www.redfin.com/MD/Riva/2772-Riverview-Dr-21140/home/10004267,BRIGHT MLS,MDAA413932,N,Y,38.9542148,-76.5932725
PAST SALE,,Single Family Residential,19 Elm Rd,Riva,MD,21140,280000,,1.0,,840,3240,1948,,333,,,,,https://www.redfin.com/MD/Riva/19-Elm-Rd-21140/home/10068144,,,N,Y,38.954087,-76.5804968
PAST SALE,March-29-2019,Single Family Residential,2753 Hambleton Rd,Riva,MD,21140,840000,3,3.0,HAMBLETON ESTATES,2025,84070,2008,982,415,,Sold,,,https://www.redfin.com/MD/Riva/2753-Hambleton-Rd-21140/home/10008958,BRIGHT MLS,MDAA182776,N,Y,38.9565675,-76.5852822
PAST SALE,September-1-2021,Single Family Residential,525 Rabbitt Hill Rd,Riva,MD,21140,695000,3,3.0,SYLVAN SHORES & FOREST A,3200,13050,2008,95,217,4,Sold,,,https://www.redfin.com/MD/Riva/525-Rabbit-Hill-Rd-21140/home/9895597,BRIGHT MLS,MDAA471762,N,Y,38.9500609,-76.5786007
PAST SALE,January-31-2019,Single Family Residential,8 Butternut Rd,Riva,MD,21140,399900,4,3.5,SYLVAN SHORES,2300,2880,2018,1039,174,,Sold,,,https://www.redfin.com/MD/Riva/8-Butternut-Rd-21140/home/28499661,BRIGHT MLS,1002244086,N,Y,38.9525574,-76.5789121
PAST SALE,January-7-2020,Single Family Residential,3064 Centre Rd,Riva,MD,21140,312000,3,2.0,SOUTH RIVER HEIGHTS,1032,12900,1963,698,302,,Sold,,,https://www.redfin.com/MD/Riva/3064-Centre-Rd-21140/home/9895801,BRIGHT MLS,MDAA413456,N,Y,38.951136,-76.5769289
PAST SALE,March-15-2021,Single Family Residential,407 Berkshire Dr,Riva,MD,21140,493333,4,2.5,BERKSHIRE,2283,15014,1977,265,216,23,Sold,,,https://www.redfin.com/MD/Riva/407-Berkshire-Dr-21140/home/9864677,BRIGHT MLS,MDAA456718,N,Y,38.949428,-76.5834764
PAST SALE,February-9-2021,Single Family Residential,2712 Riverview Dr,Riva,MD,21140,350000,2,1.0,GLEN ISLE,1024,25280,1945,299,342,29,Sold,,,https://www.redfin.com/MD/Riva/2712-Riverview-Dr-21140/home/10004112,BRIGHT MLS,MDAA456454,N,Y,38.9575944,-76.5951232
PAST SALE,November-5-2021,Single Family Residential,3051 Tudor Hall Rd,Riva,MD,21140,471100,3,3.0,SOUTH RIVER HEIGHTS,2502,11250,1963,30,188,,Sold,,,https://www.redfin.com/MD/Riva/3051-Tudor-Hall-Rd-21140/home/9895818,BRIGHT MLS,MDAA2011166,N,Y,38.9517206,-76.5778803
PAST SALE,June-18-2021,Single Family Residential,2774 Hambleton Rd,Riva,MD,21140,1650000,8,5.0,HAMBLETON ESTATES,6869,162479,1920,170,240,,Sold,,,https://www.redfin.com/MD/Riva/2774-Hambleton-Rd-21140/home/9923172,BRIGHT MLS,MDAA467790,N,Y,38.9580518,-76.5861625
PAST SALE,July-13-2020,Townhouse,3204 Escapade Cir,Riva,MD,21140,450000,3,3.0,AISQUITH FARMS,2340,1670,1996,510,192,61,Sold,,,https://www.redfin.com/MD/Riva/3204-Escapade-Cir-21140/home/9863797,BRIGHT MLS,MDAA436920,N,Y,38.94333,-76.589136
PAST SALE,October-30-2019,Single Family Residential,34 Shore Walk Rd,Riva,MD,21140,610000,4,3.0,SYLVAN SHORES,1686,2890,2000,767,362,,Sold,,,https://www.redfin.com/MD/Riva/34-Shorewalk-Rd-21140/home/10068724,BRIGHT MLS,MDAA403136,N,Y,38.954257,-76.5799849
PAST SALE,August-24-2020,Single Family Residential,205 Grisdale Hl,Riva,MD,21140,610000,4,3.5,ANNAPOLIS LANDING,2821,16636,1979,468,216,33,Sold,,,https://www.redfin.com/MD/Riva/205-Grisdale-Hl-21140/home/9861808,BRIGHT MLS,MDAA437274,N,Y,38.9475949,-76.5842439
PAST SALE,April-19-2019,Single Family Residential,209 Poplar Rd,Riva,MD,21140,359500,3,3.0,SYLVAN SHORES,1354,14374,1935,961,266,,Sold,,,https://www.redfin.com/MD/Riva/209-Poplar-Rd-21140/home/10067926,BRIGHT MLS,MDAA378212,N,Y,38.9559175,-76.5827993
PAST SALE,June-10-2021,Single Family Residential,3109 Stonehenge Dr,Riva,MD,21140,750000,4,3.5,ANNAPOLIS LANDING,2396,15525,1986,178,313,34,Sold,,,https://www.redfin.com/MD/Riva/3109-Stonehenge-Dr-21140/home/9861779,BRIGHT MLS,MDAA466256,N,Y,38.9466922,-76.5835441
PAST SALE,July-30-2020,Single Family Residential,337 Derbyshire Ln,Riva,MD,21140,800000,4,3.5,ANNAPOLIS LANDING,3250,11852,1989,493,246,33,Sold,,,https://www.redfin.com/MD/Riva/337-Derbyshire-Ln-21140/home/9862573,BRIGHT MLS,MDAA439534,N,Y,38.9415823,-76.5795713
PAST SALE,April-23-2021,Townhouse,1365 Escapade Ct,Riva,MD,21140,415000,3,3.0,AISQUITH FARMS,2316,1760,1996,226,179,70,Sold,,,https://www.redfin.com/MD/Riva/1365-Escapade-Ct-21140/home/9863618,BRIGHT MLS,MDAA458978,N,Y,38.941108,-76.587756
PAST SALE,January-15-2020,Single Family Residential,2804 Grey Havens Way,Riva,MD,21140,1200000,5,3.5,SHIRE OAKS,3500,46958,2020,690,343,29,Sold,,,https://www.redfin.com/MD/Riva/2804-Grey-Havens-Way-21140/home/11749919,BRIGHT MLS,MDAA409858,N,Y,38.948953,-76.595524
PAST SALE,November-13-2020,Single Family Residential,252 Charring Ct,Riva,MD,21140,730000,4,3.0,ANNAPOLIS LANDING,3157,10000,1986,387,231,33,Sold,,,https://www.redfin.com/MD/Riva/252-Charring-Ct-21140/home/9862138,BRIGHT MLS,MDAA447702,N,Y,38.9441252,-76.5816255
PAST SALE,,Single Family Residential,3075 Perch Dr,Riva,MD,21140,490000,,2.5,,2660,7728,2020,,184,,,,,https://www.redfin.com/MD/Riva/3075-Perch-Dr-21140/home/167587664,,,N,Y,38.951329025,-76.58309238
PAST SALE,May-13-2021,Single Family Residential,210 Poplar Rd,Riva,MD,21140,320000,3,2.0,SYLVAN SHORES,1064,4675,1951,206,301,,Sold,,,https://www.redfin.com/MD/Riva/210-Poplar-Rd-21140/home/10068207,BRIGHT MLS,MDAA463422,N,Y,38.956171,-76.5825274
PAST SALE,August-31-2020,Single Family Residential,17 Hillcrest Rd,Riva,MD,21140,285000,3,1.5,SYLVAN SHORES,1136,6192,1938,461,251,,Sold,,,https://www.redfin.com/MD/Riva/17-Hillcrest-Rd-21140/home/10068004,BRIGHT MLS,MDAA438014,N,Y,38.9529678,-76.5814251
PAST SALE,,Single Family Residential,3052 Tudor Hall Rd,Riva,MD,21140,520000,,2.5,,1640,10615,2000,,317,,,,,https://www.redfin.com/MD/Riva/3052-Tudor-Hall-Rd-21140/home/10470420,,,N,Y,38.951527,-76.5784653
PAST SALE,April-14-2021,Single Family Residential,3212 Menia St,Riva,MD,21140,790000,5,3.5,STONE RIDGE,4349,15621,2010,235,182,67,Sold,,,https://www.redfin.com/MD/Riva/3212-Menia-St-21140/home/10481607,BRIGHT MLS,MDAA459170,N,Y,38.9479372,-76.5946356
PAST SALE,July-31-2020,Single Family Residential,202 Poplar Rd,Riva,MD,21140,225000,3,1.5,SYLVAN SHORES,1388,8118,1942,492,162,,Sold,,,https://www.redfin.com/MD/Riva/202-Poplar-Rd-21140/home/10068121,BRIGHT MLS,MDAA428754,N,Y,38.9558983,-76.582286
PAST SALE,January-29-2021,Single Family Residential,3228 Breckenridge Way,Riva,MD,21140,727500,4,3.5,AISQUITH FARMS,3744,22651,1996,310,194,36,Sold,,,https://www.redfin.com/MD/Riva/3228-Breckenridge-Way-21140/home/9862940,BRIGHT MLS,MDAA451472,N,Y,38.9464069,-76.5879682
PAST SALE,June-27-2019,Single Family Residential,104 Orchard Rd,Riva,MD,21140,248000,3,2.0,SYLVAN SHORES,1498,2765,1951,892,166,,Sold,,,https://www.redfin.com/MD/Riva/104-Orchard-Rd-21140/home/10068262,BRIGHT MLS,MDAA366402,N,Y,38.9544247,-76.5806886
PAST SALE,August-13-2021,Single Family Residential,3002 Marlin Dr,Riva,MD,21140,408000,3,2.0,RIVA FARMS,1880,14100,1972,114,217,,Sold,,,https://www.redfin.com/MD/Riva/3002-Marlin-Dr-21140/home/10047981,BRIGHT MLS,MDAA2000724,N,Y,38.9551289,-76.5849662
PAST SALE,April-5-2019,Single Family Residential,401 Paradise Rd,Riva,MD,21140,257500,2,1.0,SYLVAN SHORES,1056,4704,1951,975,244,,Sold,,,https://www.redfin.com/MD/Riva/401-Paradise-Rd-21140/home/10068761,BRIGHT MLS,MDAA373764,N,Y,38.9518483,-76.5812192
PAST SALE,September-2-2020,Single Family Residential,2776 Riverview Dr,Riva,MD,21140,650000,4,3.5,GLEN ISLE,2500,7405,2020,459,260,29,Sold,,,https://www.redfin.com/MD/Riva/2776-Riverview-Dr-21140/home/10004221,BRIGHT MLS,MDAA432202,N,Y,38.9541748,-76.5929946
PAST SALE,April-26-2019,Single Family Residential,400 Westbury Dr,Riva,MD,21140,612000,4,3.5,ANNAPOLIS LANDING,3270,10000,1979,954,187,33,Sold,,,https://www.redfin.com/MD/Riva/400-Westbury-Dr-21140/home/9861590,BRIGHT MLS,MDAA376708,N,Y,38.9469801,-76.5861851
PAST SALE,November-30-2021,Single Family Residential,374 Westbury Dr,Riva,MD,21140,730000,4,2.5,ANNAPOLIS LANDING,2700,10428,1986,5,270,33,Sold,,,https://www.redfin.com/MD/Riva/374-Westbury-Dr-21140/home/9862173,BRIGHT MLS,MDAA2013682,N,Y,38.945019,-76.5820769
PAST SALE,September-27-2021,Single Family Residential,3026 Pike Dr,Riva,MD,21140,499900,4,3.0,RIVA FARMS,2180,12200,1971,69,229,,Sold,,,https://www.redfin.com/MD/Riva/3026-Pike-Dr-21140/home/10047841,BRIGHT MLS,MDAA2004676,N,Y,38.952654,-76.5864108
PAST SALE,October-29-2021,Single Family Residential,3226 Breckenridge Way,Riva,MD,21140,665000,5,3.5,WATERFORD,4051,22651,1994,37,164,39,Sold,,,https://www.redfin.com/MD/Riva/3226-Breckenridge-Way-21140/home/9862931,BRIGHT MLS,MDAA2008580,N,Y,38.9468933,-76.5885325
PAST SALE,July-29-2021,Single Family Residential,3145 Stonehenge Dr,Riva,MD,21140,755000,5,3.5,ANNAPOLIS LANDING,2640,9583,1986,129,286,33,Sold,,,https://www.redfin.com/MD/Riva/3145-Stonehenge-Dr-21140/home/9862261,BRIGHT MLS,MDAA470988,N,Y,38.9434401,-76.5809031
PAST SALE,September-17-2021,Townhouse,3241 Escapade Cir,Riva,MD,21140,480000,3,2.5,WATERFORD,2275,2400,1995,79,211,70,Sold,,,https://www.redfin.com/MD/Riva/3241-Escapade-Cir-21140/home/9863927,BRIGHT MLS,MDAA2006904,N,Y,38.942702,-76.587804
PAST SALE,September-17-2021,Single Family Residential,2709 Parkview Dr,Riva,MD,21140,450000,3,3.0,GLEN ISLE,1400,11000,1969,79,321,31,Sold,,,https://www.redfin.com/MD/Riva/2709-Parkview-Dr-21140/home/10004005,BRIGHT MLS,MDAA2006902,N,Y,38.9584215,-76.5908799
PAST SALE,October-15-2021,Single Family Residential,414 Porpoise Ln,Riva,MD,21140,510000,3,2.5,RIVA FARMS,2830,12750,1970,51,180,,Sold,,,https://www.redfin.com/MD/Riva/414-Porpoise-Ln-21140/home/10048336,BRIGHT MLS,MDAA2008688,N,Y,38.95194,-76.585951
PAST SALE,September-16-2021,Single Family Residential,2805 White House Rd,Riva,MD,21140,1652000,4,2.5,SOUTH RIVER,3491,10454,1995,80,473,,Sold,,,https://www.redfin.com/MD/Riva/2805-White-House-Rd-21140/home/9053386,BRIGHT MLS,MDAA2007190,N,Y,38.9534191,-76.5723703
PAST SALE,September-29-2021,Townhouse,1290 Breckenridge Cir,Riva,MD,21140,433500,3,2.5,WATERFORD,2050,1760,1994,67,211,70,Sold,,,https://www.redfin.com/MD/Riva/1290-Breckenridge-Cir-21140/home/9863256,BRIGHT MLS,MDAA2005510,N,Y,38.945184,-76.590355
PAST SALE,January-21-2020,Single Family Residential,2787 Cedar Dr,Riva,MD,21140,353000,3,2.0,GLEN ISLE,1837,11500,1940,684,192,33,Sold,,,https://www.redfin.com/MD/Riva/2787-Cedar-Dr-21140/home/10004192,BRIGHT MLS,MDAA413522,N,Y,38.9562904,-76.5911508
PAST SALE,December-4-2020,Single Family Residential,3093 Newington Dr,Riva,MD,21140,1150000,3,4.5,BEARDS RETREAT,3930,66211,2017,366,293,,Sold,,,https://www.redfin.com/MD/Riva/3093-Newington-Dr-21140/home/10481553,BRIGHT MLS,MDAA448656,N,Y,38.9472669,-76.578932
PAST SALE,June-10-2021,Single Family Residential,333 Brunswick Pl,Riva,MD,21140,700000,4,2.5,ANNAPOLIS LANDING,2612,10000,1981,178,268,33,Sold,,,https://www.redfin.com/MD/Riva/333-Brunswick-Pl-21140/home/9861512,BRIGHT MLS,MDAA464644,N,Y,38.9473172,-76.5873588
PAST SALE,June-27-2019,Single Family Residential,3203 Wordsworth Dr,Riva,MD,21140,615000,4,2.5,ANNAPOLIS LANDING,2772,10000,1987,892,222,33,Sold,,,https://www.redfin.com/MD/Riva/3203-Wordsworth-Dr-21140/home/9862003,BRIGHT MLS,MDAA395812,N,Y,38.9452916,-76.5851016
PAST SALE,January-24-2020,Single Family Residential,3128 Stonehenge Dr,Riva,MD,21140,520000,5,3.5,ANNAPOLIS LANDING,3318,11529,1987,681,157,33,Sold,,,https://www.redfin.com/MD/Riva/3128-Stonehenge-Dr-21140/home/9862055,BRIGHT MLS,MDAA413506,N,Y,38.9443326,-76.5837473
PAST SALE,February-17-2021,Single Family Residential,3107 Shrewsbury Ln,Riva,MD,21140,522500,3,2.5,ANNAPOLIS LANDING,2022,10000,1979,291,258,33,Sold,,,https://www.redfin.com/MD/Riva/3107-Shrewsbury-Ln-21140/home/9861620,BRIGHT MLS,MDAA457428,N,Y,38.9465553,-76.5863205
PAST SALE,February-25-2021,Single Family Residential,3123 Stonehenge Dr,Riva,MD,21140,650000,5,3.5,ANNAPOLIS LANDING,3480,10000,1987,283,187,33,Sold,,,https://www.redfin.com/MD/Riva/3123-Stonehenge-Dr-21140/home/9861902,BRIGHT MLS,MDAA449566,N,Y,38.9449387,-76.5837924
PAST SALE,March-29-2019,Single Family Residential,351 Derbyshire Ln,Riva,MD,21140,586500,4,2.5,ANNAPOLIS LANDING,2509,11288,1987,982,234,33,Sold,,,https://www.redfin.com/MD/Riva/351-Derbyshire-Ln-21140/home/9862408,BRIGHT MLS,MDAA302110,N,Y,38.942866,-76.581648
PAST SALE,May-10-2019,Single Family Residential,340 Derbyshire Ln,Riva,MD,21140,609000,4,2.5,ANNAPOLIS LANDING,2763,11295,1988,940,220,33,Sold,,,https://www.redfin.com/MD/Riva/340-Derbyshire-Ln-21140/home/9862474,BRIGHT MLS,MDAA394546,N,Y,38.9417208,-76.5805871
PAST SALE,February-25-2021,Single Family Residential,250 Charring Ct,Riva,MD,21140,680000,4,3.5,ANNAPOLIS LANDING,2396,11192,1986,283,284,34,Sold,,,https://www.redfin.com/MD/Riva/250-Charring-Ct-21140/home/9862145,BRIGHT MLS,MDAA2000156,N,Y,38.943918,-76.5817383
PAST SALE,October-31-2019,Single Family Residential,357 Westbury Dr,Riva,MD,21140,610000,4,3.5,ANNAPOLIS LANDING,3233,15000,1988,766,189,35,Sold,,,https://www.redfin.com/MD/Riva/357-Westbury-Dr-21140/home/9862340,BRIGHT MLS,MDAA411348,N,Y,38.9439525,-76.5794585
PAST SALE,August-12-2020,Single Family Residential,361 Westbury Dr,Riva,MD,21140,599000,4,2.5,ANNAPOLIS LANDING,2696,15000,1985,480,222,33,Sold,,,https://www.redfin.com/MD/Riva/361-Westbury-Dr-21140/home/9862357,BRIGHT MLS,MDAA430592,N,Y,38.9442455,-76.5799099
PAST SALE,June-11-2019,Townhouse,1258 Breckenridge Cir,Riva,MD,21140,415000,3,2.5,AISQUITH FARMS,2334,1760,1994,908,178,61,Sold,,,https://www.redfin.com/MD/Riva/1258-Breckenridge-Cir-21140/home/9863348,BRIGHT MLS,MDAA396890,N,Y,38.946059,-76.591196
PAST SALE,May-3-2019,Single Family Residential,3235 Breckenridge Way,Riva,MD,21140,705000,5,3.5,AISQUITH FARMS,4416,23522,1994,947,160,36,Sold,,,https://www.redfin.com/MD/Riva/3235-Breckenridge-Way-21140/home/9862974,BRIGHT MLS,MDAA376490,N,Y,38.945346,-76.5876297
PAST SALE,March-26-2021,Single Family Residential,3227 Breckenridge Way,Riva,MD,21140,800000,4,3.5,WATERFORD,3700,20790,1996,254,216,36,Sold,,,https://www.redfin.com/MD/Riva/3227-Breckenridge-Way-21140/home/9862994,BRIGHT MLS,MDAA458322,N,Y,38.9462176,-76.5885777
PAST SALE,July-27-2020,Single Family Residential,3250 Breckenridge Way,Riva,MD,21140,710000,4,3.5,AISQUITH FARMS,3765,34848,1996,496,189,36,Sold,,,https://www.redfin.com/MD/Riva/3250-Breckenridge-Way-21140/home/9863406,BRIGHT MLS,MDAA436842,N,Y,38.9431141,-76.5865237
PAST SALE,August-29-2019,Townhouse,1254 Breckenridge Cir,Riva,MD,21140,412000,3,3.5,AISQUITH FARMS,2314,2400,1994,829,178,58,Sold,,,https://www.redfin.com/MD/Riva/1254-Breckenridge-Cir-21140/home/9863064,BRIGHT MLS,MDAA409106,N,Y,38.946225,-76.590954
PAST SALE,April-17-2019,Townhouse,3239 Escapade Cir,Riva,MD,21140,407000,3,3.0,AISQUITH FARMS,2307,1760,1995,963,176,61,Sold,,,https://www.redfin.com/MD/Riva/3239-Escapade-Cir-21140/home/9863923,BRIGHT MLS,MDAA377478,N,Y,38.942772,-76.587818
PAST SALE,,Townhouse,3210 Escapade Cir,Riva,MD,21140,425000,,2.5,,2326,2400,1996,,183,,,,,https://www.redfin.com/MD/Riva/3210-Escapade-Cir-21140/home/9863779,,,N,Y,38.9432746,-76.5888329
PAST SALE,,Townhouse,3200 Escapade Cir,Riva,MD,21140,389900,,2.5,,2062,2400,1996,,189,,,,,https://www.redfin.com/MD/Riva/3200-Escapade-Cir-21140/home/9863811,,,N,Y,38.94346,-76.589152
PAST SALE,November-19-2020,Townhouse,3211 Escapade Cir,Riva,MD,21140,450000,3,2.5,AISQUITH FARMS,2340,2400,1995,381,192,61,Sold,,,https://www.redfin.com/MD/Riva/3211-Escapade-Cir-21140/home/9863842,BRIGHT MLS,MDAA448822,N,Y,38.943697,-76.588523
PAST SALE,March-1-2021,Townhouse,3215 Escapade Cir,Riva,MD,21140,420200,3,2.5,AISQUITH FARMS,2140,1760,1996,279,196,64,Sold,,,https://www.redfin.com/MD/Riva/3215-Escapade-Cir-21140/home/9863858,BRIGHT MLS,MDAA438306,N,Y,38.943501,-76.5882029
PAST SALE,September-30-2019,Townhouse,3245 Escapade Cir,Riva,MD,21140,415000,3,2.5,AISQUITH FARMS,2065,1760,1995,797,201,61,Sold,,,https://www.redfin.com/MD/Riva/3245-Escapade-Cir-21140/home/9863938,BRIGHT MLS,MDAA402280,N,Y,38.9425079,-76.587763
PAST SALE,February-16-2021,Single Family Residential,3097 Wellington Ct,Riva,MD,21140,700000,4,2.5,BERKSHIRE,2945,15000,1978,292,238,23,Sold,,,https://www.redfin.com/MD/Riva/3097-Wellington-Ct-21140/home/9864739,BRIGHT MLS,MDAA456374,N,Y,38.9493907,-76.5826412
PAST SALE,August-31-2020,Single Family Residential,406 Hampshire Ct,Riva,MD,21140,609999,4,2.5,BERKSHIRE,2740,17000,1978,461,223,0,Sold,,,https://www.redfin.com/MD/Riva/406-Hampshire-Ct-21140/home/9864786,BRIGHT MLS,MDAA430288,N,Y,38.9486506,-76.5843187
PAST SALE,March-30-2021,Single Family Residential,404 Hampshire Ct,Riva,MD,21140,675000,4,2.5,BERKSHIRE,2815,15088,1977,250,240,23,Sold,,,https://www.redfin.com/MD/Riva/404-Hampshire-Ct-21140/home/9864792,BRIGHT MLS,MDAA459750,N,Y,38.9488644,-76.5837784
PAST SALE,September-27-2019,Single Family Residential,379 Berkshire Dr,Riva,MD,21140,701500,5,4.5,BERKSHIRE,4696,15000,1982,800,149,21,Sold,,,https://www.redfin.com/MD/Riva/379-Berkshire-Dr-21140/home/9865099,BRIGHT MLS,MDAA409680,N,Y,38.9470061,-76.580226
PAST SALE,September-28-2020,Single Family Residential,385 Yorkshire Ln,Riva,MD,21140,655000,5,3.5,BERKSHIRE,3463,15000,1978,433,189,23,Sold,,,https://www.redfin.com/MD/Riva/385-Yorkshire-Ln-21140/home/9865022,BRIGHT MLS,MDAA445094,N,Y,38.9464727,-76.58149
PAST SALE,June-7-2019,Single Family Residential,251 Milthorn Ct,Riva,MD,21140,680000,4,3.5,ANNAPOLIS LANDING,3438,11813,1985,912,198,33,Sold,,,https://www.redfin.com/MD/Riva/251-Milthorn-Ct-21140/home/9862614,BRIGHT MLS,MDAA395736,N,Y,38.9426022,-76.5788716
PAST SALE,May-31-2019,Single Family Residential,3202 Homewood Rd,Davidsonville,MD,21035,630000,4,3.5,CAMBRIA,3611,39639,1999,919,174,32,Sold,,,https://www.redfin.com/MD/Davidsonville/3202-Homewood-Rd-21035/home/9867935,BRIGHT MLS,MDAA343976,N,Y,38.947519,-76.596666
PAST SALE,March-20-2020,Single Family Residential,3105 Southwick Pl,Riva,MD,21140,628000,5,2.5,BERKSHIRE,2904,22651,1979,625,216,23,Sold,,,https://www.redfin.com/MD/Riva/3105-Southwick-Pl-21140/Fl/home/9864835,BRIGHT MLS,MDAA424106,N,Y,38.9475803,-76.5834313
PAST SALE,April-21-2021,Single Family Residential,3030 Marlin Dr,Riva,MD,21140,625000,7,5.0,RIVA FARMS,3192,13500,1970,228,196,,Sold,,,https://www.redfin.com/MD/Riva/3030-Marlin-Dr-21140/home/10047986,BRIGHT MLS,MDAA461972,N,Y,38.9517633,-76.5858755
PAST SALE,August-5-2019,Single Family Residential,2767 Cedar Dr,Riva,MD,21140,337000,3,2.0,GLEN ISLE,1224,16000,1951,853,275,,Sold,,,https://www.redfin.com/MD/Riva/2767-Cedar-Dr-21140/home/10004093,BRIGHT MLS,MDAA398276,N,Y,38.9577409,-76.5906378
PAST SALE,July-22-2021,Single Family Residential,212 Park Rd,Riva,MD,21140,990000,3,3.0,SYLVAN SHORES,2431,4815,1951,136,407,,Sold,,,https://www.redfin.com/MD/Riva/212-Park-Rd-21140/home/10068847,BRIGHT MLS,MDAA463150,N,Y,38.956582,-76.580946
PAST SALE,October-31-2019,Single Family Residential,528 Poplar Dr,Riva,MD,21140,175000,3,1.0,GLEN ISLE ESTATES,1344,12100,1950,766,130,29,Sold,,,https://www.redfin.com/MD/Riva/528-Poplar-Dr-21140/home/10003695,BRIGHT MLS,MDAA400932,N,Y,38.958131,-76.589176
PAST SALE,October-31-2019,Townhouse,3233 Escapade Cir,Riva,MD,21140,415000,3,3.0,AISQUITH FARMS,2314,1760,1995,766,179,61,Sold,,,https://www.redfin.com/MD/Riva/3233-Escapade-Cir-21140/home/9863903,BRIGHT MLS,MDAA414234,N,Y,38.942951,-76.587857
PAST SALE,June-22-2021,Townhouse,1218 Breckenridge Cir,Riva,MD,21140,420500,3,2.5,WATERFORD,1892,1760,1994,166,222,70,Sold,,,https://www.redfin.com/MD/Riva/1218-Breckenridge-Cir-21140/home/9863161,BRIGHT MLS,MDAA466468,N,Y,38.946092,-76.589439
PAST SALE,June-30-2021,Single Family Residential,327 Cove Rd,Riva,MD,21140,800000,3,2.0,SYLVAN SHORES,2086,12035,1962,158,384,,Sold,,,https://www.redfin.com/MD/Riva/327-Cove-Rd-21140/home/10068814,BRIGHT MLS,MDAA462226,N,Y,38.9566403,-76.5824011
PAST SALE,March-10-2021,Single Family Residential,3105 Stonehenge Dr,Riva,MD,21140,590000,4,3.5,BERKSHIRE,2560,15000,1978,270,230,23,Sold,,,https://www.redfin.com/MD/Riva/3105-Stonehenge-Dr-21140/home/9864972,BRIGHT MLS,MDAA456806,N,Y,38.9468256,-76.5827993
PAST SALE,November-4-2021,Single Family Residential,537 Fern Rd,Riva,MD,21140,588000,4,2.5,SYLVAN SHORES & FOREST A,2235,16459,1975,31,263,,Sold,,,https://www.redfin.com/MD/Riva/537-Fern-Rd-21140/home/165953075,BRIGHT MLS,MDAA2006764,N,Y,38.9491489,-76.5799785
PAST SALE,November-23-2021,Single Family Residential,3039 Tarpon Rd,Riva,MD,21140,450000,3,2.0,RIVA FARMS,1600,11475,1969,12,281,,Sold,,,https://www.redfin.com/MD/Riva/3039-Tarpon-Rd-21140/home/10048058,BRIGHT MLS,MDAA2009286,N,Y,38.9508049,-76.5877901
PAST SALE,,Townhouse,1274 Breckenridge Cir,Riva,MD,21140,430000,,2.5,,2060,1760,1994,,209,,,,,https://www.redfin.com/MD/Riva/1274-Breckenridge-Cir-21140/home/9863310,,,N,Y,38.945441,-76.591015
PAST SALE,August-12-2021,Single Family Residential,545 Fern Rd,Riva,MD,21140,623320,4,2.5,SYLVAN SHORES & FOREST A,2039,10006,2021,115,306,,Sold,,,https://www.redfin.com/MD/Riva/545-Fern-Rd-21140/home/145566253,BRIGHT MLS,MDAA453948,N,Y,38.9486723,-76.5801398
PAST SALE,September-3-2021,Townhouse,1294 Breckenridge Cir,Riva,MD,21140,440000,3,2.5,AISQUITH FARMS,2314,1760,1994,93,190,70,Sold,,,https://www.redfin.com/MD/Riva/1294-Breckenridge-Cir-21140/home/9863248,BRIGHT MLS,MDAA2006130,N,Y,38.945135,-76.590214
PAST SALE,September-22-2021,Single Family Residential,3251 Breckenridge Way,Riva,MD,21140,875000,5,3.5,WATERFORD,3657,21258,1997,74,239,36,Sold,,,https://www.redfin.com/MD/Riva/3251-Breckenridge-Way-21140/home/9863556,BRIGHT MLS,MDAA2007028,N,Y,38.9427297,-76.5871782
PAST SALE,,Single Family Residential,3061 Riverview Dr,Riva,MD,21140,329500,,1.0,,1004,11700,1950,,328,,,,,https://www.redfin.com/MD/Riva/3061-Riverview-Dr-21140/home/9895754,,,N,Y,38.951857,-76.575285
PAST SALE,September-17-2021,Single Family Residential,3024 Marlin Dr,Riva,MD,21140,530000,3,2.0,RIVA FARMS,1880,12000,1972,79,282,,Sold,,,https://www.redfin.com/MD/Riva/3024-Marlin-Dr-21140/home/10048322,BRIGHT MLS,MDAA2006434,N,Y,38.9528089,-76.5863657
PAST SALE,April-9-2019,Single Family Residential,410 Westbury Dr,Riva,MD,21140,515000,4,3.0,ANNAPOLIS LANDING,2298,10250,1979,971,224,33,Sold,,,https://www.redfin.com/MD/Riva/410-Westbury-Dr-21140/home/9861542,BRIGHT MLS,MDAA375400,N,Y,38.9480066,-76.587088
PAST SALE,,Single Family Residential,3118 Stonehenge Dr,Riva,MD,21140,640000,,2.5,,2519,16236,1984,,254,,,,,https://www.redfin.com/MD/Riva/3118-Stonehenge-Dr-21140/home/9861683,,,N,Y,38.9458661,-76.5848759
PAST SALE,December-6-2019,Single Family Residential,393 Westbury Dr,Riva,MD,21140,496000,3,3.0,ANNAPOLIS LANDING,2017,10023,1979,730,246,33,Sold,,,https://www.redfin.com/MD/Riva/393-Westbury-Dr-21140/home/9861853,BRIGHT MLS,MDAA416704,N,Y,38.9467263,-76.5846953
PAST SALE,May-4-2020,Single Family Residential,341 Cottswold Pl,Riva,MD,21140,820000,4,2.5,ANNAPOLIS LANDING,2318,16646,1982,580,354,33,Sold,,,https://www.redfin.com/MD/Riva/341-Cottswold-Pl-21140/home/9862679,BRIGHT MLS,MDAA428060,N,Y,38.9428585,-76.5772914
PAST SALE,April-15-2020,Single Family Residential,351 Westbury Dr,Riva,MD,21140,637000,4,3.5,ANNAPOLIS LANDING,3228,16213,1983,599,197,33,Sold,,,https://www.redfin.com/MD/Riva/351-Westbury-Dr-21140/home/9862713,BRIGHT MLS,MDAA425310,N,Y,38.9435599,-76.5786684
PAST SALE,August-13-2020,Townhouse,1250 Breckenridge Cir,Riva,MD,21140,419900,3,2.5,AISQUITH FARMS,1684,1760,1994,479,249,34,Sold,,,https://www.redfin.com/MD/Riva/1250-Breckenridge-Cir-21140/home/9863073,BRIGHT MLS,MDAA438828,N,Y,38.946299,-76.590815
PAST SALE,April-17-2020,Townhouse,1212 Breckenridge Cir,Riva,MD,21140,420000,3,2.5,AISQUITH FARMS,2024,1760,1994,597,208,64,Sold,,,https://www.redfin.com/MD/Riva/1212-Breckenridge-Cir-21140/home/9863177,BRIGHT MLS,MDAA428036,N,Y,38.945962,-76.589276
PAST SALE,February-14-2020,Townhouse,1322 Breckenridge Cir,Riva,MD,21140,320000,3,1.5,AISQUITH FARMS,1686,1760,1994,660,190,61,Sold,,,https://www.redfin.com/MD/Riva/1322-Breckenridge-Cir-21140/home/9863369,BRIGHT MLS,MDAA419466,N,Y,38.945379,-76.589024
PAST SALE,March-13-2020,Single Family Residential,1298 Keystone Ct,Riva,MD,21140,729000,5,3.5,AISQUITH FARMS,4188,31363,1995,632,174,35,Sold,,,https://www.redfin.com/MD/Riva/1298-Keystone-Ct-21140/home/9863436,BRIGHT MLS,MDAA420650,N,Y,38.9415768,-76.5851919
PAST SALE,January-15-2019,Townhouse,3221 Escapade Cir,Riva,MD,21140,418000,3,3.0,AISQUITH FARMS,2128,1760,1996,1055,196,59,Sold,,,https://www.redfin.com/MD/Riva/3221-Escapade-Cir-21140/home/9863874,BRIGHT MLS,MDAA255548,N,Y,38.943351,-76.588074
PAST SALE,June-13-2019,Townhouse,3231 Escapade Cir,Riva,MD,21140,387500,3,2.5,AISQUITH FARMS,2190,1760,1995,906,177,61,Sold,,,https://www.redfin.com/MD/Riva/3231-Escapade-Cir-21140/home/9863900,BRIGHT MLS,MDAA378038,N,Y,38.94301,-76.58787
PAST SALE,July-15-2019,Single Family Residential,346 Berkshire Dr,Riva,MD,21140,1280000,6,3.5,STAFFORD ESTATES,5974,15759,1992,874,214,83,Sold,,,https://www.redfin.com/MD/Riva/346-Berkshire-Dr-21140/home/9888528,BRIGHT MLS,MDAA407134,N,Y,38.9442621,-76.5771334
PAST SALE,October-15-2019,Single Family Residential,3058 Tudor Hall Rd,Riva,MD,21140,260000,3,2.0,SOUTH RIVER HEIGHTS,1470,19499,1932,782,177,12,Sold,,,https://www.redfin.com/MD/Riva/3058-Tudor-Hall-Rd-21140/home/9896037,BRIGHT MLS,MDAA100279,N,Y,38.9511803,-76.5782395
PAST SALE,March-1-2019,Single Family Residential,3132 Riva Rd,Riva,MD,21140,249900,2,1.0,RIVA,948,8542,1930,1010,264,,Sold,,,https://www.redfin.com/MD/Riva/3132-Riva-Rd-21140/home/9919644,BRIGHT MLS,MDAA303268,N,Y,38.9515535,-76.5826412
PAST SALE,,Other,RIVA RD,RIVA,MD,21140,455000,,,,,16117,,,,,,,,https://www.redfin.com/MD/RIVA/RIVA-RD-21140/home/9927419,,,N,Y,38.953156,-76.576711
PAST SALE,,Single Family Residential,2716 Pinecrest Dr,Riva,MD,21140,125000,,2.5,,3769,14095,,,33,,,,,https://www.redfin.com/MD/Riva/2716-Pinecrest-Dr-21140/home/10003972,,,N,Y,38.95914,-76.590076
PAST SALE,December-31-2020,Single Family Residential,2736 Cedar Dr,Riva,MD,21140,840000,3,2.0,GLEN ISLE,1870,8550,1998,339,449,29,Sold,,,https://www.redfin.com/MD/Riva/2736-Cedar-Dr-21140/home/10004249,BRIGHT MLS,MDAA451628,N,Y,38.95985,-76.590499
PAST SALE,April-30-2020,Single Family Residential,3204 Riva Rd,Riva,MD,21140,387000,2,2.5,RIVA FARMS,1918,11840,1965,584,202,,Sold,,,https://www.redfin.com/MD/Riva/3204-Riva-Rd-21140/home/10048161,BRIGHT MLS,MDAA427712,N,Y,38.9501251,-76.5880811
PAST SALE,January-11-2021,Single Family Residential,3057 Perch Dr,Riva,MD,21140,475000,3,2.0,RIVA FARMS,2100,12850,1971,328,226,,Sold,,,https://www.redfin.com/MD/Riva/3057-Perch-Dr-21140/home/10048242,BRIGHT MLS,MDAA453682,N,Y,38.9532277,-76.5834313
PAST SALE,March-26-2020,Single Family Residential,3023 Tarpon Rd,Riva,MD,21140,350000,4,3.0,RIVA FARMS,1652,13800,1972,619,212,,Sold,,,https://www.redfin.com/MD/Riva/3023-Tarpon-Rd-21140/home/10048628,BRIGHT MLS,MDAA424342,N,Y,38.953117209,-76.58719916
PAST SALE,May-29-2020,Vacant Land,20 Shore Walk Rd,Riva,MD,21140,300000,,,SYLVAN SHORES,,5778,,555,,,Sold,,,https://www.redfin.com/MD/Riva/20-Shorewalk-Rd-21140/home/10068172,BRIGHT MLS,MDAA398110,N,Y,38.953579,-76.579316
PAST SALE,,Other,16 Shorewalk Rd,Riva,MD,21140,300000,,,,,5778,,,,,,,,https://www.redfin.com/MD/Riva/16-Shorewalk-Rd-21140/home/10068177,,,N,Y,38.953532,-76.579199
PAST SALE,August-25-2020,Single Family Residential,126 Woodside Rd,Riva,MD,21140,255000,2,1.0,SYLVAN SHORES,866,2485,1951,467,294,25,Sold,,,https://www.redfin.com/MD/Riva/126-Woodside-Rd-21140/home/10068589,BRIGHT MLS,MDAA439568,N,Y,38.9541709,-76.580635
PAST SALE,November-5-2020,Single Family Residential,10 Dogwood Rd,Riva,MD,21140,605000,3,3.5,SYLVAN SHORES,3046,5280,2005,395,199,,Sold,,,https://www.redfin.com/MD/Riva/10-Dogwood-Rd-21140/home/10068577,BRIGHT MLS,MDAA448436,N,Y,38.953249,-76.579965
PAST SALE,February-8-2019,Single Family Residential,6 Butternut Rd,Riva,MD,21140,409900,4,3.5,SYLVAN SHORES,2300,2656,2018,1031,178,,Sold,,,https://www.redfin.com/MD/Riva/6-Butternut-Rd-21140/home/10068621,BRIGHT MLS,1002009774,N,Y,38.9528886,-76.5788011
PAST SALE,March-14-2019,Single Family Residential,222 Park Rd,Riva,MD,21140,560000,3,2.0,SYLVAN SHORES,1304,9450,1951,997,429,,Sold,,,https://www.redfin.com/MD/Riva/222-Park-Rd-21140/home/10068655,BRIGHT MLS,MDAA100944,N,Y,38.9567231,-76.5815725
PAST SALE,April-30-2021,Single Family Residential,375 Berkshire Dr,Riva,MD,21140,750000,4,3.5,BERKSHIRE,3190,15132,1984,219,235,23,Sold,,,https://www.redfin.com/MD/Riva/375-Berkshire-Dr-21140/home/9865085,BRIGHT MLS,MDAA461994,N,Y,38.9465582,-76.5798196
PAST SALE,September-30-2021,Single Family Residential,2746 Hambleton Rd,Riva,MD,21140,1099999,4,4.5,HAMBLETON ESTATES,3804,44358,2007,66,289,,Sold,,,https://www.redfin.com/MD/Riva/2746-Hambleton-Rd-21140/home/10008965,BRIGHT MLS,MDAA2001572,N,Y,38.9571755,-76.5856885
PAST SALE,October-25-2019,Single Family Residential,2760 Riverview Dr,Riva,MD,21140,392000,3,2.0,GLEN ISLE,1540,16269,1950,772,255,29,Sold,,,https://www.redfin.com/MD/Riva/2760-Riverview-Dr-21140/home/10004305,BRIGHT MLS,MDAA399414,N,Y,38.9552484,-76.5936018
PAST SALE,April-10-2020,Single Family Residential,3068 Tudor Hall Rd,Riva,MD,21140,475000,4,2.5,SOUTH RIVER HEIGHTS,2438,12532,1998,604,195,,Sold,,,https://www.redfin.com/MD/Riva/3068-Tudor-Hall-Rd-21140/home/9896018,BRIGHT MLS,MDAA422608,N,Y,38.9505337,-76.5777482
PAST SALE,June-29-2021,Single Family Residential,342 Brunswick Pl,Riva,MD,21140,650000,3,2.0,ANNAPOLIS LANDING,2044,15000,1982,159,318,33,Sold,,,https://www.redfin.com/MD/Riva/342-Brunswick-Pl-21140/home/9861260,BRIGHT MLS,MDAA468088,N,Y,38.9480359,-76.5887131
PAST SALE,April-8-2019,Single Family Residential,210 Grisdale Hl,Riva,MD,21140,550000,4,2.5,ANNAPOLIS LANDING,2676,10000,1980,972,206,28,Sold,,,https://www.redfin.com/MD/Riva/210-Grisdale-Hl-21140/home/9861409,BRIGHT MLS,MDAA302610,N,Y,38.9476569,-76.5854628
PAST SALE,,Single Family Residential,3324 Breckenridge Way,Riva,MD,21140,1275000,,4.5,,5342,77101,2000,,239,,,,,https://www.redfin.com/MD/Riva/3324-Breckenridge-Way-21140/home/9052734,,,N,Y,38.9394267,-76.5822124
PAST SALE,April-7-2021,Townhouse,1280 Breckenridge Cir,Riva,MD,21140,424900,3,1.5,WATERFORD,1704,1760,1994,242,249,70,Sold,,,https://www.redfin.com/MD/Riva/1280-Breckenridge-Cir-21140/home/9863285,BRIGHT MLS,MDAA460450,N,Y,38.945355,-76.59081
PAST SALE,June-15-2020,Single Family Residential,2712 Pinecrest Dr,Riva,MD,21140,449000,3,3.0,GLEN ISLE,1709,29283,1930,538,263,29,Sold,,,https://www.redfin.com/MD/Riva/2712-Pinecrest-Dr-21140/home/10004229,BRIGHT MLS,MDAA428288,N,Y,38.9590667,-76.5898868
PAST SALE,November-17-2021,Single Family Residential,3234 Breckenridge Way,Riva,MD,21140,720000,4,3.5,WATERFORD,2966,23522,1996,18,243,39,Sold,,,https://www.redfin.com/MD/Riva/3234-Breckenridge-Way-21140/home/9862959,BRIGHT MLS,MDAA2014708,N,Y,38.9457393,-76.5872234
PAST SALE,April-29-2019,Townhouse,1286 Breckenridge Cir,Riva,MD,21140,370600,3,2.5,AISQUITH FARMS,2036,1760,1994,951,182,58,Sold,,,https://www.redfin.com/MD/Riva/1286-Breckenridge-Cir-21140/home/9863267,BRIGHT MLS,MDAA375878,N,Y,38.945234,-76.590496
PAST SALE,May-28-2021,Single Family Residential,3203 Douglas Point Ct,Riva,MD,21140,849000,4,4.0,HAMBLETON ESTATES,4804,48787,1996,191,177,,Sold,,,https://www.redfin.com/MD/Riva/3203-Douglas-Point-Ct-21140/home/10009036,BRIGHT MLS,MDAA459046,N,Y,38.9513891,-76.5916319
PAST SALE,November-13-2020,Single Family Residential,2700 Pinecrest Dr,Riva,MD,21140,1090000,4,4.0,GLEN ISLE,3750,15750,1972,387,291,29,Sold,,,https://www.redfin.com/MD/Riva/2700-Pinecrest-Dr-21140/home/10004377,BRIGHT MLS,MDAA443388,N,Y,38.9598198,-76.5889614
PAST SALE,December-29-2020,Single Family Residential,2745 Riverview Dr,Riva,MD,21140,345000,3,2.0,GLEN ISLE,1427,22099,1973,341,242,,Sold,,,https://www.redfin.com/MD/Riva/2745-Riverview-Dr-21140/home/10004475,BRIGHT MLS,MDAA454768,N,Y,38.955975,-76.5930769
PAST SALE,July-13-2021,Single Family Residential,2710 Parkview Dr,Riva,MD,21140,615000,3,3.0,GLEN ISLE,2824,23718,1996,145,218,31,Sold,,,https://www.redfin.com/MD/Riva/2710-Parkview-Dr-21140/home/10004252,BRIGHT MLS,MDAA468122,N,Y,38.9586902,-76.5914668
PAST SALE,July-17-2020,Single Family Residential,543 Fern Rd,Riva,MD,21140,630000,4,2.5,SYLVAN SHORES & FOREST A,3100,10006,2019,506,203,,Sold,,,https://www.redfin.com/MD/Riva/543-Fern-Rd-21140/home/145566254,BRIGHT MLS,MDAA417050,N,Y,38.9489351,-76.5800171
PAST SALE,November-17-2021,Single Family Residential,3067-A Riverview Rd,Riva,MD,21140,530000,4,2.5,SOUTH RIVER HEIGHTS,1856,10000,1980,18,286,,Sold,,,https://www.redfin.com/MD/Riva/3067-Riverview-Dr-21140/home/9895949,BRIGHT MLS,MDAA2000789,N,Y,38.951292,-76.574824
PAST SALE,May-27-2019,Single Family Residential,362 Westbury Dr,Riva,MD,21140,640000,4,3.5,ANNAPOLIS LANDING,3224,10000,1985,923,199,33,Sold,,,https://www.redfin.com/MD/Riva/362-Westbury-Dr-21140/home/9862286,BRIGHT MLS,MDAA402520,N,Y,38.9440336,-76.5804968
PAST SALE,June-25-2021,Single Family Residential,351 Berkshire Dr,Riva,MD,21140,1500000,4,3.0,STAFFORD ESTATES,3926,15089,1988,163,382,83,Sold,,,https://www.redfin.com/MD/Riva/351-Berkshire-Dr-21140/home/9888515,BRIGHT MLS,MDAA464386,N,Y,38.9446526,-76.5775623
PAST SALE,September-1-2021,Single Family Residential,38 Shore Walk Rd,Riva,MD,21140,960000,3,3.0,SYLVAN SHORES,1856,2760,1996,95,517,,Sold,,,https://www.redfin.com/MD/Riva/38-Shorewalk-Rd-21140/home/10068670,BRIGHT MLS,MDAA2003800,N,Y,38.954509,-76.580113
PAST SALE,,Single Family Residential,509 Sweet Gum Rd,Riva,MD,21140,165000,2,1.0,,712,13500,1940,,232,,,,,https://www.redfin.com/MD/Riva/509-Sweet-Gum-Rd-21140/home/9895414,,,N,Y,38.9506404,-76.5802938
PAST SALE,August-7-2019,Single Family Residential,3069 Riverview Rd,Riva,MD,21140,600000,4,2.5,SOUTH RIVER HEIGHTS,1856,9300,1980,851,323,,Sold,,,https://www.redfin.com/MD/Riva/3069-Riverview-Dr-21140/home/9895956,BRIGHT MLS,MDAA400890,N,Y,38.951187,-76.574689
PAST SALE,October-16-2020,Single Family Residential,3067 Tudor Hall Rd,Riva,MD,21140,485000,3,2.0,SOUTH RIVER HEIGHTS,2041,21700,1963,415,238,,Sold,,,https://www.redfin.com/MD/Riva/3067-Tudor-Hall-Rd-21140/home/9895805,BRIGHT MLS,MDAA442556,N,Y,38.950895,-76.577342
PAST SALE,August-14-2020,Single Family Residential,3062 Tudor Hall Rd,Riva,MD,21140,484900,4,3.5,SOUTH RIVER HEIGHTS,2629,19315,2000,478,184,,Sold,,,https://www.redfin.com/MD/Riva/3062-Tudor-Hall-Rd-21140/home/9896035,BRIGHT MLS,MDAA439630,N,Y,38.9508282,-76.5779686
PAST SALE,November-5-2020,Single Family Residential,3092 Tudor Hall Rd,Riva,MD,21140,859900,4,3.0,SOUTH RIVER HEIGHTS,2112,14000,1961,395,407,,Sold,,,https://www.redfin.com/MD/Riva/3092-Tudor-Hall-Rd-21140/home/9895871,BRIGHT MLS,MDAA444414,N,Y,38.9493048,-76.5757728
PAST SALE,October-5-2020,Single Family Residential,3071 Riverview Rd,Riva,MD,21140,710000,4,2.5,SOUTH RIVER HEIGHTS,1856,8700,1980,426,383,,Sold,,,https://www.redfin.com/MD/Riva/3071-Riverview-Dr-21140/home/9895962,BRIGHT MLS,MDAA440812,N,Y,38.951082,-76.574554
PAST SALE,October-16-2020,Single Family Residential,506 Tulip Rd,Riva,MD,21140,400000,4,2.0,SYLVAN SHORES & FOREST A,1520,5852,1987,415,263,,Sold,,,https://www.redfin.com/MD/Riva/506-Tulip-Rd-21140/home/9895615,BRIGHT MLS,MDAA444026,N,Y,38.9509251,-76.5791425
PAST SALE,February-28-2019,Single Family Residential,502 Hoot Owl Rd,Riva,MD,21140,395000,4,2.5,SYLVAN SHORES & FOREST A,2216,10475,1986,1011,178,2,Sold,,,https://www.redfin.com/MD/Riva/502-Hoot-Owl-Rd-21140/home/9895640,BRIGHT MLS,1003240934,N,Y,38.9497625,-76.5798196
PAST SALE,September-25-2019,Single Family Residential,3057 Centre Rd,Riva,MD,21140,575000,5,4.0,SOUTH RIVER HEIGHTS,2220,18750,1962,802,259,,Sold,,,https://www.redfin.com/MD/Riva/3057-Centre-Rd-21140/home/9896070,BRIGHT MLS,MDAA409128,N,Y,38.9517116,-76.5766142
PAST SALE,,Townhouse,1374 Escapade Ct,Riva,MD,21140,450000,,2.5,,2548,2400,1997,,177,,,,,https://www.redfin.com/MD/Riva/1374-Escapade-Ct-21140/home/9863728,,,N,Y,38.941794,-76.588004
PAST SALE,,Single Family Residential,570 Poplar Dr,Riva,MD,21140,452500,,2.5,,2110,6000,1977,,214,,,,,https://www.redfin.com/MD/Riva/570-Poplar-Dr-21140/home/10003763,,,N,Y,38.9557213,-76.5914217
PAST SALE,January-30-2019,Single Family Residential,253 Cosworth Ct,Riva,MD,21140,605000,4,2.5,ANNAPOLIS LANDING,2604,10682,1987,1040,232,33,Sold,,,https://www.redfin.com/MD/Riva/253-Cosworth-Ct-21140/home/9862039,BRIGHT MLS,1008105358,N,Y,38.9444674,-76.5845599
