SALE TYPE,SOLD DATE,PROPERTY TYPE,ADDRESS,CITY,STATE OR PROVINCE,ZIP OR POSTAL CODE,PRICE,BEDS,BATHS,LOCATION,SQUARE FEET,LOT SIZE,YEAR BUILT,DAYS ON MARKET,$/SQUARE FEET,HOA/MONTH,STATUS,NEXT OPEN HOUSE START TIME,NEXT OPEN HOUSE END TIME,URL (SEE https://www.redfin.com/buy-a-home/comparative-market-analysis FOR INFO ON PRICING),SOURCE,MLS#,FAVORITE,INTERESTED,LATITUDE,LONGITUDE
PAST SALE,July-1-2019,Single Family Residential,4276 Sawmill Rd,Jeffersonton,VA,22724,439900,4,3.5,DEERFIELD,2988,437778,1988,887,147,33,Sold,,,https://www.redfin.com/VA/Jeffersonton/4276-Sawmill-Rd-22724/home/15503198,BRIGHT MLS,VACU138510,N,Y,38.6463559,-77.9404226
PAST SALE,June-24-2021,Single Family Residential,6735 Tapps Ford Rd,Amissville,VA,20106,330000,4,2.0,FAUQUIER,2784,43908,1985,163,119,,Sold,,,https://www.redfin.com/VA/Amissville/6735-Tapps-Ford-Rd-20106/home/15536797,BRIGHT MLS,VAFQ169774,N,Y,38.75329,-78.0076538
MLS Listing,,Single Family Residential,13130 Crest Hill Rd,Flint Hill,VA,22627,1200000,2,2.5,Flint Hill,2900,544500,1850,3,414,,Active,,,https://www.redfin.com/VA/Flint-Hill/13130-Crest-Hill-Rd-22627/home/15561824,BRIGHT MLS,VARP2000272,N,Y,38.7556041,-78.0355543
MLS Listing,,Single Family Residential,1336 Nelson Ln,Amissville,VA,20106,619000,4,3.0,WATERLOO WOODS,2872,137214,1983,6,216,14,Active,,,https://www.redfin.com/VA/Amissville/1336-Nelson-Ln-20106/home/15504660,BRIGHT MLS,VACU2001314,N,Y,38.6823149,-77.9240881
MLS Listing,,Vacant Land,Lot 12E Rock Spgs,Amissville,VA,20106,285000,,,Amissville,,1089000,,10,,,Active,,,https://www.redfin.com/VA/Amissville/12-Rock-Springs-Ln-20106/home/174860363,BRIGHT MLS,VARP2000290,N,Y,38.7127982,-78.0241226
MLS Listing,,Single Family Residential,2664 Wildwood Cir,Amissville,VA,20106,535000,5,3.5,WILDWOOD FOREST,3319,67518,1998,19,161,,Active,,,https://www.redfin.com/VA/Amissville/2664-Wildwood-Cir-20106/home/15504264,BRIGHT MLS,VACU2001330,N,Y,38.6645783,-77.9746943
MLS Listing,,Vacant Land,Latham Ln,Amissville,VA,20106,160000,,,Amissville,,93218,,23,,,Active,,,https://www.redfin.com/VA/Unknown/Latham-Ln-20106/home/177166915,BRIGHT MLS,VACU2001324,N,Y,38.64090346,-78.00037364
MLS Listing,,Vacant Land,Richmond Rd,Amissville,VA,20106,2000000,,,Amissville,,7258403,,36,,,Active,,,https://www.redfin.com/VA/Amissville/Richmond-Rd-20106/home/143698722,BRIGHT MLS,VARP107962,N,Y,38.65212822,-78.07084453
MLS Listing,,Vacant Land,LOT 5 Cool Springs Ct,Culpeper,VA,22701,169900,,,Culpeper,,393610,,52,,,Active,,,https://www.redfin.com/VA/Culpeper/LOT-5-Cool-Springs-CT-22701/home/176717504,BRIGHT MLS,VACU2000065,N,Y,38.66519812,-77.95288291
MLS Listing,,Vacant Land,LOT 4 Cool Springs Ct,Culpeper,VA,22701,169900,,,Culpeper,,490216,,52,,,Active,,,https://www.redfin.com/VA/Culpeper/LOT-4-Cool-Springs-CT-22701/home/176717128,BRIGHT MLS,VACU2000063,N,Y,38.66424311,-77.95375732
MLS Listing,,Single Family Residential,1 Lantern Ln,Amissville,VA,20106,618000,3,2.0,Amissville,1400,217800,2022,74,441,,Active,,,https://www.redfin.com/VA/Amissville/1-Lantern-Ln-20106/home/176492073,BRIGHT MLS,VACU2001036,N,Y,38.6374348,-78.0246436
MLS Listing,,Single Family Residential,485 Old Bridge Rd,Amissville,VA,20106,990000,4,3.0,WATERLOO,3377,412949,1973,86,293,,Active,,,https://www.redfin.com/VA/Amissville/485-Old-Bridge-Rd-20106/home/176474858,BRIGHT MLS,VACU2000920,N,Y,38.6909568,-77.9081813
MLS Listing,,Single Family Residential,600 Richmond Rd,Amissville,VA,20106,1100000,4,3.5,Amissville,3854,1303829,2005,87,285,,Active,,,https://www.redfin.com/VA/Amissville/600-Richmond-Rd-20106/home/15561252,BRIGHT MLS,VARP2000172,N,Y,38.6480469,-78.0631267
MLS Listing,,Single Family Residential,60 Woodland Vale Ln,Amissville,VA,20106,325000,1,1.0,METES & BOUNDS,900,871200,2010,87,361,,Active,,,https://www.redfin.com/VA/Amissville/60-Woodland-Vale-Ln-20106/home/145952295,BRIGHT MLS,VARP2000144,N,Y,38.7362228,-78.039372
MLS Listing,,Single Family Residential,487 Old Bridge Rd,Amissville,VA,20106,990000,4,3.0,WATERLOO,3377,412949,1973,88,293,,Active,,,https://www.redfin.com/VA/Amissville/487-Old-Bridge-Rd-20106/home/15505727,BRIGHT MLS,VACU2000818,N,Y,38.690277,-77.913325
MLS Listing,,Single Family Residential,Lantern Ln,Amissville,VA,20106,797288,3,2.5,Amissville,2083,217800,2022,123,383,,Active,,,https://www.redfin.com/VA/AMISSVILLE/LANTERN-LN-20106/home/112528065,BRIGHT MLS,VACU2000604,N,Y,38.6363,-78.025587
MLS Listing,,Single Family Residential,60 Thorns Mill Run Ln,Amissville,VA,20106,1199900,2,2.0,SOUTH POES,1900,2570911,1980,127,632,,Active,,,https://www.redfin.com/VA/Amissville/60-Thorns-Mill-Run-Ln-20106/home/162488058,BRIGHT MLS,VARP2000104,N,Y,38.7219055,-78.0218679
MLS Listing,,Vacant Land,LOT 5 Korea Rd,Amissville,VA,20106,145000,,,Amissville,,285753,,135,,,Active,,,https://www.redfin.com/VA/Amissville/LOT-5-Korea-Rd-20106/home/175795708,BRIGHT MLS,VACU2000508,N,Y,38.62989675,-78.00458532
MLS Listing,,Single Family Residential,11612 Putnams Mill Rd,Hume,VA,22639,2000000,4,3.5,Hume,4433,871200,1989,163,451,,Active,,,https://www.redfin.com/VA/Hume/11612-Putnams-Mill-Rd-22639/home/162572955,BRIGHT MLS,VAFQ2000228,N,Y,38.774901,-77.995846
MLS Listing,,Vacant Land,1 Colvin,Amissville,VA,20106,150000,,,Amissville,,87120,,196,,,Active,,,https://www.redfin.com/VA/Unknown/1-Mort-Colvin-Ln-20106/home/175530752,BRIGHT MLS,VACU144614,N,Y,38.66750119,-77.95588542
MLS Listing,,Vacant Land,2 Colvin,Amissville,VA,20106,150000,,,Amissville,,164221,,196,,,Active,,,https://www.redfin.com/VA/Amissville/2-Colvin-Rd-20106/home/175173702,BRIGHT MLS,VACU144612,N,Y,38.66784464,-77.95618583
MLS Listing,,Single Family Residential,80 Narmada Ln,Amissville,VA,20106,6000000,4,5.0,Amissville,5738,2221560,2004,306,1046,,Active,,,https://www.redfin.com/VA/Amissville/80-Narmada-Ln-20106/home/162488370,BRIGHT MLS,VARP107770,N,Y,38.6947665,-78.0246669
MLS Listing,,Single Family Residential,43 Narmada Ln,Amissville,VA,20106,6000000,4,5.0,Amissville,9662,2221560,2004,313,621,,Active,,,https://www.redfin.com/VA/Amissville/43-Narmada-Ln-20106/home/174288508,BRIGHT MLS,VARP107760,N,Y,38.69141,-78.0253179
MLS Listing,,Vacant Land,0 General Longstreet Ave Woodland Church Ave,Culpeper,VA,22701,64900,,,Culpeper,,87120,,462,,,Active,,,https://www.redfin.com/VA/Catalpa/0-General-Longstreet-Ave-Woodland-Church-Rd-22701/home/172988641,BRIGHT MLS,VACU142392,N,Y,38.65837609,-78.05568594
MLS Listing,,Vacant Land,17310 Lee Hwy,Amissville,VA,20106,950000,,,Amissville,,592416,,3329,,,Active,,,https://www.redfin.com/VA/Amissville/17310-Lee-Hwy-20106/home/15511732,BRIGHT MLS,1000140465,N,Y,38.673058,-77.929733
PAST SALE,June-28-2019,Single Family Residential,15671 Covey Cir,Amissville,VA,20106,375750,3,2.0,QUAIL RIDGE,1815,178160,1999,890,207,,Sold,,,https://www.redfin.com/VA/Amissville/15671-Covey-Cir-20106/home/15503770,BRIGHT MLS,VACU138306,N,Y,38.6531379,-77.9613504
PAST SALE,June-30-2020,Single Family Residential,4440 Labrador Ct,Amissville,VA,20106,399900,3,3.0,QUAIL RIDGE,2653,133729,1994,522,151,,Sold,,,https://www.redfin.com/VA/Amissville/4440-Labrador-Ct-20106/home/15503498,BRIGHT MLS,VACU141448,N,Y,38.6377511,-77.9609489
PAST SALE,January-15-2019,Single Family Residential,16134 Quail Ridge Dr,Amissville,VA,20106,375000,4,2.5,QUAIL RIDGE,3200,97574,1994,1054,117,,Sold,,,https://www.redfin.com/VA/Amissville/16134-Quail-Ridge-Dr-20106/home/15503492,BRIGHT MLS,VACU100080,N,Y,38.6387045,-77.9538097
PAST SALE,May-27-2020,Single Family Residential,15419 Covey Cir,Amissville,VA,20106,470000,4,3.5,QUAIL RIDGE,2812,303613,2000,556,167,,Sold,,,https://www.redfin.com/VA/Amissville/15419-Covey-Cir-20106/home/15503472,BRIGHT MLS,VACU141210,N,Y,38.6473625,-77.9675521
PAST SALE,October-17-2019,Single Family Residential,15260 Quail Ridge Dr,Amissville,VA,20106,310000,3,2.5,QUAIL RIDGE,2012,43560,1994,779,154,,Sold,,,https://www.redfin.com/VA/Amissville/15260-Quail-Ridge-Dr-20106/home/15503461,BRIGHT MLS,VACU138420,N,Y,38.6449399,-77.9702736
PAST SALE,May-20-2019,Single Family Residential,3251 Running Quail Trl,Amissville,VA,20106,345000,3,3.0,QUAIL RIDGE,2372,80150,1998,929,145,,Sold,,,https://www.redfin.com/VA/Amissville/3251-Running-Quail-Trl-20106/home/15503788,BRIGHT MLS,VACU135838,N,Y,38.6566226,-77.9572009
PAST SALE,December-21-2018,Single Family Residential,15505 Quail Ridge Dr,Amissville,VA,20106,318000,3,2.0,QUAIL RIDGE,1508,76666,1993,1079,211,,Sold,,,https://www.redfin.com/VA/Amissville/15505-Quail-Ridge-Dr-20106/home/15503480,BRIGHT MLS,1008344256,N,Y,38.6416958,-77.9623766
PAST SALE,July-28-2021,Single Family Residential,4224 S Hen Bird Ct,Amissville,VA,20106,510000,4,2.5,QUAIL RIDGE,2374,143748,2003,129,215,,Sold,,,https://www.redfin.com/VA/Amissville/4224-S-Hen-Bird-Ct-20106/home/15502946,BRIGHT MLS,VACU144776,N,Y,38.6428669,-77.9623766
PAST SALE,October-24-2019,Single Family Residential,4274 Running Quail Trl,Amissville,VA,20106,470000,3,3.5,QUAIL RIDGE,3397,328442,1995,772,138,,Sold,,,https://www.redfin.com/VA/Amissville/4274-Running-Quail-Trl-20106/home/15503486,BRIGHT MLS,VACU139608,N,Y,38.6417267,-77.9570447
PAST SALE,April-23-2020,Single Family Residential,4117 Running Quail Trl,Amissville,VA,20106,453000,4,3.5,QUAIL RIDGE,3299,98446,1995,590,137,,Sold,,,https://www.redfin.com/VA/Amissville/4117-Running-Quail-Trl-20106/home/15503843,BRIGHT MLS,VACU139616,N,Y,38.6461076,-77.9562639
PAST SALE,November-10-2020,Single Family Residential,15349 Bob White Trl,Amissville,VA,20106,360000,3,2.0,QUAIL RIDGE,1267,104980,2000,389,284,,Sold,,,https://www.redfin.com/VA/Amissville/15349-Bob-White-Trl-20106/home/15503826,BRIGHT MLS,VACU142766,N,Y,38.6465226,-77.9633582
PAST SALE,April-12-2019,Single Family Residential,15386 Pheasant Ct,Amissville,VA,20106,384000,3,2.5,QUAIL RIDGE,1984,151589,2001,967,194,,Sold,,,https://www.redfin.com/VA/Amissville/15386-Pheasant-Ct-20106/home/15503822,BRIGHT MLS,1009920704,N,Y,38.6484906,-77.9628674
PAST SALE,March-27-2020,Single Family Residential,15447 Pheasant Ct,Amissville,VA,20106,395000,3,2.5,QUAIL RIDGE,2206,86249,2000,617,179,,Sold,,,https://www.redfin.com/VA/Amissville/15447-Pheasant-Ct-20106/home/15503817,BRIGHT MLS,VACU140706,N,Y,38.6489608,-77.9600119
PAST SALE,November-13-2020,Single Family Residential,14282 Ashlyn Ln,Amissville,VA,20106,550000,4,2.5,HARTZ CONSTRUCTION CO,3744,449104,2005,386,147,,Sold,,,https://www.redfin.com/VA/Amissville/14282-Ashlyn-Ln-20106/home/15500708,BRIGHT MLS,VACU142388,N,Y,38.6492984,-77.9857982
PAST SALE,March-30-2020,Single Family Residential,14095 Ashlyn Ln,Amissville,VA,20106,430000,4,2.5,HARTZ CONSTRUCTION CO,3252,220414,1998,614,132,,Sold,,,https://www.redfin.com/VA/Amissville/14095-Ashlyn-Ln-20106/home/15503426,BRIGHT MLS,VACU139804,N,Y,38.653514,-77.9908559
PAST SALE,,Single Family Residential,17080 Country Creek Ln,Amissville,VA,20106,415000,3,2.0,,1814,722660,1979,,229,,,,,https://www.redfin.com/VA/Amissville/17080-Country-Creek-Ln-20106/home/143939891,,,N,Y,38.6486762,-77.939923
PAST SALE,June-25-2020,Vacant Land,Black Hill Rd,Rixeyville,VA,22737,150000,,,Rixeyville,,871200,,527,,,Sold,,,https://www.redfin.com/VA/RIXEYVILLE/BLACK-HILL-RD-22737/home/15514205,BRIGHT MLS,VACU141438,N,Y,38.637532,-77.951012
PAST SALE,January-3-2019,Single Family Residential,16417 Tonys Ct,Amissville,VA,20106,426245,3,2.0,WEST JEFFERSON,1761,47916,2018,1066,242,,Sold,,,https://www.redfin.com/VA/Amissville/16417-Rte-787-20106/home/160808740,BRIGHT MLS,1004302481,N,Y,38.662052,-77.9444876
PAST SALE,May-1-2019,Single Family Residential,16405 Deerfield Ln,Jeffersonton,VA,22724,454000,3,3.0,DEERFIELD,3399,436036,1983,948,134,33,Sold,,,https://www.redfin.com/VA/Jeffersonton/16405-Deerfield-Ln-22724/home/15503194,BRIGHT MLS,VACU135010,N,Y,38.644138,-77.9474287
PAST SALE,April-6-2020,Single Family Residential,16335 Deerfield Ln,Jeffersonton,VA,22724,425000,3,2.0,DEERFIELD,2050,436036,1987,607,207,33,Sold,,,https://www.redfin.com/VA/Jeffersonton/16335-Deerfield-Ln-22724/home/15503389,BRIGHT MLS,VACU140750,N,Y,38.6421839,-77.9480535
PAST SALE,December-6-2019,Single Family Residential,3290 Jefferson Woods Ln,Amissville,VA,20106,340000,4,3.0,JEFFERSON WOODS,3341,435600,1992,729,102,,Sold,,,https://www.redfin.com/VA/Amissville/3290-Jefferson-Woods-Ln-20106/home/15503038,BRIGHT MLS,VACU139074,N,Y,38.6559938,-77.9544567
PAST SALE,December-27-2019,Single Family Residential,3109 Colvin Rd,Amissville,VA,20106,285000,3,2.0,WEST JEFFERSON,1369,97139,1983,708,208,,Sold,,,https://www.redfin.com/VA/Amissville/3109-Colvin-Rd-20106/home/15503193,BRIGHT MLS,VACU140046,N,Y,38.6617345,-77.9429998
PAST SALE,September-15-2020,Single Family Residential,2504 Somerset Dr,Jeffersonton,VA,22724,465000,3,3.5,SOUTH WALES,3694,43560,1996,445,126,,Sold,,,https://www.redfin.com/VA/Jeffersonton/2504-Somerset-Dr-22724/home/15503911,BRIGHT MLS,VACU143636,N,Y,38.6632336,-77.9348218
PAST SALE,November-30-2020,Single Family Residential,3016 Somerset Dr,Jeffersonton,VA,22724,516000,4,3.5,SOUTH WALES,4059,43560,1998,369,127,53,Sold,,,https://www.redfin.com/VA/Jeffersonton/3016-Somerset-Dr-22724/home/15503910,BRIGHT MLS,VACU142702,N,Y,38.6627453,-77.934978
PAST SALE,October-15-2019,Single Family Residential,2414 Somerset Dr,Jeffersonton,VA,22724,375000,4,2.5,SOUTH WALES,3677,56192,1998,781,102,53,Sold,,,https://www.redfin.com/VA/Jeffersonton/2414-Somerset-Dr-22724/home/15504204,BRIGHT MLS,VACU139202,N,Y,38.6652613,-77.9349111
PAST SALE,November-16-2020,Single Family Residential,2156 Somerset Dr,Jeffersonton,VA,22724,525000,5,3.5,SOUTH WALES,3438,51836,2001,383,153,53,Sold,,,https://www.redfin.com/VA/Jeffersonton/2156-Somerset-Dr-22724/home/15502998,BRIGHT MLS,VACU142610,N,Y,38.6704291,-77.9316308
PAST SALE,June-28-2021,Single Family Residential,2214 Somerset,Jeffersonton,VA,22724,540000,4,2.5,SOUTH WALES,3136,48352,2001,159,172,53,Sold,,,https://www.redfin.com/VA/Jeffersonton/2214-Somerset-Dr-22724/home/15503008,BRIGHT MLS,VACU144466,N,Y,38.6698794,-77.9333268
PAST SALE,August-26-2019,Single Family Residential,2300 Somerset Dr,Jeffersonton,VA,22724,450000,5,2.5,SOUTH WALES,4063,56628,2001,831,111,53,Sold,,,https://www.redfin.com/VA/Jeffersonton/2300-Somerset-Dr-22724/home/15503166,BRIGHT MLS,VACU139110,N,Y,38.6684163,-77.9353711
PAST SALE,August-24-2021,Single Family Residential,17165 Stoneleigh Pl,Jeffersonton,VA,22724,580000,4,2.5,SOUTH WALES,3032,47480,2000,102,191,53,Sold,,,https://www.redfin.com/VA/Jeffersonton/17165-Stoneleigh-Pl-22724/home/15503165,BRIGHT MLS,VACU2000342,N,Y,38.6675862,-77.9353351
PAST SALE,July-7-2021,Single Family Residential,17204 Tattershall Way,Jeffersonton,VA,22724,617000,4,4.0,SOUTH WALES,4898,43560,2001,150,126,53,Sold,,,https://www.redfin.com/VA/Jeffersonton/17204-Tattershall-Way-22724/home/15502985,BRIGHT MLS,VACU144534,N,Y,38.6689476,-77.9350757
PAST SALE,May-7-2021,Single Family Residential,3184 Somerset Dr,Jeffersonton,VA,22724,610000,5,4.5,SOUTH WALES,5740,43560,2001,211,106,50,Sold,,,https://www.redfin.com/VA/Jeffersonton/3184-Somerset-Dr-22724/home/15503151,BRIGHT MLS,VACU144110,N,Y,38.6587607,-77.9381913
PAST SALE,June-15-2020,Single Family Residential,3216 Somerset Dr,Jeffersonton,VA,22724,529900,4,3.5,SOUTH WALES,4392,43560,2001,537,121,53,Sold,,,https://www.redfin.com/VA/Jeffersonton/3216-Somerset-Dr-22724/home/15502982,BRIGHT MLS,VACU141058,N,Y,38.6580045,-77.9386822
PAST SALE,November-3-2020,Single Family Residential,2296 Alamance Dr,Amissville,VA,20106,495000,4,3.5,WOODBOURNE ESTATES,3883,87991,2001,396,127,,Sold,,,https://www.redfin.com/VA/Amissville/2296-Alamance-Dr-20106/home/15503738,BRIGHT MLS,VACU142336,N,Y,38.6686234,-77.9452868
PAST SALE,June-7-2019,Single Family Residential,2360 Alamance Dr,Amissville,VA,20106,425000,3,2.5,WOODBOURNE ESTATES,2568,93654,2001,911,165,,Sold,,,https://www.redfin.com/VA/Amissville/2360-Alamance-Dr-20106/home/15504160,BRIGHT MLS,VACU138286,N,Y,38.6670692,-77.9458669
PAST SALE,March-15-2019,Single Family Residential,2376 Atkins Trail Ln,Amissville,VA,20106,405000,3,3.0,WOODBOURNE ESTATES,3456,217800,2002,995,117,,Sold,,,https://www.redfin.com/VA/Amissville/2376-Atkins-Trail-Ln-20106/home/15502099,BRIGHT MLS,VACU119964,N,Y,38.666306,-77.9420291
PAST SALE,November-7-2019,Single Family Residential,16245 Wellborn Ct,Amissville,VA,20106,445000,5,3.5,WOODBOURNE ESTATES,4001,89734,2001,758,111,,Sold,,,https://www.redfin.com/VA/Amissville/16245-Wellborn-Ct-20106/home/15504150,BRIGHT MLS,VACU139392,N,Y,38.6676769,-77.9501507
PAST SALE,February-11-2019,Single Family Residential,662 Battle Mountain Rd,Amissville,VA,20106,339000,3,2.0,Amissville,3376,304920,1967,1027,100,,Sold,,,https://www.redfin.com/VA/Amissville/662-Battle-Mountain-Rd-20106/home/15558234,BRIGHT MLS,1008356704,N,Y,38.6671051,-78.04878
PAST SALE,May-6-2021,Single Family Residential,12064 Deerfield Ln Deerfield Ln,Marshall,VA,20115,450000,3,2.0,Marshall,2184,132806,1998,212,206,,Sold,,,https://www.redfin.com/VA/Marshall/12064-Deerfield-Ln-Deerfield-LN-20115/home/174876849,BRIGHT MLS,VAFQ169704,N,Y,38.7627,-78.00019
PAST SALE,August-25-2020,Vacant Land,0 Grimsley Rd,Flint Hill,VA,22627,125000,,,Flint Hill,,465656,,466,,,Sold,,,https://www.redfin.com/VA/Huntly/Grimsley-Rd-22627/home/147023538,BRIGHT MLS,VARP106952,N,Y,38.75386848,-78.04982711
PAST SALE,October-4-2019,Single Family Residential,117 Shurgen Ln,Amissville,VA,20106,600000,4,3.0,Amissville,3108,1524600,1987,792,193,,Sold,,,https://www.redfin.com/VA/Amissville/117-Shurgen-Ln-20106/home/143211627,BRIGHT MLS,1000652322,N,Y,38.7273097,-78.0448218
PAST SALE,May-7-2019,Vacant Land,Rollins Ford Rd,Amissville,VA,20106,190000,,,Amissville,,2010542,,942,,,Sold,,,https://www.redfin.com/VA/Jackson/Rollins-Ford-Rd-20106/home/17893939,BRIGHT MLS,1000113483,N,Y,38.67463,-77.96807
PAST SALE,July-19-2019,Single Family Residential,25 Battle Mountain Rd,Amissville,VA,20106,268000,3,3.0,AMISSVILLE,2472,123693,1976,869,108,,Sold,,,https://www.redfin.com/VA/Amissville/25-Battle-Mountain-Rd-20106/home/15561013,BRIGHT MLS,VARP106108,N,Y,38.64976,-78.0591
PAST SALE,,Single Family Residential,3309 Hunters Trail Dr,Amissville,VA,20106,355000,3,2.0,,2065,67082,2000,,172,,,,,https://www.redfin.com/VA/Amissville/3309-Hunters-Trail-Dr-20106/home/15503796,,,N,Y,38.6547566,-77.9598334
PAST SALE,September-15-2021,Vacant Land,Lee Hwy,Warrenton,VA,20186,200000,,,Warrenton,,109100,,80,,,Sold,,,https://www.redfin.com/VA/Warrenton/Lee-Hwy-Unknown/unit-0/home/166886436,BRIGHT MLS,VAFQ169838,N,Y,38.68066,-77.90709
PAST SALE,,Single Family Residential,2155 Oak Tree Ln,Amissville,VA,20106,299000,4,2.5,,1248,130680,1990,,240,,,,,https://www.redfin.com/VA/Amissville/2155-Oak-Tree-Ln-20106/home/15508774,,,N,Y,38.6721303,-77.9464024
PAST SALE,,Single Family Residential,1059 Dulin Dr,Amissville,VA,20106,330000,4,2.5,,2208,192100,1977,,149,,,,,https://www.redfin.com/VA/Amissville/1059-Dulin-Dr-20106/home/15508625,,,N,Y,38.6895237,-77.94252
PAST SALE,,Single Family Residential,2090 Leehigh Dr,Amissville,VA,20106,405000,3,2.0,,2391,87556,2000,,169,,,,,https://www.redfin.com/VA/Amissville/2090-Leehigh-Dr-20106/home/15504818,,,N,Y,38.6745841,-77.9453537
PAST SALE,November-17-2020,Single Family Residential,462 Riverside Dr,Amissville,VA,20106,350000,4,3.0,RIVERSIDE,1872,87556,1992,382,187,,Sold,,,https://www.redfin.com/VA/Amissville/462-Riverside-Dr-20106/home/15503073,BRIGHT MLS,VACU142770,N,Y,38.6916672,-77.9116347
PAST SALE,October-21-2021,Single Family Residential,414 Lake Dr,Amissville,VA,20106,416000,2,2.0,RAPPAHANNOCK LAKES,1326,19863,1950,44,314,29,Sold,,,https://www.redfin.com/VA/Amissville/414-Lake-Dr-20106/home/15559345,BRIGHT MLS,VARP2000192,N,Y,38.7171167,-78.0046959
PAST SALE,July-1-2019,Single Family Residential,4496 Waterford Rd,Amissville,VA,20106,250000,1,1.0,Amissville,704,568893,1933,887,355,,Sold,,,https://www.redfin.com/VA/Amissville/4496-Waterford-Rd-20106/home/15510111,BRIGHT MLS,VACU137966,N,Y,38.6360247,-77.9990577
PAST SALE,October-27-2021,Single Family Residential,1181 Kristin Ln,Amissville,VA,20106,375000,3,2.0,WATERLOO WOODS,1209,130680,1979,38,310,13,Sold,,,https://www.redfin.com/VA/Amissville/1181-Kristin-Ln-20106/home/15504637,BRIGHT MLS,VACU2001020,N,Y,38.685725,-77.92931
PAST SALE,October-13-2020,Vacant Land,50 Barrel House Ln,Amissville,VA,20106,175000,,,Amissville,,784080,,417,,,Sold,,,https://www.redfin.com/VA/Amissville/50-Barrel-House-Ln-20106/home/15559685,BRIGHT MLS,VARP107446,N,Y,38.7152617,-78.0026217
PAST SALE,May-18-2021,Single Family Residential,510 Marges Mountain Ln,Amissville,VA,20106,528101,2,1.5,RAPPAHANNOCK COUNTY,1414,566280,1987,200,373,,Sold,,,https://www.redfin.com/VA/Amissville/510-Marges-Mountain-Ln-20106/home/15559683,BRIGHT MLS,VARP107824,N,Y,38.7132462,-78.0047657
PAST SALE,May-28-2021,Single Family Residential,448 Hackleys Mill Rd,Amissville,VA,20106,335000,3,2.0,Amissville,1292,43560,1984,190,259,,Sold,,,https://www.redfin.com/VA/Amissville/448-Hackleys-Mill-Rd-20106/home/15559671,BRIGHT MLS,VARP107850,N,Y,38.717645,-78.0072865
PAST SALE,December-14-2018,Single Family Residential,509 Pine Cir,Amissville,VA,20106,190000,3,1.0,RAPPAHANNOCK LAKES,640,78408,1971,1086,297,29,Sold,,,https://www.redfin.com/VA/Amissville/509-Pine-Cir-20106/home/15559359,BRIGHT MLS,VARP100002,N,Y,38.718216,-78.005804
PAST SALE,February-13-2021,Single Family Residential,201 Rappahannock Cir,Amissville,VA,20106,51000,0,,RAPPAHANNOCK LAKES,,16752,1953,294,,21,Sold,,,https://www.redfin.com/VA/Amissville/201-Rappahannock-Cir-20106/home/15559332,BRIGHT MLS,VARP107718,N,Y,38.712485,-78.006612
PAST SALE,July-18-2019,Single Family Residential,71 Four Springs Ln,Amissville,VA,20106,284500,3,3.0,Amissville,2070,310147,1977,870,137,,Sold,,,https://www.redfin.com/VA/Amissville/71-Four-Springs-Rd-20106/home/15559307,BRIGHT MLS,VARP106650,N,Y,38.7378389,-78.027195
PAST SALE,June-25-2020,Single Family Residential,115 Rappahannock Dr,Amissville,VA,20106,275000,4,2.0,RAPPAHANNOCK LAKES,2112,18730,1980,527,130,21,Sold,,,https://www.redfin.com/VA/Amissville/115-Rappahannock-Dr-20106/home/15559327,BRIGHT MLS,VARP107172,N,Y,38.713142,-78.006867
PAST SALE,June-15-2021,Single Family Residential,306 Pine Dr,Amissville,VA,20106,370000,2,2.0,GREENWICH GARDENS,1120,20037,2006,172,330,23,Sold,,,https://www.redfin.com/VA/Amissville/306-Pine-Dr-20106/home/15558898,BRIGHT MLS,VARP107964,N,Y,38.7130483,-78.0060175
PAST SALE,December-31-2020,Single Family Residential,304 Pine Dr,Amissville,VA,20106,190000,2,1.0,Amissville,1296,,1973,338,147,21,Sold,,,https://www.redfin.com/VA/Amissville/304-Pine-Dr-20106/home/15558897,BRIGHT MLS,VARP107658,N,Y,38.7148769,-78.0057157
PAST SALE,April-13-2020,Single Family Residential,59 Cabin Ln,Amissville,VA,20106,551000,4,4.0,Amissville,2755,1360070,1999,600,200,,Sold,,,https://www.redfin.com/VA/Amissville/59-Cabin-Ln-20106/home/21909144,BRIGHT MLS,VARP107086,N,Y,38.6904127,-78.0310606
PAST SALE,August-23-2019,Single Family Residential,49 Jordans Rd,Amissville,VA,20106,350000,3,2.5,Amissville,1936,293594,1933,834,181,,Sold,,,https://www.redfin.com/VA/Amissville/49-Jordans-Rd-20106/home/15558682,BRIGHT MLS,VARP106620,N,Y,38.7029187,-78.0445835
PAST SALE,September-13-2019,Single Family Residential,75 Jordans Rd,Amissville,VA,20106,240000,2,1.0,Amissville,1952,208787,1929,813,123,,Sold,,,https://www.redfin.com/VA/Amissville/75-Jordans-Rd-20106/home/15558681,BRIGHT MLS,VARP101500,N,Y,38.7026272,-78.0448676
PAST SALE,December-21-2018,Single Family Residential,14408 Lee Hwy,Amissville,VA,20106,230000,3,2.0,Amissville,1850,413820,1990,1079,124,,Sold,,,https://www.redfin.com/VA/Amissville/14408-Lee-Hwy-20106/home/15560319,BRIGHT MLS,VARP100018,N,Y,38.6871198,-78.0217334
PAST SALE,October-8-2020,Single Family Residential,53 Jptsels Ln,Amissville,VA,20106,180000,2,1.0,Amissville,720,109335,1975,422,250,,Sold,,,https://www.redfin.com/VA/Amissville/53-Jptsels-Ln-20106/home/15502936,BRIGHT MLS,VARP107408,N,Y,38.6682238,-77.9990646
PAST SALE,,Mobile/Manufactured Home,10 Russell Ln,Amissville,VA,20106,308000,3,2.0,,1188,256446,2013,,259,,,,,https://www.redfin.com/VA/Amissville/10-Russell-Ln-20106/home/21634299,,,N,Y,38.687936,-78.0183784
PAST SALE,June-12-2020,Single Family Residential,14708 Lee Hwy,Amissville,VA,20106,315000,4,2.5,Amissville,2167,217800,1937,540,145,,Sold,,,https://www.redfin.com/VA/Amissville/14708-Lee-Hwy-20106/home/15558618,BRIGHT MLS,VARP106626,N,Y,38.677798,-78.0030135
PAST SALE,June-30-2021,Single Family Residential,207 Seven Ponds Rd,Amissville,VA,20106,760000,5,4.5,AMISSVILLE,4365,217800,2002,157,174,,Sold,,,https://www.redfin.com/VA/Amissville/207-7-Ponds-Rd-20106/home/15558142,BRIGHT MLS,VARP107940,N,Y,38.6814257,-78.0213451
PAST SALE,March-15-2019,Single Family Residential,14564 Lee Hwy,Amissville,VA,20106,483000,4,4.0,METES & BOUNDS,4350,392040,1972,995,111,,Sold,,,https://www.redfin.com/VA/Amissville/14564-Lee-Hwy-20106/home/15558605,BRIGHT MLS,1002352026,N,Y,38.6840494,-78.0129067
PAST SALE,August-21-2020,Single Family Residential,154 Seven Ponds Rd,Amissville,VA,20106,520000,4,3.5,Amissville,2668,435600,2005,470,195,,Sold,,,https://www.redfin.com/VA/Amissville/154-7-Ponds-Rd-20106/home/15558626,BRIGHT MLS,VARP107376,N,Y,38.6808069,-78.0211611
PAST SALE,October-19-2020,Single Family Residential,14554 Lee Hwy,Amissville,VA,20106,412000,4,3.0,Amissville,3208,47044,1975,411,128,,Sold,,,https://www.redfin.com/VA/Amissville/14554-Lee-Hwy-20106/home/15558604,BRIGHT MLS,VARP107470,N,Y,38.6842421,-78.0134197
PAST SALE,December-14-2020,Single Family Residential,14560 Lee Hwy,Amissville,VA,20106,289000,3,2.0,Amissville,1800,87556,1957,355,161,,Sold,,,https://www.redfin.com/VA/Amissville/14560-Lee-Hwy-20106/home/15558603,BRIGHT MLS,VARP107636,N,Y,38.6840717,-78.0129652
PAST SALE,,Single Family Residential,227 Hackleys Mill Rd,Amissville,VA,20106,100000,2,1.0,,672,87120,2002,,149,,,,,https://www.redfin.com/VA/Amissville/227-Hackleys-Mill-Rd-20106/home/15558587,,,N,Y,38.7042001,-78.0133037
PAST SALE,,Single Family Residential,145 Battle Mountain Rd,Amissville,VA,20106,250000,2,2.5,,2646,66888,2007,,94,,,,,https://www.redfin.com/VA/Amissville/145-Battle-Mountain-Rd-20106/home/15561240,,,N,Y,38.6620059,-78.0495256
PAST SALE,July-24-2019,Single Family Residential,244 Seven Ponds Rd,Amissville,VA,20106,545000,3,2.5,Amissville,2763,221385,2005,864,197,,Sold,,,https://www.redfin.com/VA/Amissville/244-7-Ponds-Rd-20106/home/15559915,BRIGHT MLS,VARP106638,N,Y,38.6820603,-78.020719
PAST SALE,,Single Family Residential,214 7 Ponds Rd,Amissville,VA,20106,315000,3,2.0,,2184,219041,1968,,144,,,,,https://www.redfin.com/VA/Amissville/214-7-Ponds-Rd-20106/home/15560452,,,N,Y,38.6816196,-78.0209041
PAST SALE,September-30-2020,Single Family Residential,346 Hinsons Ford Rd,Amissville,VA,20106,289000,2,2.0,METES & BOUNDS,912,217800,1970,430,317,,Sold,,,https://www.redfin.com/VA/Amissville/346-Hinsons-Ford-Rd-20106/home/15560017,BRIGHT MLS,VARP107468,N,Y,38.6992754,-77.9895217
PAST SALE,June-26-2020,Single Family Residential,10 Jptsels Ln,Amissville,VA,20106,482000,4,2.5,Amissville,3168,148365,1892,526,152,,Sold,,,https://www.redfin.com/VA/Amissville/10-Jptsels-Ln-20106/home/15560036,BRIGHT MLS,VARP107126,N,Y,38.6683946,-77.9974818
PAST SALE,June-29-2020,Single Family Residential,124 Mossie Ln,Amissville,VA,20106,495000,3,2.0,Amissville,1712,392040,1972,523,289,,Sold,,,https://www.redfin.com/VA/Amissville/124-Mossie-Ln-20106/home/15560112,BRIGHT MLS,VARP107096,N,Y,38.7016803,-77.9886221
PAST SALE,August-8-2019,Single Family Residential,247 Rollins Ford Rd,Amissville,VA,20106,375000,4,2.0,Amissville,2142,337590,2017,849,175,,Sold,,,https://www.redfin.com/VA/Amissville/247-Rollins-Ford-Rd-20106/home/15559905,BRIGHT MLS,VARP102846,N,Y,38.6841578,-77.9711734
PAST SALE,December-4-2020,Single Family Residential,15191 Waterloo Rd,Amissville,VA,20106,250000,3,2.0,Amissville,2208,43560,1969,365,113,,Sold,,,https://www.redfin.com/VA/Amissville/15191-Waterloo-Rd-20106/home/15560294,BRIGHT MLS,VARP107518,N,Y,38.6730755,-77.9709411
PAST SALE,August-28-2020,Single Family Residential,571 Richmond Rd,Amissville,VA,20106,205500,3,1.0,Amissville,1055,130680,1957,463,195,,Sold,,,https://www.redfin.com/VA/Amissville/571-Richmond-Rd-20106/home/15561255,BRIGHT MLS,VARP107256,N,Y,38.6478778,-78.0607001
PAST SALE,June-28-2021,Single Family Residential,75 Battle Mountain Rd,Amissville,VA,20106,715000,4,2.5,METES & BOUNDS,2411,1132560,1999,159,297,,Sold,,,https://www.redfin.com/VA/Amissville/75-Battle-Mountain-Rd-20106/home/162489866,BRIGHT MLS,VARP107898,N,Y,38.6528576,-78.0575307
PAST SALE,April-3-2020,Single Family Residential,76 Battle Mountain Rd,Amissville,VA,20106,449900,3,3.5,METES & BOUNDS,4342,764042,1978,610,104,,Sold,,,https://www.redfin.com/VA/Amissville/76-Battle-Mountain-Rd-20106/home/15561235,BRIGHT MLS,VARP107058,N,Y,38.6609513,-78.0497857
PAST SALE,August-17-2020,Single Family Residential,667 Richmond Rd,Amissville,VA,20106,710000,2,2.0,LAUREL MILLS,1602,566280,1985,474,443,,Sold,,,https://www.redfin.com/VA/Amissville/667-Richmond-Rd-20106/home/15561276,BRIGHT MLS,VARP107302,N,Y,38.6480327,-78.0637709
PAST SALE,,Single Family Residential,45 Fox Glen Ln,Amissville,VA,20106,319300,3,2.0,,1160,132488,2013,,275,,,,,https://www.redfin.com/VA/Amissville/45-Fox-Glen-Ln-20106/home/21969953,,,N,Y,38.6296937,-78.0480415
PAST SALE,,Single Family Residential,12 COUNTRYSIDE LN,AMISSVILLE,VA,20106,349000,4,2.5,,1972,406850,1974,,177,,,,,https://www.redfin.com/VA/AMISSVILLE/12-COUNTRYSIDE-LN-20106/home/15559037,,,N,Y,38.654171,-78.024864
PAST SALE,March-11-2020,Single Family Residential,241 Forest Grove Rd,Amissville,VA,20106,340000,3,2.5,Amissville,1512,217800,1990,633,225,,Sold,,,https://www.redfin.com/VA/Amissville/241-Forest-Grove-Rd-20106/home/15561210,BRIGHT MLS,VARP107008,N,Y,38.6406749,-78.052236
PAST SALE,August-5-2020,Single Family Residential,18 Windemeer Ln,Amissville,VA,20106,775000,6,4.5,RAPPAHANNOCK COUNTY SCHOOLS,6908,435600,1999,486,112,,Sold,,,https://www.redfin.com/VA/Amissville/18-Windemeer-Rd-20106/home/15558968,BRIGHT MLS,VARP107328,N,Y,38.6622407,-77.9904303
PAST SALE,July-6-2020,Single Family Residential,500 Pine Cir,Amissville,VA,20106,283000,2,1.5,RAPPAHANNOCK LAKES,2106,23086,1978,516,134,21,Sold,,,https://www.redfin.com/VA/Amissville/500-Pine-Cir-20106/home/15558900,BRIGHT MLS,VARP107088,N,Y,38.7162048,-78.007566
PAST SALE,January-25-2021,Vacant Land,South Poes,Amissville,VA,20106,330000,,,Amissville,,2178000,,313,,,Sold,,,https://www.redfin.com/VA/Jackson/S-Poes-Rd-20106/home/17890361,BRIGHT MLS,VARP107422,N,Y,38.72272,-78.03156
PAST SALE,May-28-2021,Single Family Residential,1171 Nelson Ln,Amissville,VA,20106,848000,4,3.0,WATERLOO WOODS,2483,553648,1988,190,342,13,Sold,,,https://www.redfin.com/VA/Amissville/1171-Nelson-Ln-20106/home/143729615,BRIGHT MLS,VACU144162,N,Y,38.6860723,-77.9271322
PAST SALE,April-23-2020,Single Family Residential,3 Juliannes Way,Amissville,VA,20106,285000,3,2.0,METES & BOUNDS,1366,43560,2002,590,209,,Sold,,,https://www.redfin.com/VA/Amissville/3-Juliannes-Way-20106/home/15560035,BRIGHT MLS,VARP107066,N,Y,38.6695367,-77.9961728
PAST SALE,,Single Family Residential,570 S Poes Rd,Amissville,VA,20106,550000,4,3.5,,2772,218824,1994,,198,,,,,https://www.redfin.com/VA/Amissville/570-S-Poes-Rd-20106/home/15559695,,,N,Y,38.7333312,-78.0345623
PAST SALE,May-27-2021,Single Family Residential,7067 Tapps Ford Rd,Amissville,VA,20106,635000,4,3.5,Amissville,3033,222383,2004,191,209,,Sold,,,https://www.redfin.com/VA/Amissville/7067-Tapps-Ford-Rd-20106/home/15536792,BRIGHT MLS,VAFQ169850,N,Y,38.747271,-78.003425
PAST SALE,July-24-2019,Single Family Residential,3375 Holly Springs Rd,Amissville,VA,20106,389500,3,3.5,FOX RIDGE,3306,107158,1998,864,118,,Sold,,,https://www.redfin.com/VA/Amissville/3375-Holly-Springs-Rd-20106/home/22901014,BRIGHT MLS,VACU139048,N,Y,38.6553151,-77.9749134
PAST SALE,February-1-2019,Single Family Residential,2015 Riley Rd,Amissville,VA,20106,399900,3,2.0,METES & BOUNDS,1568,65340,2018,1037,255,,Sold,,,https://www.redfin.com/VA/Amissville/2015-Riley-Rd-20106/home/167757853,BRIGHT MLS,1002276430,N,Y,38.676395,-77.958465
PAST SALE,,Other,11723 Crest Hill Rd,Hume,VA,22639,1175000,5,4.5,,5861,891560,1990,,200,,,,,https://www.redfin.com/VA/Hume/11723-Crest-Hill-Rd-22639/home/40394908,,,N,Y,38.7774372,-77.9931775
PAST SALE,June-27-2019,Single Family Residential,611 Viewtown Rd,Amissville,VA,20106,235000,1,1.0,AMISSVILLE,832,147886,1956,891,282,,Sold,,,https://www.redfin.com/VA/Amissville/611-View-Town-Rd-20106/home/15558868,BRIGHT MLS,VARP106642,N,Y,38.6612747,-78.0098668
PAST SALE,October-22-2021,Vacant Land,0 Docs Rd Lot A,Amissville,VA,20106,180000,,,Amissville,,217800,,43,,,Sold,,,https://www.redfin.com/VA/Viewtown/0-Doc-s-Rd-22746/home/145847093,BRIGHT MLS,VACU144806,N,Y,38.62375,-78.03292
PAST SALE,October-29-2021,Vacant Land,0 Quail Call Ln,Amissville,VA,20106,222550,,,Amissville,,581461,,36,,,Sold,,,https://www.redfin.com/VA/Viewtown/Game-Bird-Ln-22746/home/143766609,BRIGHT MLS,VARP2000198,N,Y,38.65455699,-78.03681434
PAST SALE,April-26-2021,Single Family Residential,58 Rock Springs Ln,Amissville,VA,20106,665000,4,3.5,METES & BOUNDS,5488,914760,2004,222,121,,Sold,,,https://www.redfin.com/VA/Amissville/58-Rock-Springs-Ln-20106/home/18964804,BRIGHT MLS,VARP107252,N,Y,38.7130514,-78.0236967
PAST SALE,June-14-2019,Vacant Land,Viewtown Rd,Amissville,VA,20106,145000,,,Amissville,,462172,,904,,,Sold,,,https://www.redfin.com/VA/Jackson/View-Town-Rd-20106/home/17891273,BRIGHT MLS,VARP106200,N,Y,38.65448,-78.02123
PAST SALE,August-16-2019,Single Family Residential,15275 Quail Ridge Dr,Amissville,VA,20106,335000,4,2.5,QUAIL RIDGE,2130,97574,1994,841,157,,Sold,,,https://www.redfin.com/VA/Amissville/15275-Quail-Ridge-Dr-20106/home/15503224,BRIGHT MLS,VACU138154,N,Y,38.6452463,-77.9693367
PAST SALE,June-9-2021,Single Family Residential,460 S Poes Rd,Amissville,VA,20106,445000,3,2.0,Amissville,1248,435600,1987,178,357,,Sold,,,https://www.redfin.com/VA/Amissville/460-S-Poes-Rd-20106/home/15559700,BRIGHT MLS,VARP107724,N,Y,38.7127502,-78.0284237
PAST SALE,August-11-2020,Single Family Residential,10351 Greenstone Ln,Culpeper,VA,22701,624065,5,3.5,STONE RIDGE ESTATES,4980,257875,2020,480,125,30,Sold,,,https://www.redfin.com/VA/Culpeper/10351-Greenstone-LN-22701/home/172695004,BRIGHT MLS,VACU142244,N,Y,38.64325028,-77.99738382
PAST SALE,February-21-2019,Single Family Residential,3483 Indian Run Rd,Amissville,VA,20106,325000,3,2.0,METES & BOUNDS,1647,48787,1978,1017,197,,Sold,,,https://www.redfin.com/VA/Amissville/3483-Indian-Run-Rd-20106/home/15508799,BRIGHT MLS,VACU100082,N,Y,38.6503915,-77.9908834
PAST SALE,September-1-2020,Vacant Land,Battle Mountain Rd,Amissville,VA,20106,184000,,,Amissville,,740520,,459,,,Sold,,,https://www.redfin.com/VA/Viewtown/25-Glory-Mountain-Rd-20106/home/15558231,BRIGHT MLS,VARP107346,N,Y,38.696586,-78.035319
PAST SALE,July-17-2020,Single Family Residential,72 Quail Call Ln,Amissville,VA,20106,650000,4,4.0,Amissville,3447,1797721,2005,505,189,,Sold,,,https://www.redfin.com/VA/Amissville/72-Quail-Call-Ln-20106/home/160930939,BRIGHT MLS,VARP107132,N,Y,38.6515243,-78.0324939
PAST SALE,November-23-2021,Single Family Residential,14485 Lee Hwy,Amissville,VA,20106,389900,3,2.0,ROWZIE,1560,427345,1965,11,250,,Sold,,,https://www.redfin.com/VA/Amissville/14485-Lee-Hwy-20106/home/16852181,BRIGHT MLS,VARP2000186,N,Y,38.6888002,-78.0239534
PAST SALE,August-4-2020,Vacant Land,Marges Mountain Ln,Amissville,VA,20106,135000,,,Amissville,,1960200,,487,,,Sold,,,https://www.redfin.com/VA/Jackson/Marges-Mountain-Ln-20106/home/49873763,BRIGHT MLS,VARP107170,N,Y,38.7109096,-78.0049336
PAST SALE,July-1-2020,Single Family Residential,15310 Lee Hwy,Amissville,VA,20106,254990,4,2.0,Amissville,1824,43560,1977,521,140,,Sold,,,https://www.redfin.com/VA/Amissville/15310-Langston-Blvd-20106/home/22900747,BRIGHT MLS,VACU139764,N,Y,38.6722288,-77.9651875
PAST SALE,August-4-2020,Single Family Residential,14607 Lee Hwy,Amissville,VA,20106,429000,3,3.0,Amissville,2912,87120,1984,487,147,,Sold,,,https://www.redfin.com/VA/Amissville/14607-Lee-Hwy-20106/home/15560312,BRIGHT MLS,VARP107348,N,Y,38.6825288,-78.0081767
PAST SALE,July-30-2021,Single Family Residential,1174 Waterloo Springs Ln,Amissville,VA,20106,810000,4,2.5,Amissville,3189,435600,2012,127,254,,Sold,,,https://www.redfin.com/VA/Amissville/1174-Waterloo-Springs-Ln-20106/home/15501058,BRIGHT MLS,VACU144736,N,Y,38.6872597,-77.9389945
PAST SALE,October-15-2021,Single Family Residential,15327 Waterloo Rd,Amissville,VA,20106,399000,4,2.0,LAWRENCE KNOLLS,2400,39640,1990,50,166,,Sold,,,https://www.redfin.com/VA/Amissville/15327-Waterloo-Rd-20106/home/15504707,BRIGHT MLS,VACU2000950,N,Y,38.6758315,-77.9668383
PAST SALE,June-10-2020,Single Family Residential,16378 Buckridge Ln,Amissville,VA,20106,295000,4,2.0,Amissville,1880,106722,1982,542,157,,Sold,,,https://www.redfin.com/VA/Amissville/16378-Buckridge-Ln-20106/home/15510367,BRIGHT MLS,VACU141240,N,Y,38.6888404,-77.9456438
PAST SALE,April-27-2021,Single Family Residential,2573 Wildwood Cir,Amissville,VA,20106,544900,4,3.5,WILDWOOD FOREST,3703,93218,1998,221,147,,Sold,,,https://www.redfin.com/VA/Amissville/2573-Wildwood-Cir-20106/home/15504268,BRIGHT MLS,VACU143966,N,Y,38.6619259,-77.9744227
PAST SALE,April-12-2019,Single Family Residential,1344 Nelson Ln,Amissville,VA,20106,355000,3,2.5,WATERLOO WOODS,1848,176854,2000,967,192,13,Sold,,,https://www.redfin.com/VA/Amissville/1344-Nelson-Ln-20106/home/15504661,BRIGHT MLS,VACU134746,N,Y,38.6821286,-77.9234632
PAST SALE,May-26-2021,Single Family Residential,1284 Freeman Dr,Amissville,VA,20106,539900,5,3.0,ERINBROOK,3005,43560,1997,192,180,,Sold,,,https://www.redfin.com/VA/Amissville/1284-Freeman-Dr-20106/home/15504334,BRIGHT MLS,VACU144272,N,Y,38.6828704,-77.9367632
PAST SALE,June-20-2019,Single Family Residential,478 River Ridge Rd,Amissville,VA,20106,525000,4,2.0,RAPPAHANNOCK RIDGE,2272,435600,1999,898,231,,Sold,,,https://www.redfin.com/VA/Amissville/478-River-Ridge-Rd-20106/home/15504829,BRIGHT MLS,VACU137878,N,Y,38.6907063,-77.9338404
PAST SALE,September-18-2019,Single Family Residential,16453 Waterloo Rd,Amissville,VA,20106,365000,3,2.5,Amissville,1680,130680,2005,808,217,,Sold,,,https://www.redfin.com/VA/Amissville/16453-Waterloo-Rd-20106/home/15498884,BRIGHT MLS,VACU139280,N,Y,38.682859,-77.9445474
PAST SALE,April-24-2020,Single Family Residential,1255 Dulin Dr,Amissville,VA,20106,275000,3,2.0,METES & BOUNDS,1468,165964,1994,589,187,,Sold,,,https://www.redfin.com/VA/Amissville/1255-Dulin-Dr-20106/home/15504825,BRIGHT MLS,VACU139744,N,Y,38.684279,-77.9440819
PAST SALE,July-23-2021,Single Family Residential,14239 Lee Hwy,Amissville,VA,20106,419900,3,2.5,Amissville,1908,112820,1998,134,220,,Sold,,,https://www.redfin.com/VA/Amissville/14239-Lee-Hwy-20106/home/15558654,BRIGHT MLS,VARP107916,N,Y,38.6985887,-78.0388015
PAST SALE,,Single Family Residential,147 Rollins Ford Rd,Amissville,VA,20106,250000,3,1.5,,1490,118048,1974,,168,,,,,https://www.redfin.com/VA/Amissville/147-Rollins-Ford-Rd-20106/home/15559997,,,N,Y,38.67941,-77.9711369
PAST SALE,October-8-2021,Vacant Land,0 Dodson Rd,Amissville,VA,20106,175000,,,Amissville,,435600,,57,,,Sold,,,https://www.redfin.com/VA/Amissville/Dodson-Rd-20106/home/145235821,BRIGHT MLS,VACU144364,N,Y,38.63864871,-78.02066521
PAST SALE,June-27-2019,Single Family Residential,4309 Waterford Rd,Amissville,VA,20106,324900,2,2.0,METES & BOUNDS,3292,194278,1968,891,99,,Sold,,,https://www.redfin.com/VA/Viewtown/4309-Waterford-Rd-20106/home/15510075,BRIGHT MLS,VACU138102,N,Y,38.6416395,-78.0003394
PAST SALE,July-30-2021,Single Family Residential,Lot 9 Bentley Ridge Rd,Amissville,VA,20106,555000,4,3.5,Amissville,2338,87120,2020,127,237,,Sold,,,https://www.redfin.com/VA/Amissville/Lot-9-Bentley-Ridge-RD-20106/home/172585235,BRIGHT MLS,VACU142088,N,Y,38.67761969,-77.94719774
PAST SALE,April-8-2020,Vacant Land,0 Waterloo,Amissville,VA,20106,110000,,,Amissville,,436035,,605,,,Sold,,,https://www.redfin.com/VA/AMISSVILLE/WATERLOO-RD-20106/home/15509814,BRIGHT MLS,VACU140896,N,Y,38.673378,-77.969965
PAST SALE,December-13-2019,Single Family Residential,62 Cabin Ln,Amissville,VA,20106,550000,3,2.5,Amissville,1932,596772,2005,722,285,,Sold,,,https://www.redfin.com/VA/Amissville/62-Cabin-Ln-20106/home/44644364,BRIGHT MLS,VARP106542,N,Y,38.694108,-78.028763
PAST SALE,November-12-2019,Single Family Residential,5461 Docs Rd,Amissville,VA,20106,446000,3,2.5,Amissville,2148,381150,2005,753,208,,Sold,,,https://www.redfin.com/VA/Viewtown/5461-Doc-s-Rd-20106/home/15500063,BRIGHT MLS,VACU139278,N,Y,38.627549,-78.0345358
PAST SALE,September-22-2021,Single Family Residential,13341 Latham Ln,Amissville,VA,20106,370000,3,1.5,Amissville,1359,91302,1979,73,272,,Sold,,,https://www.redfin.com/VA/Viewtown/13341-Latham-Ln-20106/home/15514562,BRIGHT MLS,VACU2000524,N,Y,38.6414604,-77.9990013
PAST SALE,December-6-2020,Vacant Land,1256 Old Bridge Rd,Amissville,VA,20106,900000,,,WATERLOO,,5905865,,363,,,Sold,,,https://www.redfin.com/VA/Amissville/1256-Old-Bridge-Rd-20106/home/44607263,BRIGHT MLS,VACU142520,N,Y,38.68323,-77.91632
PAST SALE,December-16-2018,Vacant Land,Ladelle Knoll Ln,Amissville,VA,20106,185000,,,ROSE LADELLE KNOLL,,1698840,,1084,,,Sold,,,https://www.redfin.com/VA/Jackson/Ladelle-Knl-20106/home/22168381,BRIGHT MLS,1000315778,N,Y,38.67596198,-78.00869275
PAST SALE,May-7-2021,Single Family Residential,15414 Pheasant Ct,Amissville,VA,20106,549000,4,4.5,QUAIL RIDGE,5247,112820,1999,211,105,,Sold,,,https://www.redfin.com/VA/Amissville/15414-Pheasant-Ct-20106/home/15503821,BRIGHT MLS,VACU143922,N,Y,38.6478557,-77.9621981
PAST SALE,September-3-2019,Single Family Residential,15448 Pheasant Ct,Amissville,VA,20106,425000,4,4.5,QUAIL RIDGE,3318,123275,2000,823,128,,Sold,,,https://www.redfin.com/VA/Amissville/15448-Pheasant-Ct-20106/home/15503818,BRIGHT MLS,VACU138672,N,Y,38.6478269,-77.9603688
PAST SALE,July-29-2021,Single Family Residential,16081 Sleepy Oak Way,Amissville,VA,20106,790000,4,2.5,METES & BOUNDS,2902,574556,2003,128,272,,Sold,,,https://www.redfin.com/VA/Amissville/16081-Sleepy-Oak-Way-20106/home/15503203,BRIGHT MLS,VACU144420,N,Y,38.6614041,-77.9578342
PAST SALE,March-30-2021,Single Family Residential,2315 Atkins Trail Ln,Amissville,VA,20106,635000,4,2.5,WOODBOURNE ESTATES,3389,217800,2002,249,187,,Sold,,,https://www.redfin.com/VA/Amissville/2315-Atkins-Trail-Ln-20106/home/15502096,BRIGHT MLS,VACU143142,N,Y,38.6672488,-77.9398425
PAST SALE,October-30-2019,Single Family Residential,2325 Burlington Dr,Amissville,VA,20106,414800,5,3.5,WOODBOURNE ESTATES,4476,114998,2002,766,93,,Sold,,,https://www.redfin.com/VA/Amissville/2325-Burlington-Dr-20106/home/15504154,BRIGHT MLS,VACU139098,N,Y,38.6681772,-77.9483658
PAST SALE,April-24-2020,Vacant Land,0 Richmond Rd,Castleton,VA,22716,85000,,,RAPPAHANOCK,,130680,,589,,,Sold,,,https://www.redfin.com/VA/Castleton/Richmond-Rd-22716/home/116510383,BRIGHT MLS,VARP107098,N,Y,38.6483932,-78.06165347
PAST SALE,September-4-2020,Single Family Residential,160 Ben Venue Rd,Flint Hill,VA,22627,557300,2,2.0,RAPPAHANOCK COUNTY,2019,62726,,456,276,,Sold,,,https://www.redfin.com/VA/Flint-Hill/160-Ben-Venue-Rd-22627/home/167041326,BRIGHT MLS,VARP107456,N,Y,38.7292069,-78.0693786
PAST SALE,February-4-2021,Single Family Residential,19 Ivy Ln,Amissville,VA,20106,550000,3,3.0,Amissville,2148,348480,1968,303,256,,Sold,,,https://www.redfin.com/VA/Amissville/19-Ivy-Ln-20106/home/22655171,BRIGHT MLS,VARP107490,N,Y,38.6873134,-78.0182409
PAST SALE,July-15-2019,Single Family Residential,14257 Lee Hwy,Amissville,VA,20106,340000,3,2.0,COUNTRY LIVING,1864,218405,1988,873,182,,Sold,,,https://www.redfin.com/VA/Amissville/14257-Lee-Hwy-20106/home/15558230,BRIGHT MLS,VARP106578,N,Y,38.6874859,-78.0232948
PAST SALE,June-22-2020,Single Family Residential,339 Seven Ponds Rd,Amissville,VA,20106,630000,4,3.5,RAPPAHANNOCK COUNTY SCHOOLS,3744,261360,1987,530,168,,Sold,,,https://www.redfin.com/VA/Amissville/339-7-Ponds-Rd-20106/home/15560119,BRIGHT MLS,VARP107262,N,Y,38.6829265,-78.0210052
PAST SALE,January-31-2019,Single Family Residential,15018 Lee Hwy,Amissville,VA,20106,425000,3,2.0,WILDWOOD,1849,217800,2018,1038,230,,Sold,,,https://www.redfin.com/VA/AMISSVILLE/15018-LEE-HWY-20106/home/15559854,BRIGHT MLS,VARP100288,N,Y,38.671647,-77.973621
PAST SALE,,Single Family Residential,451 View Town Rd,Amissville,VA,20106,200000,3,1.0,,1107,261360,1988,,181,,,,,https://www.redfin.com/VA/Amissville/451-View-Town-Rd-20106/home/44644365,,,N,Y,38.6561328,-78.0200161
PAST SALE,March-19-2019,Single Family Residential,14555 Lee Hwy,Amissville,VA,20106,510000,4,4.0,Amissville,4406,217800,1995,991,116,,Sold,,,https://www.redfin.com/VA/Amissville/14555-Lee-Hwy-20106/home/15560370,BRIGHT MLS,1001461760,N,Y,38.6854529,-78.0125094
PAST SALE,September-10-2020,Single Family Residential,109 & 119 Battle Mountain Rd,Amissville,VA,20106,245000,3,2.0,Amissville,1960,87120,1980,450,125,,Sold,,,https://www.redfin.com/VA/Amissville/119-Battle-Mountain-Rd-20106/home/15561011,BRIGHT MLS,VARP107418,N,Y,38.6617695,-78.0497295
PAST SALE,February-16-2019,Single Family Residential,4210 Waterford Rd,Amissville,VA,20106,380000,3,2.5,COUNTRY LIVING,2176,435600,2007,1022,175,,Sold,,,https://www.redfin.com/VA/Viewtown/4210-Waterford-Rd-20106/home/147862233,BRIGHT MLS,1010004514,N,Y,38.6439768,-78.0054921
PAST SALE,October-9-2020,Single Family Residential,62 River Mountain Ln,Amissville,VA,20106,449000,4,3.0,RIVER MOUNTAIN,2192,479160,2013,421,205,,Sold,,,https://www.redfin.com/VA/Amissville/62-River-Mountain-Ln-20106/home/21969957,BRIGHT MLS,VARP107392,N,Y,38.7338963,-78.0244485
PAST SALE,August-14-2020,Single Family Residential,15503 Waterloo Rd,Amissville,VA,20106,337000,3,2.0,Amissville,2280,21780,1983,477,148,,Sold,,,https://www.redfin.com/VA/Amissville/15503-Waterloo-Rd-20106/home/15510665,BRIGHT MLS,VACU141806,N,Y,38.677526,-77.960235
PAST SALE,July-26-2021,Single Family Residential,2102 Riley Rd,Amissville,VA,20106,495750,3,2.5,RILEY SCHOOL ESTATES,2041,149846,2017,131,243,,Sold,,,https://www.redfin.com/VA/Amissville/2102-Riley-Rd-20106/home/15499408,BRIGHT MLS,VACU144432,N,Y,38.6741302,-77.9604999
PAST SALE,July-25-2019,Single Family Residential,15407 Waterloo Rd,Amissville,VA,20106,248000,3,2.0,Amissville,1269,87120,1987,863,195,,Sold,,,https://www.redfin.com/VA/Amissville/15407-Waterloo-Rd-20106/home/15509659,BRIGHT MLS,VACU138680,N,Y,38.6768665,-77.9639828
PAST SALE,April-27-2021,Single Family Residential,15502 Waterloo Rd,Amissville,VA,20106,500000,3,2.0,Amissville,1800,43560,2016,221,278,,Sold,,,https://www.redfin.com/VA/Amissville/15502-Waterloo-Rd-20106/home/15499406,BRIGHT MLS,VACU144094,N,Y,38.6767352,-77.9598111
PAST SALE,October-29-2020,Single Family Residential,2251 Wildwood Cir,Amissville,VA,20106,450000,4,3.0,WILDWOOD FOREST,2994,53579,1997,401,150,,Sold,,,https://www.redfin.com/VA/Amissville/2251-Wildwood-Cir-20106/home/15505053,BRIGHT MLS,VACU142584,N,Y,38.6698898,-77.9710321
PAST SALE,November-26-2021,Single Family Residential,16373 Adrienne Pl,Amissville,VA,20106,539900,4,2.5,WOODBOURNE ESTATES,2556,114998,2000,8,211,,Sold,,,https://www.redfin.com/VA/Amissville/16373-Adrienne-Pl-20106/home/15504159,BRIGHT MLS,VACU2000414,N,Y,38.666603,-77.946747
PAST SALE,May-12-2021,Single Family Residential,2515 Wildwood Cir,Amissville,VA,20106,390000,3,2.0,WILDWOOD FOREST,1981,51401,1999,206,197,,Sold,,,https://www.redfin.com/VA/Amissville/2515-Wildwood-Cir-20106/home/15505018,BRIGHT MLS,VACU143928,N,Y,38.6625148,-77.9721251
PAST SALE,September-24-2020,Single Family Residential,2319 Wildwood Cir,Amissville,VA,20106,425000,4,2.5,WILDWOOD FOREST,2400,44431,1997,436,177,,Sold,,,https://www.redfin.com/VA/Amissville/2319-Wildwood-Cir-20106/home/15504271,BRIGHT MLS,VACU142106,N,Y,38.6678588,-77.9712997
PAST SALE,July-1-2021,Single Family Residential,2265 Wildwood Cir,Amissville,VA,20106,505000,4,2.5,WILDWOOD FOREST,2476,67954,1995,156,204,,Sold,,,https://www.redfin.com/VA/Amissville/2265-Wildwood-Cir-20106/home/15505052,BRIGHT MLS,VACU144618,N,Y,38.6695093,-77.9712551
PAST SALE,September-8-2020,Single Family Residential,15025 Priest Ln,Amissville,VA,20106,482500,4,3.0,WILDWOOD FOREST,4128,87556,1996,452,117,,Sold,,,https://www.redfin.com/VA/Amissville/15025-Priest-Ln-20106/home/15505045,BRIGHT MLS,VACU141982,N,Y,38.6687824,-77.9751365
PAST SALE,April-26-2019,Single Family Residential,2681 Wildwood Cir,Amissville,VA,20106,400000,3,3.5,WILDWOOD FOREST,4045,98446,1998,953,99,,Sold,,,https://www.redfin.com/VA/Amissville/2681-Wildwood-Cir-20106/home/15505041,BRIGHT MLS,1005461026,N,Y,38.6648739,-77.9759841
PAST SALE,November-2-2020,Single Family Residential,2749 Wildwood Cir,Amissville,VA,20106,495000,5,4.0,WILDWOOD FOREST,4083,92783,1996,397,121,,Sold,,,https://www.redfin.com/VA/Amissville/2749-Wildwood-Cir-20106/home/15504275,BRIGHT MLS,VACU142356,N,Y,38.6669692,-77.9761402
PAST SALE,January-28-2021,Single Family Residential,2730 Wildwood Cir,Amissville,VA,20106,440000,4,2.5,WILDWOOD FOREST,2414,63598,1997,310,182,,Sold,,,https://www.redfin.com/VA/Amissville/2730-Wildwood-Cir-20106/home/15505037,BRIGHT MLS,VACU143324,N,Y,38.6662146,-77.9745119
PAST SALE,,Single Family Residential,507 Staton Ln,Amissville,VA,20106,325000,3,2.5,,1949,87556,1995,,167,,,,,https://www.redfin.com/VA/Amissville/507-Staton-Ln-20106/home/15506485,,,N,Y,38.690902,-77.941806
PAST SALE,February-22-2021,Single Family Residential,2180 Austin Ln,Amissville,VA,20106,463000,4,2.5,WILDWOOD FOREST,2317,145926,1999,285,200,,Sold,,,https://www.redfin.com/VA/Amissville/2180-Austin-Ln-20106/home/15504716,BRIGHT MLS,VACU143440,N,Y,38.672416,-77.9690431
PAST SALE,October-22-2019,Single Family Residential,17143 Waterloo,Amissville,VA,20106,115000,3,1.0,METES & BOUNDS,1036,52272,1949,774,111,,Sold,,,https://www.redfin.com/VA/Amissville/17143-Waterloo-Rd-20106/home/15505740,BRIGHT MLS,VACU134574,N,Y,38.6849674,-77.9363615
PAST SALE,July-19-2021,Single Family Residential,15182 Aiken Ct,Amissville,VA,20106,565000,3,3.0,WILDWOOD FOREST,3522,450846,2006,138,160,,Sold,,,https://www.redfin.com/VA/Amissville/15182-Aiken-Ct-20106/home/18425281,BRIGHT MLS,VACU144682,N,Y,38.6635299,-77.9705302
PAST SALE,July-8-2019,Single Family Residential,15496 Riley School Ln,Amissville,VA,20106,425000,4,2.5,RILEY ROAD ESTATES,2420,44431,2018,880,176,,Sold,,,https://www.redfin.com/VA/AMISSVILLE/15496-RILEY-SCHOOL-LN-20106/home/143939453,BRIGHT MLS,VACU138548,N,Y,38.674037,-77.958289
PAST SALE,December-8-2020,Single Family Residential,2590 Wildwood Cir,Amissville,VA,20106,415000,3,3.0,WILDWOOD FOREST,2851,50094,1999,361,146,,Sold,,,https://www.redfin.com/VA/Amissville/2590-Wildwood-Cir-20106/home/15504722,BRIGHT MLS,VACU142900,N,Y,38.6628545,-77.9744227
PAST SALE,March-19-2020,Single Family Residential,2026 Parker Pl,Amissville,VA,20106,198000,4,2.5,Amissville,1575,83635,1981,625,126,,Sold,,,https://www.redfin.com/VA/Amissville/2026-Parker-Pl-20106/home/15505632,BRIGHT MLS,VACU140714,N,Y,38.6760839,-77.9386375
PAST SALE,,Single Family Residential,18101 Lee Hwy,Amissville,VA,20106,312000,3,2.0,,2032,43560,1987,,154,,,,,https://www.redfin.com/VA/Amissville/18101-Lee-Hwy-20106/home/15509490,,,N,Y,38.6778536,-77.9196247
PAST SALE,April-22-2020,Single Family Residential,17016 Waterloo Rd,Amissville,VA,20106,240000,3,1.0,METES & BOUNDS,1008,54014,1980,591,238,,Sold,,,https://www.redfin.com/VA/Amissville/17016-Waterloo-Rd-20106/home/15509502,BRIGHT MLS,VACU140184,N,Y,38.6817758,-77.9401995
PAST SALE,January-10-2020,Single Family Residential,18018 Waterloo Rd,Amissville,VA,20106,365000,3,2.0,CULPEPER COUNTY,2064,52708,1999,694,177,,Sold,,,https://www.redfin.com/VA/Amissville/18018-Waterloo-Rd-20106/home/15506890,BRIGHT MLS,VACU138612,N,Y,38.690016,-77.9224813
PAST SALE,August-30-2019,Single Family Residential,17185 Lee Hwy,Amissville,VA,20106,405000,3,1.5,Amissville,1422,558439,1978,827,285,,Sold,,,https://www.redfin.com/VA/Amissville/17185-Lee-Hwy-20106/home/15512701,BRIGHT MLS,VACU139038,N,Y,38.6763454,-77.9347618
PAST SALE,May-31-2019,Single Family Residential,2158 Garrison Ln,Amissville,VA,20106,205000,3,2.0,AMISSVILLE,1236,43560,1954,918,166,,Sold,,,https://www.redfin.com/VA/Amissville/2158-Garrison-Ln-20106/home/15514147,BRIGHT MLS,1002346066,N,Y,38.6733024,-77.9347995
PAST SALE,March-13-2020,Single Family Residential,2153 Brown Ln,Amissville,VA,20106,239900,2,2.5,Amissville,1803,43560,1964,631,133,,Sold,,,https://www.redfin.com/VA/Amissville/2153-Brown-Ln-20106/home/15515000,BRIGHT MLS,VACU139326,N,Y,38.6728476,-77.9331482
PAST SALE,July-1-2020,Single Family Residential,2205 Brown Ln,Amissville,VA,20106,342500,3,3.0,Amissville,2481,61420,2005,521,138,,Sold,,,https://www.redfin.com/VA/Amissville/2205-Brown-Ln-20106/home/15511832,BRIGHT MLS,VACU141444,N,Y,38.6715779,-77.9318093
PAST SALE,May-13-2021,Single Family Residential,2116 Brown Ln,Amissville,VA,20106,310000,3,3.0,Amissville,3308,57064,1976,205,94,,Sold,,,https://www.redfin.com/VA/Amissville/2116-Brown-Ln-20106/home/15506685,BRIGHT MLS,VACU144174,N,Y,38.6736458,-77.9345151
PAST SALE,,Single Family Residential,2079 Riley Rd,Amissville,VA,20106,325000,4,3.0,,2806,409464,1975,,116,,,,,https://www.redfin.com/VA/Amissville/2079-Riley-Rd-20106/home/15513082,,,N,Y,38.6744488,-77.9562639
PAST SALE,December-24-2020,Single Family Residential,16362 Lee Hwy,Amissville,VA,20106,223500,3,1.0,CULPEPER COUNTY,912,72310,1972,345,245,,Sold,,,https://www.redfin.com/VA/Amissville/16362-Lee-Hwy-20106/home/15514359,BRIGHT MLS,VACU143116,N,Y,38.6730324,-77.945376
PAST SALE,August-12-2019,Single Family Residential,3038 Colvin,Amissville,VA,20106,400000,3,3.0,CULPEPER,2020,130680,2017,845,198,,Sold,,,https://www.redfin.com/VA/Amissville/3038-Colvin-Rd-20106/home/45357046,BRIGHT MLS,VACU138316,N,Y,38.6617115,-77.9463651
PAST SALE,October-15-2021,Single Family Residential,43 Forgotten Creek Ln,Amissville,VA,20106,1395000,6,4.5,Amissville,5689,2232450,2000,50,245,,Sold,,,https://www.redfin.com/VA/Amissville/43-Forgotten-Creek-Ln-20106/home/22013436,BRIGHT MLS,VARP107706,N,Y,38.7050701,-78.0056274
PAST SALE,February-19-2019,Single Family Residential,1386 Jason Ln,Amissville,VA,20106,319000,3,3.0,WATERLOO WOODS,1552,219107,1981,1019,206,12,Sold,,,https://www.redfin.com/VA/Amissville/1386-Jason-Ln-20106/home/15504652,BRIGHT MLS,1002297246,N,Y,38.6796925,-77.93146
PAST SALE,October-25-2019,Single Family Residential,2207 Heritage Woods Ln,Amissville,VA,20106,380000,4,3.0,HERITAGE WOODS,3090,65776,1987,771,123,,Sold,,,https://www.redfin.com/VA/Amissville/2207-Heritage-Woods-Ln-20106/home/15504351,BRIGHT MLS,VACU139042,N,Y,38.6729338,-77.9527611
PAST SALE,March-2-2020,Single Family Residential,1192 Nelson Ln,Amissville,VA,20106,335000,4,2.5,WATERLOO WOODS,2866,132422,1985,642,117,12,Sold,,,https://www.redfin.com/VA/Amissville/1192-Nelson-Ln-20106/home/15504633,BRIGHT MLS,VACU139978,N,Y,38.6847518,-77.9269446
PAST SALE,July-15-2021,Single Family Residential,17316 Waterloo Rd,Amissville,VA,20106,393000,3,3.0,WATERLOO WOODS,2171,49223,1975,142,181,13,Sold,,,https://www.redfin.com/VA/Amissville/17316-Waterloo-Rd-20106/home/15504628,BRIGHT MLS,VACU144692,N,Y,38.6864343,-77.9306936
PAST SALE,February-12-2021,Single Family Residential,17418 Waterloo Rd,Amissville,VA,20106,425000,3,3.0,WATERLOO WOODS,2360,90169,1983,295,180,13,Sold,,,https://www.redfin.com/VA/Amissville/17418-Waterloo-Rd-20106/home/15504625,BRIGHT MLS,VACU143366,N,Y,38.6877721,-77.9276587
PAST SALE,August-11-2020,Single Family Residential,1449 Old Sawmill Ln,Amissville,VA,20106,385000,4,2.5,Amissville,1866,435600,1987,480,206,,Sold,,,https://www.redfin.com/VA/Amissville/1449-Old-Sawmill-Ln-20106/home/15504616,BRIGHT MLS,VACU140620,N,Y,38.6784995,-77.9426911
PAST SALE,October-4-2019,Single Family Residential,1312 Dulin Dr,Amissville,VA,20106,271000,3,2.0,METES & BOUNDS,1488,50530,1988,792,182,,Sold,,,https://www.redfin.com/VA/Amissville/1312-Dulin-Dr-20106/home/15504234,BRIGHT MLS,VACU138084,N,Y,38.683335,-77.9458669
PAST SALE,May-11-2021,Single Family Residential,1330 Jason Ln,Amissville,VA,20106,420000,3,2.0,WATERLOO WOODS,1296,550163,1982,207,324,13,Sold,,,https://www.redfin.com/VA/Amissville/1330-Jason-Ln-20106/home/15504650,BRIGHT MLS,VACU143620,N,Y,38.6812098,-77.9337777
PAST SALE,November-1-2019,Single Family Residential,1286 Jason Ln,Amissville,VA,20106,301000,4,3.0,WATERLOO WOODS,1987,130680,1985,764,151,13,Sold,,,https://www.redfin.com/VA/Amissville/1286-Jason-Ln-20106/home/15504649,BRIGHT MLS,VACU138704,N,Y,38.6827651,-77.9326573
PAST SALE,,Single Family Residential,1229 Jason Ln,Amissville,VA,20106,294500,3,1.5,,1334,130680,1979,,221,,,,,https://www.redfin.com/VA/Amissville/1229-Jason-Ln-20106/home/15504645,,,N,Y,38.6842769,-77.9316755
PAST SALE,May-7-2019,Single Family Residential,1299 Jason Ln,Amissville,VA,20106,315000,3,2.0,WATERLOO WOODS,2070,138956,1979,942,152,17,Sold,,,https://www.redfin.com/VA/Amissville/1299-Jason-Ln-20106/home/15504644,BRIGHT MLS,VACU134790,N,Y,38.6823026,-77.9313184
PAST SALE,October-17-2019,Single Family Residential,1496 Kelly Ct,Amissville,VA,20106,396000,3,2.5,WOODLYNN MANOR,1866,60548,2013,779,212,,Sold,,,https://www.redfin.com/VA/Amissville/1496-Kelly-Ct-20106/home/15504046,BRIGHT MLS,VACU139358,N,Y,38.6764694,-77.9291761
PAST SALE,April-25-2019,Single Family Residential,2015 Kelly Ct,Amissville,VA,20106,338000,4,3.0,WOODLYNN MANOR,1,84506,1991,954,338000,,Sold,,,https://www.redfin.com/VA/Amissville/2015-Kelly-Ct-20106/home/15504338,BRIGHT MLS,1002047234,N,Y,38.6762847,-77.9277926
PAST SALE,,Single Family Residential,2054 Freeman Dr,Amissville,VA,20106,341000,3,2.5,,2263,125888,2000,,151,,,,,https://www.redfin.com/VA/Amissville/2054-Freeman-Dr-20106/home/15504043,,,N,Y,38.6754269,-77.9333044
PAST SALE,February-9-2021,Single Family Residential,1514 Freeman Dr,Amissville,VA,20106,500000,4,3.5,ERINBROOK,3760,62726,1991,298,133,,Sold,,,https://www.redfin.com/VA/Amissville/1514-Freeman-Dr-20106/home/15504317,BRIGHT MLS,VACU143196,N,Y,38.6773183,-77.9342193
PAST SALE,April-20-2021,Single Family Residential,1474 Freeman Dr,Amissville,VA,20106,651000,4,3.5,ERINBROOK,4765,100188,1991,228,137,,Sold,,,https://www.redfin.com/VA/Amissville/1474-Freeman-Dr-20106/home/15504316,BRIGHT MLS,VACU2000020,N,Y,38.6779174,-77.9349334
PAST SALE,March-1-2019,Single Family Residential,1354 Freeman Dr,Amissville,VA,20106,393000,4,2.5,ERINBROOK,2974,47045,1989,1009,132,,Sold,,,https://www.redfin.com/VA/Amissville/1354-Freeman-Dr-20106/home/15504040,BRIGHT MLS,1002242476,N,Y,38.6809216,-77.9372318
PAST SALE,January-15-2021,Single Family Residential,2147 Brown,Amissville,VA,20106,359900,4,3.0,Amissville,2756,107158,2003,323,131,,Sold,,,https://www.redfin.com/VA/Amissville/2147-Brown-Ln-20106/home/15504822,BRIGHT MLS,VACU142910,N,Y,38.6736363,-77.9329697
PAST SALE,February-14-2019,Single Family Residential,1385 Freeman Dr,Amissville,VA,20106,470000,4,3.5,ERINBROOK,3639,73616,1995,1024,129,,Sold,,,https://www.redfin.com/VA/Amissville/1385-Freeman-Dr-20106/home/15504324,BRIGHT MLS,1008222682,N,Y,38.6800346,-77.9362723
PAST SALE,January-25-2019,Single Family Residential,1531 Freeman Dr,Amissville,VA,20106,340000,4,3.0,ERINBROOK,2126,63162,1999,1044,160,,Sold,,,https://www.redfin.com/VA/Amissville/1531-Freeman-Dr-20106/home/15504320,BRIGHT MLS,1001577322,N,Y,38.6777965,-77.9326127
PAST SALE,June-1-2020,Single Family Residential,1551 Freeman Dr,Amissville,VA,20106,489900,4,3.5,ERINBROOK,3684,76666,1998,551,133,,Sold,,,https://www.redfin.com/VA/Amissville/1551-Freeman-Dr-20106/home/15504319,BRIGHT MLS,VACU140924,N,Y,38.6770142,-77.9320771
PAST SALE,April-24-2020,Single Family Residential,17167 Waterloo Rd,Amissville,VA,20106,750000,4,3.5,RAPPAHANNOCK RIDGE,2790,527076,1890,589,269,,Sold,,,https://www.redfin.com/VA/Amissville/17167-Waterloo-Rd-20106/home/15504783,BRIGHT MLS,VACU139478,N,Y,38.6868495,-77.9357993
PAST SALE,May-21-2021,Single Family Residential,15516 Waterloo Rd,Amissville,VA,20106,515000,3,2.0,Amissville,2002,43560,2016,197,257,,Sold,,,https://www.redfin.com/VA/Amissville/15516-Waterloo-Rd-20106/home/15499405,BRIGHT MLS,VACU144122,N,Y,38.6771878,-77.9596995
PAST SALE,February-20-2020,Single Family Residential,Riley Rd,Amissville,VA,20106,500000,4,2.5,Amissville,2546,391604,,653,196,,Sold,,,https://www.redfin.com/VA/Amissville/2021-Riley-Rd-20106/home/22899372,BRIGHT MLS,VACU139150,N,Y,38.6757888,-77.9578773
PAST SALE,June-30-2020,Single Family Residential,16056 Grouse Ct,Amissville,VA,20106,475000,4,3.0,QUAIL RIDGE,4243,287496,2000,522,112,,Sold,,,https://www.redfin.com/VA/Amissville/16056-Grouse-Ct-20106/home/15503786,BRIGHT MLS,VACU140846,N,Y,38.6574569,-77.9559069
PAST SALE,March-25-2020,Single Family Residential,2545 Colvin Rd,Amissville,VA,20106,435000,4,3.0,WOODBOURNE ESTATES,3688,98881,2002,619,118,,Sold,,,https://www.redfin.com/VA/Amissville/2545-Colvin-Rd-20106/home/15503726,BRIGHT MLS,VACU140520,N,Y,38.6659454,-77.9513555
PAST SALE,December-18-2019,Single Family Residential,3075 Holly Springs Rd,Amissville,VA,20106,220000,3,2.0,AMISSVILLE,1440,118919,1982,717,153,,Sold,,,https://www.redfin.com/VA/Amissville/3075-Holly-Springs-Rd-20106/home/15503996,BRIGHT MLS,VACU139826,N,Y,38.6616762,-77.9772963
PAST SALE,,Single Family Residential,14178 Lee Hwy,Amissville,VA,20106,180000,2,1.0,,2376,155074,1948,,76,,,,,https://www.redfin.com/VA/Amissville/14178-Lee-Hwy-20106/home/15558679,,,N,Y,38.7002379,-78.0417199
PAST SALE,,Single Family Residential,14744 Lee Hwy,Amissville,VA,20106,875000,3,1.0,,1232,910404,1974,,710,,,,,https://www.redfin.com/VA/Amissville/14744-Lee-Hwy-20106/home/162489644,,,N,Y,38.6748146,-78.0002276
PAST SALE,August-25-2021,Single Family Residential,58 Hinsons Ford Rd,Amissville,VA,20106,405000,3,2.5,Amissville,2010,387684,1986,101,201,,Sold,,,https://www.redfin.com/VA/Amissville/58-Hinsons-Ford-Rd-20106/home/15559927,BRIGHT MLS,VARP2000044,N,Y,38.6981645,-77.9899511
PAST SALE,,Single Family Residential,161 Forest Grove Rd,Amissville,VA,20106,812500,4,2.5,,2755,3911688,1927,,295,,,,,https://www.redfin.com/VA/Amissville/161-Forest-Grove-Rd-20106/home/162488839,,,N,Y,38.631799,-78.051939
PAST SALE,July-30-2019,Single Family Residential,3224 Waterford Rd,Amissville,VA,20106,312000,3,3.0,Amissville,1896,43604,1978,858,165,,Sold,,,https://www.redfin.com/VA/Amissville/3224-Waterford-Rd-20106/home/15558863,BRIGHT MLS,VARP106736,N,Y,38.6530999,-78.0058755
PAST SALE,October-14-2021,Single Family Residential,15490 Bob White Trl,Amissville,VA,20106,625000,5,3.5,QUAIL RIDGE,3905,242194,2001,51,160,,Sold,,,https://www.redfin.com/VA/Amissville/15490-Bob-White-Trl-20106/home/15503848,BRIGHT MLS,VACU2000922,N,Y,38.642944,-77.9600119
PAST SALE,March-26-2021,Single Family Residential,4162 Waterford Rd,Amissville,VA,20106,745000,4,4.0,Amissville,4358,870764,1985,253,171,,Sold,,,https://www.redfin.com/VA/Amissville/4162-Waterford-Rd-20106/home/172847316,BRIGHT MLS,VACU142284,N,Y,38.6442754,-78.0047505
PAST SALE,January-29-2021,Vacant Land,Waterford Rd,Amissville,VA,20106,220000,,,Amissville,,568894,,309,,,Sold,,,https://www.redfin.com/VA/AMISSVILLE/WATERFORD-RD-20106/home/15513881,BRIGHT MLS,VARP106926,N,Y,38.634581,-78.000722
PAST SALE,August-21-2019,Single Family Residential,4448 Labrador Ct,Amissville,VA,20106,419900,4,4.0,QUAIL RIDGE,3339,235224,1993,836,126,,Sold,,,https://www.redfin.com/VA/Amissville/4448-Labrador-Ct-20106/home/15502956,BRIGHT MLS,VACU137998,N,Y,38.637236,-77.9612389
PAST SALE,November-5-2019,Single Family Residential,22 Sheffield Ln,Amissville,VA,20106,455000,0,1.0,Amissville,2520,111520,1925,760,181,,Sold,,,https://www.redfin.com/VA/Amissville/22-Sheffield-Ln-20106/home/15558873,BRIGHT MLS,VARP107000,N,Y,38.639066,-78.0391905
PAST SALE,March-25-2020,Single Family Residential,80 Four Springs Ln,Amissville,VA,20106,725000,4,4.0,FOUR SPRINGS,4073,539761,1967,619,178,,Sold,,,https://www.redfin.com/VA/Amissville/80-Four-Springs-Rd-20106/home/15558895,BRIGHT MLS,VARP107004,N,Y,38.7326841,-78.0237554
PAST SALE,January-29-2021,Single Family Residential,1986 Bentley Ridge Rd,Amissville,VA,20106,499900,4,3.5,Amissville,2212,93654,2020,309,226,,Sold,,,https://www.redfin.com/VA/Amissville/1986-Bentley-Ridge-RD-20106/home/172575009,BRIGHT MLS,VACU142078,N,Y,38.67946651,-77.94706491
PAST SALE,April-18-2019,Single Family Residential,676 S Poes Rd,Amissville,VA,20106,249000,3,1.0,Amissville,1221,87251,1988,961,204,,Sold,,,https://www.redfin.com/VA/Amissville/676-S-Poes-Rd-20106/home/15559363,BRIGHT MLS,VARP104998,N,Y,38.7230003,-78.0310342
PAST SALE,October-30-2020,Vacant Land,Lot 8 Deerfield Ln,Jeffersonton,VA,22724,115900,,,DEERFIELD,,435600,,400,,33,Sold,,,https://www.redfin.com/VA/Jeffersonton/Lot-8-Deerfield-Ln-22724/home/173082667,BRIGHT MLS,VACU142484,N,Y,38.6436931,-77.94030385
PAST SALE,October-15-2020,Vacant Land,Hackleys Mill Rd,Amissville,VA,20106,300000,,,METES & BOUNDS,,1393920,,415,,,Sold,,,https://www.redfin.com/VA/Amissville/Hackleys-Mill-Rd-20106/home/114023321,BRIGHT MLS,VARP106950,N,Y,38.69708922,-78.01015791
PAST SALE,September-28-2021,Vacant Land,Liscarne Ln,Amissville,VA,20106,260000,,,Amissville,,842886,,67,,,Sold,,,https://www.redfin.com/VA/Jackson/Liscarne-Ln-20106/home/40466408,BRIGHT MLS,VARP107970,N,Y,38.66722662,-78.01777115
PAST SALE,March-3-2020,Vacant Land,3229 Waterford Rd,Amissville,VA,20106,140000,,,Amissville,,217800,,641,,,Sold,,,https://www.redfin.com/VA/Amissville/3229-Waterford-Rd-20106/home/169597034,BRIGHT MLS,VARP106988,N,Y,38.6532932,-78.0056236
PAST SALE,November-30-2020,Vacant Land,Parcel B Leeds Manor Rd,Warrenton,VA,20186,295000,,,Warrenton,,1271669,,369,,,Sold,,,https://www.redfin.com/VA/Warrenton/Parcel-B-Leeds-Manor-Rd-20186/home/173526652,BRIGHT MLS,VAFQ167896,N,Y,38.69593737,-77.90004455
PAST SALE,January-22-2021,Vacant Land,69 Touchstone Ln,Amissville,VA,20106,485000,,,Amissville,,2003760,,316,,,Sold,,,https://www.redfin.com/VA/Amissville/69-Touchstone-Ln-20106/home/174268026,BRIGHT MLS,VARP107754,N,Y,38.7171667,-78.0346772
PAST SALE,May-31-2019,Single Family Residential,51 Hackleys Mill Rd,Amissville,VA,20106,500000,4,3.5,Amissville,2924,173630,2006,918,171,,Sold,,,https://www.redfin.com/VA/Amissville/51-Hackleys-Mill-Rd-20106/home/15559926,BRIGHT MLS,VARP106564,N,Y,38.693622,-78.013265
PAST SALE,May-14-2021,Single Family Residential,40 Maddox Ln,Amissville,VA,20106,410000,3,3.0,METES & BOUNDS,3888,130680,1997,204,105,,Sold,,,https://www.redfin.com/VA/Amissville/40-Maddox-Ln-20106/home/15558611,BRIGHT MLS,VARP107864,N,Y,38.6823054,-78.0098232
PAST SALE,October-18-2021,Single Family Residential,33 Pinecroft Ln,Flint Hill,VA,22627,1200000,4,4.5,Flint Hill,3149,2178000,1971,47,381,,Sold,,,https://www.redfin.com/VA/Flint-Hill/33-Pinecroft-Ln-22627/home/143285566,BRIGHT MLS,VARP107924,N,Y,38.7442237,-78.0649365
PAST SALE,November-10-2020,Single Family Residential,170 Rollins Ford Rd,Amissville,VA,20106,387000,3,2.0,AMISSVILLE,1434,232174,1982,389,270,,Sold,,,https://www.redfin.com/VA/Amissville/170-Rollins-Ford-Rd-20106/home/15560275,BRIGHT MLS,VARP107530,N,Y,38.6793491,-77.9706876
PAST SALE,August-26-2021,Vacant Land,0 Herman Judy Ln,Amissville,VA,20106,90000,,,Amissville,,120225,,100,,,Sold,,,https://www.redfin.com/VA/Jackson/Hermann-Judy-Rd-20106/home/55486406,BRIGHT MLS,VARP2000068,N,Y,38.64074642,-78.02373615
PAST SALE,,Single Family Residential,6692 Tapps Ford Rd,Amissville,VA,20106,662000,4,4.5,,5315,261447,1990,,125,,,,,https://www.redfin.com/VA/Amissville/6692-Tapps-Ford-Rd-20106/home/15537554,,,N,Y,38.7551558,-78.0097054
PAST SALE,,Single Family Residential,7459 Tapps Ford Rd,Amissville,VA,20106,275000,3,1.5,,1152,222997,1988,,239,,,,,https://www.redfin.com/VA/Amissville/7459-Tapps-Ford-Rd-20106/home/15537662,,,N,Y,38.7264531,-78.0031939
PAST SALE,February-26-2021,Single Family Residential,11600 Putnams Mill Rd,Hume,VA,22639,915000,3,2.0,FAUQUIER COUNTY,3132,1018415,2018,281,292,,Sold,,,https://www.redfin.com/VA/Hume/11600-Putnams-Mill-Rd-22639/home/167761291,BRIGHT MLS,VAFQ168676,N,Y,38.7760265,-77.9915825
PAST SALE,February-10-2021,Single Family Residential,12151 Deerfield Ln,Amissville,VA,20106,450000,3,2.5,Amissville,1978,111209,1994,297,228,,Sold,,,https://www.redfin.com/VA/Amissville/12151-Deerfield-Ln-20106/home/15536786,BRIGHT MLS,VAFQ168488,N,Y,38.7615296,-78.0080887
PAST SALE,November-22-2021,Single Family Residential,16122 Sleepy Oak Way,Amissville,VA,20106,750000,4,4.0,Amissville,4479,237837,2003,12,167,,Sold,,,https://www.redfin.com/VA/Amissville/16122-Sleepy-Oak-Way-20106/home/15503204,BRIGHT MLS,VACU2001028,N,Y,38.6600129,-77.9556392
PAST SALE,July-20-2021,Single Family Residential,8474 Leeds Manor Rd,Warrenton,VA,20186,720000,3,2.5,Warrenton,4074,248292,1998,137,177,,Sold,,,https://www.redfin.com/VA/Warrenton/8474-Leeds-Manor-Rd-20186/home/162573799,BRIGHT MLS,VAFQ170592,N,Y,38.6920377,-77.8989902
PAST SALE,April-30-2020,Single Family Residential,17219 Tattershall Way,Jeffersonton,VA,22724,475000,5,3.5,SOUTH WALES,4240,54014,2001,583,112,53,Sold,,,https://www.redfin.com/VA/Jeffersonton/17219-Tattershall-Way-22724/home/15503171,BRIGHT MLS,VACU140794,N,Y,38.6694058,-77.934978
PAST SALE,January-17-2020,Vacant Land,Hinsons Frd,Amissville,VA,20106,700000,,,Amissville,,6173323,,687,,,Sold,,,https://www.redfin.com/VA/Amissville/Hinsons-Ford-Rd-20106/home/143295666,BRIGHT MLS,VARP106748,N,Y,38.68953911,-78.00144342
PAST SALE,,Single Family Residential,656 S Poes Rd,Amissville,VA,20106,500000,3,2.5,,1628,1093792,1975,,307,,,,,https://www.redfin.com/VA/Amissville/656-S-Poes-Rd-20106/home/162488052,,,N,Y,38.7333017,-78.0315506
PAST SALE,April-7-2020,Vacant Land,364 Rollins Ford Rd,Amissville,VA,20106,858780,,,Amissville,,6234742,,606,,,Sold,,,https://www.redfin.com/VA/Amissville/364-Rollins-Ford-Ln-20106/home/162488439,BRIGHT MLS,VARP106894,N,Y,38.6800571,-77.9718393
PAST SALE,October-29-2020,Single Family Residential,15066 Colin Ln,Amissville,VA,20106,475000,4,3.5,WILDWOOD FOREST,3769,89734,1999,401,126,,Sold,,,https://www.redfin.com/VA/Amissville/15066-Colin-Ln-20106/home/15504262,BRIGHT MLS,VACU142424,N,Y,38.6629339,-77.9740211
PAST SALE,,Single Family Residential,1178 Deal Pl,Amissville,VA,20106,250000,3,2.0,,1568,130680,2002,,159,,,,,https://www.redfin.com/VA/Amissville/1178-Deal-Pl-20106/home/15504705,,,N,Y,38.6861533,-77.933416
PAST SALE,December-27-2019,Single Family Residential,4343 Waterford Rd,Amissville,VA,20106,355000,3,4.0,Amissville,1848,123710,1900,708,192,,Sold,,,https://www.redfin.com/VA/Viewtown/4343-Waterford-Rd-20106/home/15509328,BRIGHT MLS,VACU139532,N,Y,38.6408962,-77.9994028
PAST SALE,,Vacant Land,4448 Labrador Ct,Amissville,VA,20106,419900,,,,,481774,,,,,,,,https://www.redfin.com/VA/Amissville/4448-Labrador-Ct-20106/home/15509398,,,N,Y,38.637236,-77.9612389
PAST SALE,December-10-2018,Single Family Residential,3031 Brickettwood Ter,Amissville,VA,20106,275000,3,3.0,Amissville,1530,87120,1990,1090,180,,Sold,,,https://www.redfin.com/VA/Amissville/3031-Brickettwood-Ter-20106/home/15514086,BRIGHT MLS,1002357480,N,Y,38.6620619,-77.9369417
PAST SALE,March-7-2019,Single Family Residential,17 Hackleys Mill Rd,Amissville,VA,20106,510000,3,3.0,COUNTRY LIVING,4785,217800,2001,1003,107,,Sold,,,https://www.redfin.com/VA/Amissville/17-Hackleys-Mill-Rd-20106/home/15559985,BRIGHT MLS,VARP102850,N,Y,38.6921322,-78.012446
PAST SALE,March-6-2020,Vacant Land,Holly Springs Rd,Rixeyville,VA,22737,120000,,,Rixeyville,,204296,,638,,,Sold,,,https://www.redfin.com/VA/Rixeyville/Holly-Springs-Rd-22737/home/147379901,BRIGHT MLS,VACU140096,N,Y,38.63168,-77.99025
PAST SALE,May-29-2020,Vacant Land,00 Grimsley Rd,Flint Hill,VA,22627,125000,,,Flint Hill,,453237,,554,,,Sold,,,https://www.redfin.com/VA/Flint-Hill/Grimsley-Rd-22627/home/40022666,BRIGHT MLS,VARP106954,N,Y,38.74858418,-78.05650694
PAST SALE,March-17-2020,Single Family Residential,2646 Colvin,Amissville,VA,20106,455000,4,3.5,AMISSVILLE,3445,132322,2014,627,132,,Sold,,,https://www.redfin.com/VA/Amissville/2646-Colvin-Rd-20106/home/40285186,BRIGHT MLS,VACU140354,N,Y,38.6631955,-77.9485823
PAST SALE,June-11-2021,Single Family Residential,14305 Lee Hwy,Amissville,VA,20106,230000,2,1.0,Amissville,842,74923,1860,176,273,,Sold,,,https://www.redfin.com/VA/Amissville/14305-Lee-Hwy-20106/home/175043112,BRIGHT MLS,VARP107922,N,Y,38.7133167,-78.0623298
PAST SALE,June-24-2021,Vacant Land,Lee Hwy Lot 65B,Amissville,VA,20106,145000,,,Amissville,,499633,,163,,,Sold,,,https://www.redfin.com/VA/Amissville/65-Lee-Hwy-20106/unit-65B/home/175076036,BRIGHT MLS,VACU144414,N,Y,38.6798579,-78.0049921
PAST SALE,September-30-2019,Vacant Land,Seven Ponds Rd,Amissville,VA,20106,169500,,,PIERCE,,310060,,796,,,Sold,,,https://www.redfin.com/VA/Amissville/Ponds-Rd-20106/home/143747873,BRIGHT MLS,VARP106734,N,Y,38.6840401,-78.02222546
PAST SALE,July-15-2019,Single Family Residential,3068 Somerset Dr,Jeffersonton,VA,22724,415000,3,2.0,SOUTH WALES,3066,49223,1998,873,135,53,Sold,,,https://www.redfin.com/VA/Jeffersonton/3068-Somerset-Dr-22724/home/15503906,BRIGHT MLS,VACU138080,N,Y,38.661507,-77.9360714
PAST SALE,August-14-2020,Single Family Residential,600 Battle Mountain Rd,Amissville,VA,20106,735000,3,2.0,BATTLE MOUNTAIN,3047,1089000,2002,477,241,,Sold,,,https://www.redfin.com/VA/Amissville/600-Battle-Mountain-Rd-20106/home/113111109,BRIGHT MLS,VARP106978,N,Y,38.6665219,-78.0485782
PAST SALE,August-25-2021,Single Family Residential,7171 Crest River Ln,Amissville,VA,20106,535000,4,3.5,CRESTHILL WOODS,2534,441790,1990,101,211,,Sold,,,https://www.redfin.com/VA/Amissville/7171-Crest-River-Ln-20106/home/15536794,BRIGHT MLS,VAFQ170812,N,Y,38.7415964,-78.0049333
PAST SALE,May-22-2020,Vacant Land,0 Colvin Rd,Amissville,VA,20106,240000,,,Amissville,,860310,,561,,,Sold,,,https://www.redfin.com/VA/AMISSVILLE/COLVIN-RD-20106/home/112528150,BRIGHT MLS,VACU140312,N,Y,38.667894,-77.954293
PAST SALE,July-17-2020,Single Family Residential,13139 Crest Hill Rd,Flint Hill,VA,22627,335000,1,2.0,Flint Hill,1800,84506,1927,505,186,,Sold,,,https://www.redfin.com/VA/Flint-Hill/13139-Crest-Hill-Rd-22627/home/22655570,BRIGHT MLS,VARP107258,N,Y,38.7556041,-78.0355543
PAST SALE,October-19-2020,Single Family Residential,11383 Putnams Mill Rd,Hume,VA,22639,632000,4,2.5,Hume,3753,87120,1990,411,168,,Sold,,,https://www.redfin.com/VA/Hume/11383-Putnams-Mill-Rd-22639/home/15536779,BRIGHT MLS,VAFQ167334,N,Y,38.765242,-77.9853076
PAST SALE,September-10-2021,Vacant Land,14732 Lee Hwy,Amissville,VA,20106,875000,,,Amissville,,4908340,,85,,,Sold,,,https://www.redfin.com/VA/Amissville/14732-Lee-Hwy-20106/home/162488395,BRIGHT MLS,VARP2000034,N,Y,38.6752924,-78.0007329
PAST SALE,March-27-2020,Single Family Residential,401 Seven Ponds Rd,Amissville,VA,20106,469495,4,3.0,Amissville,2400,827640,1981,617,196,,Sold,,,https://www.redfin.com/VA/Amissville/401-7-Ponds-Rd-20106/home/15560123,BRIGHT MLS,VARP107108,N,Y,38.683708,-78.0210066
PAST SALE,September-20-2021,Single Family Residential,13325 Korea,Amissville,VA,20106,561000,4,3.0,Amissville,3480,523591,1900,75,161,,Sold,,,https://www.redfin.com/VA/Viewtown/13325-Korea-Rd-20106/home/56865450,BRIGHT MLS,VACU2000222,N,Y,38.629858,-78.005871
PAST SALE,October-7-2019,Single Family Residential,4052 Holly Springs Rd,Amissville,VA,20106,407000,4,2.0,COUNTRY LIVING,2493,632056,1976,789,163,,Sold,,,https://www.redfin.com/VA/Amissville/4052-Holly-Springs-Rd-20106/home/15505743,BRIGHT MLS,VACU139362,N,Y,38.6496265,-77.9784249
PAST SALE,March-17-2021,Single Family Residential,18019 Lee Hwy,Amissville,VA,20106,310000,3,2.0,AMISSVILLE,2317,60113,1954,262,134,,Sold,,,https://www.redfin.com/VA/Amissville/18019-Lee-Hwy-20106/home/15512486,BRIGHT MLS,VACU143980,N,Y,38.6777638,-77.9230169
PAST SALE,September-26-2019,Single Family Residential,16459 Deerfield,Jeffersonton,VA,22724,525000,6,5.5,DEERFIELD,4723,445619,2015,800,111,33,Sold,,,https://www.redfin.com/VA/Jeffersonton/16459-Deerfield-Ln-22724/home/15503395,BRIGHT MLS,VACU129542,N,Y,38.6450455,-77.9452868
PAST SALE,October-15-2021,Single Family Residential,1601 Gough Ln,Amissville,VA,20106,399000,3,2.0,METES & BOUNDS,2006,217800,1986,50,199,,Sold,,,https://www.redfin.com/VA/Amissville/1601-Gough-Ln-20106/home/15508407,BRIGHT MLS,VACU2000434,N,Y,38.6773857,-77.9521394
PAST SALE,October-20-2021,Single Family Residential,1321 Kristin Ln,Amissville,VA,20106,410000,4,3.0,WATERLOO WOODS,2333,130680,1979,45,176,13,Sold,,,https://www.redfin.com/VA/Amissville/1321-Kristin-Ln-20106/home/15504656,BRIGHT MLS,VACU2000896,N,Y,38.6819394,-77.9278372
PAST SALE,December-18-2020,Single Family Residential,15623 Quail Ridge Dr,Amissville,VA,20106,406900,3,3.0,QUAIL RIDGE,2216,65776,1993,351,184,,Sold,,,https://www.redfin.com/VA/Amissville/15623-Quail-Ridge-Dr-20106/home/15503484,BRIGHT MLS,VACU142834,N,Y,38.6403924,-77.9591641
PAST SALE,September-30-2021,Single Family Residential,17161 Tattershall Way,Jeffersonton,VA,22724,550000,4,2.5,SOUTH WALES,2973,45738,2001,65,185,53,Sold,,,https://www.redfin.com/VA/Jeffersonton/17161-Tattershall-Way-22724/home/22900922,BRIGHT MLS,VACU2000646,N,Y,38.6699893,-77.9374772
PAST SALE,March-16-2020,Single Family Residential,36 Seven Ponds Rd,Amissville,VA,20106,585000,3,4.0,Amissville,3862,266152,2005,628,151,,Sold,,,https://www.redfin.com/VA/Amissville/36-7-Ponds-Rd-20106/home/15560303,BRIGHT MLS,VARP106916,N,Y,38.6644,-78.009663
PAST SALE,,Single Family Residential,15327 Waterloo Rd,Amissville,VA,20106,399000,,,,,3180,,,,,,,,https://www.redfin.com/VA/Amissville/15327-Waterloo-Rd-20106/home/15560284,,,N,Y,38.6758315,-77.9668383
PAST SALE,April-8-2019,Single Family Residential,162 Rollins Ford Rd,Amissville,VA,20106,650000,4,3.0,,2300,3052684,1738,971,283,,Sold,,,https://www.redfin.com/VA/Amissville/162-Rollins-Ford-Rd-20106/home/15560280,CVRMLS,1834785,N,Y,38.6791122,-77.9705394
PAST SALE,July-14-2021,Single Family Residential,502 Pine Cir,Amissville,VA,20106,230000,2,1.0,RAPPAHANNOCK LAKES,672,27878,1948,143,342,21,Sold,,,https://www.redfin.com/VA/Amissville/502-Pine-Cir-20106/home/15559351,BRIGHT MLS,VARP107954,N,Y,38.7163992,-78.0074987
PAST SALE,July-19-2021,Single Family Residential,14794 Lee Hwy,Amissville,VA,20106,425000,4,3.0,Amissville,2394,130680,,138,178,,Sold,,,https://www.redfin.com/VA/Amissville/14794-Lee-Hwy-20106/home/15560067,BRIGHT MLS,VARP107932,N,Y,38.6725424,-77.9975376
PAST SALE,October-22-2020,Vacant Land,Windemeer Ln,Amissville,VA,20106,312000,,,WINDEMEER FARM ESTATES,,1089000,,408,,,Sold,,,https://www.redfin.com/VA/Catalpa/Indian-Run-Rd-20106/home/143783247,BRIGHT MLS,VARP107472,N,Y,38.66172149,-77.99120475
PAST SALE,July-28-2021,Vacant Land,0 Crest Hl,Hume,VA,22639,295000,,,PUTNAMS MILL,,217800,,129,,,Sold,,,https://www.redfin.com/VA/Hume/Unknown-22639/home/174007813,BRIGHT MLS,VAFQ167900,N,Y,38.77370726,-78.00222714
PAST SALE,August-31-2020,Single Family Residential,1022 Shetley,Amissville,VA,20106,290000,3,2.0,Amissville,1308,366775,1987,460,222,,Sold,,,https://www.redfin.com/VA/Amissville/1022-Shetley-Rd-20106/home/169301147,BRIGHT MLS,VACU139812,N,Y,38.6892744,-77.9187092
PAST SALE,July-15-2019,Single Family Residential,2176 Wildwood Frst,Amissville,VA,20106,330000,3,2.0,WILDWOOD FOREST,1902,88427,1996,873,174,,Sold,,,https://www.redfin.com/VA/Amissville/2176-Wildwood-Forest-Blvd-20106/home/15505057,BRIGHT MLS,VACU137934,N,Y,38.671964,-77.9722759
PAST SALE,December-21-2020,Single Family Residential,389 S Poes Rd,Amissville,VA,20106,935000,3,2.0,Amissville,2156,5401440,2007,348,434,,Sold,,,https://www.redfin.com/VA/Amissville/389-S-Poes-Rd-20106/home/162491674,BRIGHT MLS,VARP107644,N,Y,38.7080284,-78.0271645
PAST SALE,November-30-2021,Single Family Residential,16312 Quail Rdg,Amissville,VA,20106,455000,3,2.5,QUAIL RIDGE,3189,90169,1994,4,143,,Sold,,,https://www.redfin.com/VA/Amissville/16312-Quail-Ridge-Dr-20106/home/15503488,BRIGHT MLS,VACU2001076,N,Y,38.6376295,-77.9493029
PAST SALE,November-5-2021,Single Family Residential,2430 Somerset Dr,Jeffersonton,VA,22724,549000,4,2.5,SOUTH WALES,2970,47480,1997,29,185,53,Sold,,,https://www.redfin.com/VA/Jeffersonton/2430-Somerset-Dr-22724/home/15504060,BRIGHT MLS,VACU2000978,N,Y,38.6649066,-77.9347995
PAST SALE,May-7-2021,Vacant Land,Lee Hwy,Amissville,VA,20106,125000,,,Amissville,,271378,,211,,,Sold,,,https://www.redfin.com/VA/AMISSVILLE/LEE-HWY-20106/home/15514888,BRIGHT MLS,VARP107868,N,Y,38.677162,-77.924498
PAST SALE,November-6-2021,Vacant Land,Shetley Rd E,Amissville,VA,20106,103000,,,Amissville,,144183,,28,,,Sold,,,https://www.redfin.com/VA/Jefferson/Shetley-Rd-20106/home/22013515,BRIGHT MLS,VACU143658,N,Y,38.68832741,-77.91433205
PAST SALE,September-20-2021,Vacant Land,5-21A Herman Judy Ln,Culpeper,VA,22701,185000,,,Culpeper,,11,,75,,,Sold,,,https://www.redfin.com/VA/Culpeper/5-21A-Herman-Judy-LN-22701/home/176080975,BRIGHT MLS,VACU2000688,N,Y,38.64141077,-78.02289188
PAST SALE,March-29-2021,Vacant Land,0 Brown Lane Brown Ln,Amissville,VA,20106,199914,,,Amissville,,669952,,250,,,Sold,,,https://www.redfin.com/VA/Jefferson/0-Brown-Lane-Brown-Ln-20106/home/169934398,BRIGHT MLS,VACU140158,N,Y,38.67308485,-77.93403348
PAST SALE,November-22-2019,Single Family Residential,16098 Grouse Ct,Amissville,VA,20106,332000,3,2.5,QUAIL RIDGE,1844,83635,1998,743,180,,Sold,,,https://www.redfin.com/VA/Amissville/16098-Grouse-Ct-20106/home/15503784,BRIGHT MLS,VACU139672,N,Y,38.6587799,-77.9558177
PAST SALE,February-26-2021,Single Family Residential,5595 Docs,Amissville,VA,20106,370000,3,2.0,CEDAR HILLS,1973,169448,1989,281,188,,Sold,,,https://www.redfin.com/VA/Viewtown/5595-Doc-s-Rd-20106/home/15503246,BRIGHT MLS,VACU143526,N,Y,38.624338,-78.0318236
PAST SALE,November-19-2021,Single Family Residential,1276 Ava Ln,Amissville,VA,20106,425000,3,3.0,Amissville,2736,107593,1981,15,155,,Sold,,,https://www.redfin.com/VA/Amissville/1276-Ava-Ln-20106/home/15506605,BRIGHT MLS,VACU2000842,N,Y,38.6828906,-77.9373433
PAST SALE,June-26-2020,Single Family Residential,5194 Beach Ridge Ln,Amissville,VA,20106,460000,5,4.0,Amissville,3560,217800,2006,526,129,,Sold,,,https://www.redfin.com/VA/Viewtown/5194-Beach-Ridge-Ln-20106/home/15500544,BRIGHT MLS,VACU141352,N,Y,38.6315266,-78.0228163
PAST SALE,June-28-2021,Vacant Land,0 Korea Rd,Amissville,VA,20106,148000,,,Amissville,,435739,,159,,,Sold,,,https://www.redfin.com/VA/AMISSVILLE/KOREA-RD-20106/home/15503241,BRIGHT MLS,VACU143952,N,Y,38.631326,-78.025395
PAST SALE,June-11-2020,Single Family Residential,4513 Waterford Rd,Amissville,VA,20106,250500,2,1.0,Amissville,825,94090,1964,541,304,,Sold,,,https://www.redfin.com/VA/Amissville/4513-Waterford-Rd-20106/home/15511570,BRIGHT MLS,VACU140502,N,Y,38.6370764,-77.9969385
PAST SALE,May-27-2021,Single Family Residential,4087 Waterford Rd,Amissville,VA,20106,528800,3,3.5,Amissville,2626,217800,1993,191,201,,Sold,,,https://www.redfin.com/VA/Amissville/4087-Waterford-Rd-20106/home/15505539,BRIGHT MLS,VACU144142,N,Y,38.6474347,-78.0024803
PAST SALE,March-29-2019,Single Family Residential,3277 Holly Springs Rd,Amissville,VA,20106,245000,3,2.0,CULPEPER,1334,43560,1987,981,184,,Sold,,,https://www.redfin.com/VA/Amissville/3277-Holly-Springs-Rd-20106/home/15514942,BRIGHT MLS,VACU119840,N,Y,38.656267,-77.9778578
PAST SALE,May-8-2020,Single Family Residential,4612 Holly Springs Rd,Amissville,VA,20106,550000,4,3.0,Amissville,3175,435600,1996,575,173,,Sold,,,https://www.redfin.com/VA/Amissville/4612-Holly-Springs-Rd-20106/home/15505790,BRIGHT MLS,VACU140496,N,Y,38.6356244,-77.9840139
PAST SALE,December-14-2018,Single Family Residential,17080 Country Creek Ln,Culpeper,VA,22701,415000,5,2.0,METES & BOUNDS,3002,722660,1979,1086,138,,Sold,,,https://www.redfin.com/VA/Culpeper/Unknown-22701/home/146905832,BRIGHT MLS,1002336538,N,Y,38.64865092,-77.93958796
PAST SALE,April-24-2019,Single Family Residential,3210 Bonnie Brae Ln,Amissville,VA,20106,408000,3,2.0,BONNIE BRAE,1956,450846,1997,955,209,,Sold,,,https://www.redfin.com/VA/Amissville/3210-Bonnie-Brae-Ln-20106/home/15503968,BRIGHT MLS,VACU108240,N,Y,38.6593444,-77.9855669
PAST SALE,July-5-2021,Single Family Residential,3182 Bonnie Brae Ln,Amissville,VA,20106,465000,4,3.0,BONNIE BRAE,2820,461300,1990,152,165,,Sold,,,https://www.redfin.com/VA/Amissville/3182-Bonnie-Brae-Ln-20106/home/15503966,BRIGHT MLS,VACU144548,N,Y,38.6606163,-77.9839693
PAST SALE,October-23-2020,Single Family Residential,3257 Holly Springs Rd,Amissville,VA,20106,339000,3,2.0,STRAWSER HEIGHTS,1845,190793,1979,407,184,,Sold,,,https://www.redfin.com/VA/Amissville/3257-Holly-Springs-Rd-20106/home/15504003,BRIGHT MLS,VACU142258,N,Y,38.6568541,-77.9776793
PAST SALE,July-27-2020,Single Family Residential,3345 Rancelee Way,Amissville,VA,20106,455000,4,2.5,RANCELEE,2496,483080,1994,495,182,17,Sold,,,https://www.redfin.com/VA/Amissville/3345-Rancelee-Way-20106/home/15503529,BRIGHT MLS,VACU141712,N,Y,38.6546276,-77.9640275
PAST SALE,August-19-2021,Single Family Residential,3103 Indian Run Rd,Amissville,VA,20106,549900,4,3.5,RAPPAHANNOCK WOODS,2584,239580,1991,107,213,,Sold,,,https://www.redfin.com/VA/Amissville/3103-Indian-Run-Rd-20106/home/15502962,BRIGHT MLS,VACU144596,N,Y,38.6602724,-77.9899913
PAST SALE,March-2-2021,Single Family Residential,16139 English Setter Ct,Amissville,VA,20106,375000,3,2.0,QUAIL RIDGE,1661,71003,1995,277,226,,Sold,,,https://www.redfin.com/VA/Amissville/16139-English-Setter-Ct-20106/home/15502890,BRIGHT MLS,VACU143574,N,Y,38.6516107,-77.9544344
PAST SALE,July-18-2019,Single Family Residential,16130 English Setter Ct,Amissville,VA,20106,455000,4,2.5,QUAIL RIDGE,2790,126760,1995,870,163,,Sold,,,https://www.redfin.com/VA/Amissville/16130-English-Setter-Ct-20106/home/15503793,BRIGHT MLS,VACU138384,N,Y,38.6504865,-77.9537205
PAST SALE,September-16-2020,Single Family Residential,3147 Indian Run Rd,Amissville,VA,20106,520000,4,3.5,RAPPAHANNOCK WOODS,3392,313196,1990,444,153,,Sold,,,https://www.redfin.com/VA/Amissville/3147-Indian-Run-Rd-20106/home/15503511,BRIGHT MLS,VACU141520,N,Y,38.6588672,-77.9896791
PAST SALE,May-27-2021,Single Family Residential,3501 Holly Springs Rd,Amissville,VA,20106,445000,5,3.5,QUAIL RIDGE JOINT VENTUR,2447,43560,1991,191,182,,Sold,,,https://www.redfin.com/VA/Amissville/3501-Holly-Springs-Rd-20106/home/15502960,BRIGHT MLS,VACU144056,N,Y,38.6518214,-77.9739319
PAST SALE,August-13-2020,Single Family Residential,3537 Holly Springs Rd,Amissville,VA,20106,448500,4,3.5,QUAIL RIDGE JOINT VENTUR,3309,112385,2004,478,136,,Sold,,,https://www.redfin.com/VA/Amissville/3537-Holly-Springs-Rd-20106/home/15502958,BRIGHT MLS,VACU141628,N,Y,38.6507609,-77.9734412
PAST SALE,October-25-2021,Single Family Residential,16233 Quail Ridge Dr,Amissville,VA,20106,559000,4,3.5,QUAIL RIDGE,3286,442570,1994,40,170,,Sold,,,https://www.redfin.com/VA/Amissville/16233-Quail-Ridge-Dr-20106/home/15503220,BRIGHT MLS,VACU2000752,N,Y,38.6394915,-77.9505077
PAST SALE,,Single Family Residential,16401 Covey Cir,Amissville,VA,20106,390825,4,2.5,,2500,301435,1995,,156,,,,,https://www.redfin.com/VA/Amissville/16401-Covey-Cir-20106/home/15502950,,,N,Y,38.6434479,-77.9539882
PAST SALE,September-10-2021,Single Family Residential,16379 Covey Cir,Amissville,VA,20106,589000,5,3.5,QUAIL RIDGE,3262,71003,2014,85,181,,Sold,,,https://www.redfin.com/VA/Amissville/16379-Covey-Cir-20106/home/15502947,BRIGHT MLS,VACU2000546,N,Y,38.644198,-77.9542113
PAST SALE,,Single Family Residential,12064 Deerfield Ln,Amissville,VA,20106,450000,3,2.0,,2184,132806,1998,,206,,,,,https://www.redfin.com/VA/Amissville/12064-Deerfield-Ln-20106/home/15536782,,,N,Y,38.7627273,-77.9991351
PAST SALE,January-30-2019,Single Family Residential,16267 Covey Cir,Amissville,VA,20106,419900,4,2.0,QUAIL RIDGE,2488,157252,2003,1039,169,,Sold,,,https://www.redfin.com/VA/Amissville/16267-Covey-Cir-20106/home/15503805,BRIGHT MLS,VACU140244,N,Y,38.6476025,-77.9539436
PAST SALE,December-13-2019,Single Family Residential,16199 Covey Cir,Amissville,VA,20106,540000,5,4.5,QUAIL RIDGE,4030,358499,2001,722,134,,Sold,,,https://www.redfin.com/VA/Amissville/16199-Covey-Cir-20106/home/15502895,BRIGHT MLS,VACU139760,N,Y,38.6486434,-77.9526942
PAST SALE,April-12-2019,Single Family Residential,3116 Running Quail Trl,Amissville,VA,20106,375000,4,2.0,QUAIL RIDGE,2039,139828,1999,967,184,,Sold,,,https://www.redfin.com/VA/Amissville/3116-Running-Quail-Trl-20106/home/15503779,BRIGHT MLS,VACU134768,N,Y,38.659912,-77.9601011
