SALE TYPE,SOLD DATE,PROPERTY TYPE,ADDRESS,CITY,STATE OR PROVINCE,ZIP OR POSTAL CODE,PRICE,BEDS,BATHS,LOCATION,SQUARE FEET,LOT SIZE,YEAR BUILT,DAYS ON MARKET,$/SQUARE FEET,HOA/MONTH,STATUS,NEXT OPEN HOUSE START TIME,NEXT OPEN HOUSE END TIME,URL (SEE https://www.redfin.com/buy-a-home/comparative-market-analysis FOR INFO ON PRICING),SOURCE,MLS#,FAVORITE,INTERESTED,LATITUDE,LONGITUDE
MLS Listing,,Vacant Land,Fort Valley Rd,Fort Valley,VA,22652,29900,,,Fort Valley,,42253,,10,,,Active,,,https://www.redfin.com/VA/FORT-VALLEY/FORT-VALLEY-RD-22652/home/75077396,BRIGHT MLS,VASH2001510,N,Y,38.872485,-78.388635
MLS Listing,,Single Family Residential,9881 Fort Valley Rd,Fort Valley,VA,22652,474900,3,2.0,CHARLES GLASS,1987,264104,1977,26,239,,Active,,,https://www.redfin.com/VA/Fort-Valley/9881-Fort-Valley-Rd-22652/home/75075838,BRIGHT MLS,VASH2001370,N,Y,38.8760086,-78.3882768
MLS Listing,,Vacant Land,tbd Boliver Rd,Fort Valley,VA,22652,324500,,,Fort Valley,,1570773,,55,,,Active,,,https://www.redfin.com/VA/Unknown/tbd-Boliver-Rd-22652/home/176710006,BRIGHT MLS,VASH2000041,N,Y,38.82682822,-78.45334481
MLS Listing,,Vacant Land,Mt Sinai- Lot 124,Fort Valley,VA,22652,95000,,,Fort Valley,,125322,,143,,25,Active,,,https://www.redfin.com/VA/FORT-VALLEY/MT-SINAI-PT-22652/home/75081791,BRIGHT MLS,VASH2000294,N,Y,38.789991,-78.491101
MLS Listing,,Vacant Land,Zion Passage- Lot 102,Fort Valley,VA,22652,95000,,,Fort Valley,,132161,,143,,25,Active,,,https://www.redfin.com/VA/FORT-VALLEY/ZION-PASSAGE-RD-22652/home/75081380,BRIGHT MLS,VASH2000284,N,Y,38.788992,-78.48171
MLS Listing,,Vacant Land,Zion Passage- Lot 101,Fort Valley,VA,22652,95000,,,Fort Valley,,132335,,143,,25,Active,,,https://www.redfin.com/VA/FORT-VALLEY/ZION-PASSAGE-RD-22652/home/75081383,BRIGHT MLS,VASH2000274,N,Y,38.788504,-78.480919
MLS Listing,,Vacant Land,Zion Passage- Lot 103,Fort Valley,VA,22652,95000,,,Fort Valley,,130854,,143,,25,Active,,,https://www.redfin.com/VA/FORT-VALLEY/ZION-PASSAGE-RD-22652/home/75081381,BRIGHT MLS,VASH2000290,N,Y,38.789492,-78.482498
MLS Listing,,Vacant Land,Emmaus Road- Lot 109,Fort Valley,VA,22652,95000,,,Fort Valley,,126280,,143,,25,Active,,,https://www.redfin.com/VA/FORT-VALLEY/EMMAUS-RD-22652/home/75081378,BRIGHT MLS,VASH2000292,N,Y,38.791641,-78.488314
MLS Listing,,Vacant Land,Fort Vly,Fort Valley,VA,22652,229000,,,Fort Valley,,784951,,241,,,Active,,,https://www.redfin.com/VA/FORT-VALLEY/FORT-Vly-22652/home/147373557,BRIGHT MLS,VASH121938,N,Y,38.85890596,-78.39908301
PAST SALE,December-14-2018,Single Family Residential,458 Fort Valley Rd,Fort Valley,VA,22652,197500,3,2.0,Fort Valley,1380,86597,2013,1087,143,,Sold,,,https://www.redfin.com/VA/Fort-Valley/458-Fort-Valley-Rd-22652/home/66023169,BRIGHT MLS,1002037964,N,Y,38.7715528,-78.4974385
PAST SALE,September-20-2019,Vacant Land,Lot 198 Mine Mountain Ln,Fort Valley,VA,22652,7000,,,MINE MTN,,29621,,807,,6,Sold,,,https://www.redfin.com/VA/Fort-Valley/246-Crosswoods-Dr-22652/home/75075236,BRIGHT MLS,VASH117016,N,Y,38.8834469,-78.4270324
PAST SALE,,Single Family Residential,49 Galilee Ct,Fort Valley,VA,22652,450000,4,5.0,,4492,139958,2008,,100,,,,,https://www.redfin.com/VA/Fort-Valley/49-Galilee-Ct-22652/home/106244767,,,N,Y,38.7924383,-78.4913785
PAST SALE,November-17-2020,Vacant Land,Boyer Rd,Fort Valley,VA,22652,130000,,,Fort Valley,,1032720,,383,,,Sold,,,https://www.redfin.com/VA/FORT-VALLEY/BOYER-RD-22652/home/75077381,BRIGHT MLS,VASH118448,N,Y,38.867754,-78.414055
PAST SALE,,Single Family Residential,827 Mountain Slope Ln,Fort Valley,VA,22652,289000,2,1.0,,640,130680,1985,,452,,,,,https://www.redfin.com/VA/Fort-Valley/827-Mountain-Slope-Ln-22652/home/75080333,,,N,Y,38.8314842,-78.400244
PAST SALE,,Single Family Residential,732 Crosswoods Dr,Fort Valley,VA,22652,5000,,,,,200028,,,,,,,,https://www.redfin.com/VA/Fort-Valley/732-Crosswoods-Dr-22652/home/106274678,,,N,Y,38.8885699,-78.4206007
PAST SALE,July-24-2020,Vacant Land,0 Fort Valley Rd,Fort Valley,VA,22652,86000,,,KINGS ACRES,,76230,,499,,,Sold,,,https://www.redfin.com/VA/Fort-Valley/0-Fort-Valley-RD-22652/home/171558708,BRIGHT MLS,VASH119614,N,Y,38.85275911,-78.41009537
PAST SALE,April-16-2020,Single Family Residential,106 Dry Run,Fort Valley,VA,22652,160000,2,2.0,SAND PLACE ACRES,1344,170712,1993,598,119,,Sold,,,https://www.redfin.com/VA/Fort-Valley/106-Dry-Run-Rd-22652/home/75077026,BRIGHT MLS,VASH117666,N,Y,38.8625407,-78.4271999
PAST SALE,November-19-2021,Single Family Residential,185 Buck Run Ln,Fort Valley,VA,22652,310000,3,2.0,Fort Valley,1380,50486,2021,16,225,,Sold,,,https://www.redfin.com/VA/Fort-Valley/185-Buck-Run-Ln-22652/home/177148348,BRIGHT MLS,VASH2000652,N,Y,38.7996711,-78.4633179
PAST SALE,September-20-2019,Vacant Land,Lot 199 Mine Mountain Ln,Fort Valley,VA,22652,7000,,,MINE MTN,,30884,,807,,6,Sold,,,https://www.redfin.com/VA/Fort-Valley/246-Crosswoods-Dr-22652/home/75075233,BRIGHT MLS,VASH117018,N,Y,38.8834469,-78.4270324
PAST SALE,May-6-2019,Vacant Land,Fort Valley Rd S,Fort Valley,VA,22652,125000,,,Fort Valley,,900428,,944,,,Sold,,,https://www.redfin.com/VA/Fort-Valley/Fort-Valley-RD-S-22652/home/176410154,BRIGHT MLS,1000121301,N,Y,38.76149803,-78.51238377
PAST SALE,November-10-2020,Single Family Residential,248 Walter Ln,Fort Valley,VA,22652,248000,3,1.0,Fort Valley,1022,816837,1950,390,243,,Sold,,,https://www.redfin.com/VA/Fort-Valley/248-Walter-Ln-22652/home/106264126,BRIGHT MLS,VASH117404,N,Y,38.8203004,-78.4534261
PAST SALE,November-8-2019,Single Family Residential,492 St Davids Church Rd,Fort Valley,VA,22652,119000,1,1.0,Fort Valley,480,261360,1985,758,248,,Sold,,,https://www.redfin.com/VA/Fort-Valley/492-St-Davids-Church-Rd-22652/home/75081386,BRIGHT MLS,VASH117172,N,Y,38.7646957,-78.4887307
PAST SALE,November-11-2020,Vacant Land,Lot 104 Zion Psge,Fort Valley,VA,22652,58900,,,Fort Valley,,130724,,389,,25,Sold,,,https://www.redfin.com/VA/Fort-Valley/387-Selby-Ln-22652/home/106267800,BRIGHT MLS,VASH118412,N,Y,38.7885759,-78.4850529
PAST SALE,November-20-2020,Single Family Residential,183 Old Barn Ln,Fort Valley,VA,22652,200000,1,1.5,CHARLES GLASS,998,448668,1972,380,200,,Sold,,,https://www.redfin.com/VA/Fort-Valley/183-Old-Barn-Ln-22652/home/22017456,BRIGHT MLS,VASH120310,N,Y,38.8045316,-78.4381478
PAST SALE,March-29-2019,Single Family Residential,636 Fort Valley Rd,Fort Valley,VA,22652,172000,3,1.0,Fort Valley,1400,72919,1965,982,123,,Sold,,,https://www.redfin.com/VA/Fort-Valley/636-Fort-Valley-Rd-22652/home/16854494,BRIGHT MLS,1002358002,N,Y,38.7779197,-78.4915605
PAST SALE,February-28-2020,Vacant Land,0 Lost Ln,Fort Valley,VA,22652,64000,,,Fort Valley,,261360,,646,,,Sold,,,https://www.redfin.com/VA/District-4/Lost-Ln-22652/home/18270493,BRIGHT MLS,VASH116286,N,Y,38.84655,-78.43654
PAST SALE,January-31-2020,Vacant Land,Lot 2 Site G Zion Psge,Fort Valley,VA,22652,38500,,,MT ZION,,125061,,674,,25,Sold,,,https://www.redfin.com/VA/FORT-VALLEY/581-ZION-PSGE-22652/home/39987437,BRIGHT MLS,VASH117348,N,Y,38.791691,-78.484194
PAST SALE,September-14-2021,Vacant Land,Lot 184 Sunrise Hl,Fort Valley,VA,22652,14900,,,MINE MTN,,41774,,82,,6,Sold,,,https://www.redfin.com/VA/Fort-Valley/218-Mine-Mountain-Ln-22652/home/106262552,BRIGHT MLS,VASH121600,N,Y,38.8774493,-78.4328579
PAST SALE,May-8-2020,Single Family Residential,325 Nazareth Dr,Fort Valley,VA,22652,290000,5,3.0,MT ZION,2941,143704,2003,576,99,31,Sold,,,https://www.redfin.com/VA/Fort-Valley/325-Nazareth-Dr-22652/home/75080270,BRIGHT MLS,VASH118718,N,Y,38.7937108,-78.4830857
PAST SALE,December-4-2020,Single Family Residential,763 Glenmont Farm Rd,Fort Valley,VA,22652,645000,2,2.0,GLENMONT FARMS,980,3136451,,366,658,,Sold,,,https://www.redfin.com/VA/Fort-Valley/763-Glenmont-Farm-Rd-22652/home/173498584,BRIGHT MLS,VASH120718,N,Y,38.90427,-78.3789359
PAST SALE,December-16-2019,Single Family Residential,94 Wagner Ln,Fort Valley,VA,22652,169000,3,2.0,Fort Valley,1778,219106,1952,720,95,,Sold,,,https://www.redfin.com/VA/Fort-Valley/94-Wagner-Ln-22652/home/75081357,BRIGHT MLS,VASH115780,N,Y,38.7677894,-78.4953441
PAST SALE,July-31-2019,Single Family Residential,10212 Fort Valley Rd,Fort Valley,VA,22652,155000,3,1.0,Fort Valley,1328,72615,1951,858,117,,Sold,,,https://www.redfin.com/VA/Fort-Valley/10212-Fort-Valley-Rd-22652/home/75075325,BRIGHT MLS,VASH100023,N,Y,38.8791712,-78.3846004
PAST SALE,,Single Family Residential,2234 7 Fountains Rd,Fort Valley,VA,22652,101000,,,,,148845,,,,,,,,https://www.redfin.com/VA/Fort-Valley/2234-7-Fountains-Rd-22652/home/75077391,,,N,Y,38.8506578,-78.3986524
PAST SALE,,Single Family Residential,388 Dry Run Rd,Fort Valley,VA,22652,242400,,,,,145665,,,,,,,,https://www.redfin.com/VA/Fort-Valley/388-Dry-Run-Rd-22652/home/75077481,,,N,Y,38.8640278,-78.4228293
PAST SALE,December-23-2019,Vacant Land,Milford Ln,Fort Valley,VA,22652,46500,,,Fort Valley,,138520,,713,,,Sold,,,https://www.redfin.com/VA/FORT-VALLEY/MILFORD-LN-22652/home/75077719,BRIGHT MLS,VASH117196,N,Y,38.835008,-78.386262
PAST SALE,May-14-2020,Vacant Land,Merrick Ln,Fort Valley,VA,22652,12500,,,Fort Valley,,24786,,570,,,Sold,,,https://www.redfin.com/VA/FORT-VALLEY/MERRICK-LN-22652/home/75081748,BRIGHT MLS,VASH119050,N,Y,38.765398,-78.490299
PAST SALE,October-13-2021,Single Family Residential,10 Boyer Rd,Fort Valley,VA,22652,200000,3,1.0,Fort Valley,1176,685983,1896,53,170,,Sold,,,https://www.redfin.com/VA/Fort-Valley/10-Boyer-Rd-22652/home/75077388,BRIGHT MLS,VASH2000994,N,Y,38.8661413,-78.4065616
PAST SALE,October-8-2021,Single Family Residential,220 Kings Acre Ln,Fort Valley,VA,22652,265000,2,2.0,KINGS ACRES,1240,99360,1961,58,214,,Sold,,,https://www.redfin.com/VA/Fort-Valley/220-Kings-Acre-Ln-22652/home/28502493,BRIGHT MLS,VASH2000094,N,Y,38.8215189,-78.4423171
PAST SALE,July-9-2021,Single Family Residential,986 Mine Mountain Ln,Fort Valley,VA,22652,72500,3,,MINE MTN,,40729,,149,,,Sold,,,https://www.redfin.com/VA/Fort-Valley/986-Mine-Mountain-Ln-22652/home/75075738,BRIGHT MLS,VASH122306,N,Y,38.884513,-78.4221666
PAST SALE,,Single Family Residential,3056 Boliver Rd,Fort Valley,VA,22652,290000,3,1.5,,1232,355580,1976,,235,,,,,https://www.redfin.com/VA/Fort-Valley/3056-Boliver-Rd-22652/home/75077461,,,N,Y,38.8519749,-78.4353906
PAST SALE,,Single Family Residential,1012 St Davids Church Rd,Fort Valley,VA,22652,225000,3,2.0,,1344,223506,1884,,167,,,,,https://www.redfin.com/VA/Fort-Valley/1012-St-Davids-Church-Rd-22652/home/26838104,,,N,Y,38.7699295,-78.4830125
PAST SALE,January-21-2020,Single Family Residential,14555 Fort Valley Rd,Fort Valley,VA,22652,135000,3,1.0,WALTER PAIGE,1470,272250,1896,684,92,,Sold,,,https://www.redfin.com/VA/Fort-Valley/14555-Fort-Valley-Rd-22652/home/75072433,BRIGHT MLS,VASH117662,N,Y,38.9178069,-78.3432989
PAST SALE,April-29-2020,Single Family Residential,166 Mine Mountain Ln,Fort Valley,VA,22652,189900,2,1.0,LITTLE FORT VALLEY EST,1906,132858,1960,585,100,,Sold,,,https://www.redfin.com/VA/Fort-Valley/166-Mine-Mountain-Ln-22652/home/106281738,BRIGHT MLS,VASH118332,N,Y,38.8775749,-78.433783
PAST SALE,,Single Family Residential,246 Crosswoods Dr,Fort Valley,VA,22652,6000,,,,,31233,,,,,,,,https://www.redfin.com/VA/Fort-Valley/246-Crosswoods-Dr-22652/home/75075222,,,N,Y,38.8834469,-78.4270324
PAST SALE,October-9-2020,Single Family Residential,512 Coverstone Rd,Fort Valley,VA,22652,500000,3,1.0,NORA COVERSTONE,1410,1233096,1896,422,355,,Sold,,,https://www.redfin.com/VA/Fort-Valley/512-Coverstone-Rd-22652/home/162664778,BRIGHT MLS,VASH119466,N,Y,38.8856269,-78.3878133
PAST SALE,September-18-2019,Single Family Residential,2127 Boyer Rd,Fort Valley,VA,22652,150000,2,1.0,Fort Valley,989,219150,1949,809,152,,Sold,,,https://www.redfin.com/VA/Fort-Valley/2127-Boyer-Rd-22652/home/39952675,BRIGHT MLS,VASH116336,N,Y,38.8857619,-78.3976045
PAST SALE,May-15-2019,Single Family Residential,350 Cater Ln,Fort Valley,VA,22652,235000,2,2.0,SPRING MOUNTAIN,1920,97052,1999,935,122,,Sold,,,https://www.redfin.com/VA/Fort-Valley/350-Cater-Ln-22652/home/75075285,BRIGHT MLS,VASH115390,N,Y,38.8980833,-78.3491533
PAST SALE,February-28-2019,Single Family Residential,978 Spring Mountain Way,Fort Valley,VA,22652,399000,2,2.0,SPRING MOUNTAIN,1494,1022397,2004,1011,267,15,Sold,,,https://www.redfin.com/VA/Fort-Valley/978-Spring-Mountain-Way-22652/home/79074588,BRIGHT MLS,VASH107482,N,Y,38.9044162,-78.3442035
PAST SALE,December-23-2019,Single Family Residential,974 Spring Mountain Way,Fort Valley,VA,22652,350000,3,2.0,SPRING MOUNTAIN,2970,104457,2005,713,118,15,Sold,,,https://www.redfin.com/VA/Fort-Valley/974-Spring-Mountain-Way-22652/home/25707185,BRIGHT MLS,VASH117736,N,Y,38.9059374,-78.3472646
PAST SALE,January-14-2021,Single Family Residential,13875 Fort Valley Rd,Fort Valley,VA,22652,242000,3,2.0,FORT VALLEY,1820,28575,1966,325,133,,Sold,,,https://www.redfin.com/VA/Fort-Valley/13875-Fort-Valley-Rd-22652/home/75075792,BRIGHT MLS,VASH120342,N,Y,38.9115554,-78.3511645
PAST SALE,September-15-2021,Single Family Residential,12966 Fort Valley Rd,Fort Valley,VA,22652,549000,2,1.0,Fort Valley,2352,2393753,1896,81,233,,Sold,,,https://www.redfin.com/VA/Fort-Valley/12966-Fort-Valley-Rd-22652/home/162664800,BRIGHT MLS,VASH2000306,N,Y,38.9021911,-78.359906
PAST SALE,September-4-2020,Single Family Residential,377 Glenmont Farm Rd,Fort Valley,VA,22652,1125000,4,2.5,GLENMONT FARMS,2994,3603196,1896,457,376,,Sold,,,https://www.redfin.com/VA/Fort-Valley/377-Glenmont-Farm-Rd-22652/home/162670654,BRIGHT MLS,VASH116362,N,Y,38.9009416,-78.3727864
PAST SALE,,Single Family Residential,107 Glenmont Farm Rd,Fort Valley,VA,22652,306000,3,2.0,,1506,85160,1870,,203,,,,,https://www.redfin.com/VA/Fort-Valley/107-Glenmont-Farm-Rd-22652/home/22039999,,,N,Y,38.8965793,-78.3693244
PAST SALE,February-22-2021,Single Family Residential,190 Mockingbird Ln,Fort Valley,VA,22652,152000,2,2.0,Fort Valley,1596,84594,1965,286,95,,Sold,,,https://www.redfin.com/VA/Fort-Valley/190-Mocking-Bird-Ln-22652/home/101675096,BRIGHT MLS,VASH121218,N,Y,38.7711605,-78.4963489
PAST SALE,June-11-2021,Single Family Residential,2761 Boliver Rd,Fort Valley,VA,22652,364000,3,2.5,Fort Valley,1352,206082,1996,177,269,,Sold,,,https://www.redfin.com/VA/Fort-Valley/2761-Boliver-Rd-22652/home/75077460,BRIGHT MLS,VASH122048,N,Y,38.8486366,-78.4381846
PAST SALE,,Single Family Residential,1511 Boliver Rd,Fort Valley,VA,22652,300000,2,1.0,,828,202554,1936,,362,,,,,https://www.redfin.com/VA/Fort-Valley/1511-Boliver-Rd-22652/home/106265762,,,N,Y,38.8338883,-78.4454279
PAST SALE,December-30-2020,Single Family Residential,388 Dry Run Rd,Fort Valley,VA,22652,275000,2,2.0,SAND PLACE ACRES,1680,525594,1982,340,164,,Sold,,,https://www.redfin.com/VA/Fort-Valley/388-Dry-Run-Rd-22652/home/75077480,BRIGHT MLS,VASH120858,N,Y,38.8640278,-78.4228293
PAST SALE,April-10-2020,Single Family Residential,5053 Woodstock Tower Rd,Fort Valley,VA,22652,237500,3,3.0,SAND PLACE ACRES,1316,43124,2006,604,180,,Sold,,,https://www.redfin.com/VA/Fort-Valley/5053-Woodstock-Tower-Rd-22652/home/17179843,BRIGHT MLS,VASH118112,N,Y,38.8609512,-78.4254765
PAST SALE,September-17-2021,Vacant Land,4795 Woodstock Tower Rd,Fort Valley,VA,22652,320000,,,Fort Valley,,1372314,,79,,,Sold,,,https://www.redfin.com/VA/Fort-Valley/4795-Woodstock-Tower-Rd-22652/home/162665178,BRIGHT MLS,VASH2000348,N,Y,38.864224,-78.429853
PAST SALE,November-2-2020,Single Family Residential,2162 Boliver Rd,Fort Valley,VA,22652,189000,3,1.0,Fort Valley,960,337721,1991,398,197,,Sold,,,https://www.redfin.com/VA/Fort-Valley/2162-Boliver-Rd-22652/home/106274659,BRIGHT MLS,VASH119596,N,Y,38.840366,-78.4380118
PAST SALE,December-6-2019,Single Family Residential,3172 Boliver Rd,Fort Valley,VA,22652,299000,2,1.0,Fort Valley,1232,971388,1972,730,243,,Sold,,,https://www.redfin.com/VA/Fort-Valley/3172-Boliver-Rd-22652/home/75076997,BRIGHT MLS,VASH117582,N,Y,38.8532127,-78.4348984
PAST SALE,May-24-2019,Single Family Residential,3036 Boliver Rd,Fort Valley,VA,22652,219400,3,1.0,Fort Valley,1232,485781,1981,926,178,,Sold,,,https://www.redfin.com/VA/Fort-Valley/3036-Boliver-Rd-22652/home/75076999,BRIGHT MLS,VASH114270,N,Y,38.8506711,-78.4347717
PAST SALE,July-31-2020,Single Family Residential,100 Wolfs Ln,Fort Valley,VA,22652,249000,3,3.0,Fort Valley,1782,217800,1930,492,140,,Sold,,,https://www.redfin.com/VA/Fort-Valley/100-Wolfs-Ln-22652/home/22039559,BRIGHT MLS,VASH117772,N,Y,38.8483097,-78.4191513
PAST SALE,November-1-2019,Single Family Residential,1298 Seven Fountains Rd,Fort Valley,VA,22652,289000,2,2.0,SEVEN FOUNTAINS VILLAGE,1008,264714,1975,765,287,,Sold,,,https://www.redfin.com/VA/Fort-Valley/1298-7-Fountains-Rd-22652/home/106258103,BRIGHT MLS,VASH117064,N,Y,38.8397042,-78.3991784
PAST SALE,April-8-2021,Single Family Residential,270 Milford Ln,Fort Valley,VA,22652,123000,1,1.0,Fort Valley,,220413,,241,,,Sold,,,https://www.redfin.com/VA/Fort-Valley/270-Millford-Ln-22652/home/75076949,BRIGHT MLS,VASH121368,N,Y,38.8374675,-78.3988471
PAST SALE,March-5-2021,Single Family Residential,382 Privet Ln,Fort Valley,VA,22652,526000,4,2.0,Fort Valley,2470,1213190,1896,275,213,,Sold,,,https://www.redfin.com/VA/Fort-Valley/382-Privet-Ln-22652/home/162660175,BRIGHT MLS,VASH120992,N,Y,38.8371342,-78.4312957
PAST SALE,January-11-2019,Single Family Residential,2234 Seven Fountains Rd,Fort Valley,VA,22652,400000,3,2.0,MANTZ,2638,333800,2003,1059,152,,Sold,,,https://www.redfin.com/VA/Fort-Valley/2234-7-Fountains-Rd-22652/home/75076941,BRIGHT MLS,1009985124,N,Y,38.8506578,-78.3986524
PAST SALE,April-20-2020,Single Family Residential,7747 Fort Valley Rd,Fort Valley,VA,22652,259900,3,2.0,Fort Valley,1499,612018,1968,594,173,,Sold,,,https://www.redfin.com/VA/Fort-Valley/7747-Fort-Valley-Rd-22652/home/75077360,BRIGHT MLS,VASH118838,N,Y,38.8519431,-78.4104179
PAST SALE,,Single Family Residential,FORT VALLEY RD,FORT VALLEY,VA,22652,99000,,,,,441916,,,,,,,,https://www.redfin.com/VA/FORT-VALLEY/FORT-VALLEY-RD-22652/home/75077358,,,N,Y,38.853763,-78.411661
PAST SALE,May-27-2021,Single Family Residential,482 Boyer Rd,Fort Valley,VA,22652,330000,3,3.0,JOHNSTON,2016,162043,1989,192,164,,Sold,,,https://www.redfin.com/VA/Fort-Valley/482-Boyer-Rd-22652/home/75077374,BRIGHT MLS,VASH121894,N,Y,38.8702652,-78.4103549
PAST SALE,October-31-2019,Single Family Residential,360 Boyer Rd,Fort Valley,VA,22652,176000,2,2.0,Fort Valley,1372,152547,2005,766,128,,Sold,,,https://www.redfin.com/VA/Fort-Valley/360-Boyer-Rd-22652/home/75077375,BRIGHT MLS,VASH117168,N,Y,38.869224,-78.4107139
PAST SALE,January-7-2019,Single Family Residential,1990 Seven Fountains Rd,Fort Valley,VA,22652,345000,3,2.0,Fort Valley,1816,871200,2000,1063,190,,Sold,,,https://www.redfin.com/VA/FORT-VALLEY/445-SLATE-SPRING-LN-22652/home/52429968,BRIGHT MLS,1001754472,N,Y,38.847063,-78.39095
PAST SALE,May-15-2020,Single Family Residential,112 Plauger Ln,Fort Valley,VA,22652,239900,3,2.0,Fort Valley,1344,70524,1995,569,178,,Sold,,,https://www.redfin.com/VA/Fort-Valley/112-Plauger-Ln-22652/home/17058070,BRIGHT MLS,VASH117184,N,Y,38.8553567,-78.4086393
PAST SALE,June-5-2020,Single Family Residential,7793 Fort Valley Rd,Fort Valley,VA,22652,56000,4,2.0,Fort Valley,1920,99665,1916,548,29,,Sold,,,https://www.redfin.com/VA/Fort-Valley/7793-Fort-Valley-Rd-22652/home/106249915,BRIGHT MLS,VASH118256,N,Y,38.8528559,-78.4091169
PAST SALE,January-17-2020,Single Family Residential,7303 Fort Valley Rd,Fort Valley,VA,22652,355000,4,3.0,Fort Valley,2691,818928,1976,688,132,,Sold,,,https://www.redfin.com/VA/Fort-Valley/7303-Fort-Valley-Rd-22652/home/75077764,BRIGHT MLS,VASH116052,N,Y,38.8481375,-78.4157087
PAST SALE,June-14-2021,Single Family Residential,239 Seven Fountains Rd,Fort Valley,VA,22652,249900,4,1.5,Fort Valley,1760,130680,1896,174,142,,Sold,,,https://www.redfin.com/VA/Fort-Valley/239-7-Fountains-Rd-22652/home/21962530,BRIGHT MLS,VASH122148,N,Y,38.8434613,-78.4133931
PAST SALE,June-28-2021,Single Family Residential,70 Laurel Ln,Fort Valley,VA,22652,822500,3,3.5,MILFORD HEIGHTS,4100,2182356,2004,160,201,,Sold,,,https://www.redfin.com/VA/Fort-Valley/70-Laurel-Ln-22652/home/75077267,BRIGHT MLS,VASH121166,N,Y,38.8380057,-78.3867686
PAST SALE,October-23-2020,Single Family Residential,220 Seven Fountains Rd,Fort Valley,VA,22652,244000,3,2.0,Fort Valley,1320,155422,2000,408,185,,Sold,,,https://www.redfin.com/VA/Fort-Valley/220-7-Fountains-Rd-22652/home/75077767,BRIGHT MLS,VASH120256,N,Y,38.8426014,-78.4136596
PAST SALE,July-2-2020,Single Family Residential,303 Seven Fountains Rd,Fort Valley,VA,22652,335000,3,2.0,Fort Valley,1456,129068,2018,521,230,,Sold,,,https://www.redfin.com/VA/Fort-Valley/303-7-Fountains-Rd-22652/home/75077766,BRIGHT MLS,VASH118504,N,Y,38.8417343,-78.4110384
PAST SALE,August-11-2020,Single Family Residential,388 Seven Fountains Rd,Fort Valley,VA,22652,367000,3,3.0,FORT VALLEY,2470,419918,1986,481,149,,Sold,,,https://www.redfin.com/VA/Fort-Valley/388-7-Fountains-Rd-22652/home/106240139,BRIGHT MLS,VASH118940,N,Y,38.8408058,-78.4122057
PAST SALE,April-29-2020,Single Family Residential,482 Milford Ln,Fort Valley,VA,22652,389000,3,2.0,FORT VALLEY,2940,211266,2002,585,132,,Sold,,,https://www.redfin.com/VA/Fort-Valley/482-Millford-Ln-22652/home/40350289,BRIGHT MLS,VASH118618,N,Y,38.8367844,-78.3961444
PAST SALE,,Single Family Residential,MILFORD LN Unit H,FORT VALLEY,VA,22652,57000,,,,,250557,,,,,,,,https://www.redfin.com/VA/FORT-VALLEY/MILFORD-LN-22652/unit-H/home/75077723,,,N,Y,38.839576,-78.379734
PAST SALE,August-21-2020,Single Family Residential,54 Rose Bud Ln,Fort Valley,VA,22652,217000,3,1.5,STOUT-KADEL LAND,1296,110425,1976,471,167,,Sold,,,https://www.redfin.com/VA/Fort-Valley/54-Rose-Bud-Ln-22652/home/75080747,BRIGHT MLS,VASH119522,N,Y,38.7932143,-78.4710656
PAST SALE,March-2-2020,Single Family Residential,527 Buck Run Ln,Fort Valley,VA,22652,206900,3,2.0,KEITH BARKER,1380,100144,2019,643,150,,Sold,,,https://www.redfin.com/VA/Fort-Valley/527-Buck-Run-Ln-22652/home/106259935,BRIGHT MLS,VASH118212,N,Y,38.8024621,-78.472272
PAST SALE,October-8-2021,Single Family Residential,109 Nazareth Dr,Fort Valley,VA,22652,430000,8,5.5,MT ZION,5807,126106,2007,58,74,31,Sold,,,https://www.redfin.com/VA/Fort-Valley/109-Nazareth-Dr-22652/home/28514589,BRIGHT MLS,VASH122004,N,Y,38.7938811,-78.4874703
PAST SALE,,Single Family Residential,554 Mt of Olives Trl,Fort Valley,VA,22652,240000,4,3.0,,2046,60026,2000,,117,,,,,https://www.redfin.com/VA/Fort-Valley/554-Mt-of-Olives-Trl-22652/home/75080736,,,N,Y,38.7976968,-78.4864936
PAST SALE,August-30-2019,Single Family Residential,1174 Narrow Path,Fort Valley,VA,22652,279000,6,3.0,Fort Valley,3800,60200,2001,828,73,,Sold,,,https://www.redfin.com/VA/Fort-Valley/1174-Narrow-Path-22652/home/75080266,BRIGHT MLS,VASH114276,N,Y,38.7955482,-78.4876035
PAST SALE,October-10-2019,Single Family Residential,600 Whippoorwill Ln,Fort Valley,VA,22652,225900,2,2.0,Fort Valley,2002,390298,1994,787,113,,Sold,,,https://www.redfin.com/VA/Fort-Valley/600-Whippoorwill-Ln-22652/home/75080276,BRIGHT MLS,VASH116770,N,Y,38.826365,-78.4595222
PAST SALE,June-3-2020,Single Family Residential,647 Habron Hollow Rd,Fort Valley,VA,22652,152500,2,1.0,CHARLES GLASS,1100,222156,1942,550,139,,Sold,,,https://www.redfin.com/VA/Fort-Valley/647-Habron-Hollow-Rd-22652/home/75080671,BRIGHT MLS,VASH118202,N,Y,38.8022485,-78.4413322
PAST SALE,June-28-2019,Single Family Residential,71 Old Barn Ln,Fort Valley,VA,22652,277500,2,1.0,CHARLES GLASS,1080,352836,1967,891,257,,Sold,,,https://www.redfin.com/VA/Fort-Valley/71-Old-Barn-Ln-22652/home/39578877,BRIGHT MLS,VASH115714,N,Y,38.8029421,-78.4399721
PAST SALE,February-18-2020,Single Family Residential,359 Whippoorwill Ln,Fort Valley,VA,22652,289000,3,2.5,Fort Valley,1872,546896,2003,656,154,,Sold,,,https://www.redfin.com/VA/Fort-Valley/359-Whippoorwill-Ln-22652/home/26850415,BRIGHT MLS,VASH116472,N,Y,38.8248877,-78.4605151
PAST SALE,June-24-2021,Single Family Residential,5529 Fort Valley Rd,Fort Valley,VA,22652,275000,3,2.0,Fort Valley,1596,37767,2007,164,172,,Sold,,,https://www.redfin.com/VA/Fort-Valley/5529-Fort-Valley-Rd-22652/home/16855589,BRIGHT MLS,VASH121856,N,Y,38.8269088,-78.433207
PAST SALE,,Other,443 Meadow View Ln,Fort Valley,VA,22652,400000,3,3.0,,2800,1742400,1986,,143,,,,,https://www.redfin.com/VA/Fort-Valley/443-Meadow-View-Ln-22652/home/162666066,,,N,Y,38.8155423,-78.4543021
PAST SALE,July-12-2019,Single Family Residential,4633 Fort Valley Rd,Fort Valley,VA,22652,200000,3,2.5,Fort Valley,1232,618988,1973,877,162,,Sold,,,https://www.redfin.com/VA/Fort-Valley/4633-Fort-Valley-Rd-22652/home/22038805,BRIGHT MLS,1007382940,N,Y,38.8173331,-78.4445695
PAST SALE,,Single Family Residential,946 Boliver Rd,Fort Valley,VA,22652,170000,3,1.0,,1468,130680,1896,,116,,,,,https://www.redfin.com/VA/Fort-Valley/946-Boliver-Rd-22652/home/75080406,,,N,Y,38.8267804,-78.4514568
PAST SALE,May-11-2020,Single Family Residential,4508 Fort Valley Rd,Fort Valley,VA,22652,440000,4,2.5,Fort Valley,2940,1189667,1972,573,150,,Sold,,,https://www.redfin.com/VA/Fort-Valley/4508-Fort-Valley-Rd-22652/home/113670148,BRIGHT MLS,VASH118358,N,Y,38.8154354,-78.4444607
PAST SALE,May-8-2020,Single Family Residential,35 Kings Acre Ln,Fort Valley,VA,22652,178000,3,3.0,KINGS ACRES,2246,42819,1977,576,79,,Sold,,,https://www.redfin.com/VA/Fort-Valley/35-Kings-Acre-Ln-22652/home/40151781,BRIGHT MLS,VASH118832,N,Y,38.82179,-78.4389354
PAST SALE,,Single Family Residential,3194 St Davids Church Rd,Fort Valley,VA,22652,85000,4,2.0,,2147,330228,2015,,40,,,,,https://www.redfin.com/VA/Fort-Valley/3194-St-Davids-Church-Rd-22652/home/106244716,,,N,Y,38.7914098,-78.456758
PAST SALE,September-1-2020,Single Family Residential,6971 St Davids Church,Fort Valley,VA,22652,555000,4,4.0,Fort Valley,3553,1173942,1990,460,156,,Sold,,,https://www.redfin.com/VA/Fort-Valley/6971-St-Davids-Church-Rd-22652/home/87927831,BRIGHT MLS,VASH118914,N,Y,38.8236663,-78.4295547
PAST SALE,August-14-2020,Vacant Land,TBD Camp Roosevelt Rd,Fort Valley,VA,22652,157000,,,Fort Valley,,505601,,478,,,Sold,,,https://www.redfin.com/VA/SEVEN-FOUNTNS/TBD-Camp-Roosevelt-Rd-22652/home/170561194,BRIGHT MLS,VASH118388,N,Y,38.75133017,-78.50612893
PAST SALE,,Single Family Residential,458 S Fort Valley Rd,Fort Valley,VA,22652,197500,2,2.0,,1380,86597,2013,,143,,,,,https://www.redfin.com/VA/Fort-Valley/458-S-Fort-Valley-Rd-22652/home/54561112,,,N,Y,38.7556754,-78.5119289
PAST SALE,December-16-2019,Single Family Residential,1810 Camp Roosevelt Rd,Fort Valley,VA,22652,399000,4,3.5,Fort Valley,1941,309972,2013,720,206,,Sold,,,https://www.redfin.com/VA/Fort-Valley/1810-Camp-Roosevelt-Rd-22652/home/137555658,BRIGHT MLS,VASH117484,N,Y,38.7522203,-78.5114567
PAST SALE,,Single Family Residential,9 Mountain Dr,Fort Valley,VA,22652,179000,3,2.0,,1500,265193,1977,,119,,,,,https://www.redfin.com/VA/Fort-Valley/9-Mountain-Dr-22652/home/75081338,,,N,Y,38.7578133,-78.5150765
PAST SALE,,Single Family Residential,416 S Fort Valley Rd,Fort Valley,VA,22652,145000,2,1.0,,1284,47916,1972,,113,,,,,https://www.redfin.com/VA/Fort-Valley/416-S-Fort-Valley-Rd-22652/home/75081313,,,N,Y,38.7551734,-78.5117514
PAST SALE,,Single Family Residential,1083 Camp Roosevelt Rd,Fort Valley,VA,22652,358000,4,3.5,,4109,148932,2002,,87,,,,,https://www.redfin.com/VA/Fort-Valley/1083-Camp-Roosevelt-Rd-22652/home/106264190,,,N,Y,38.757544,-78.5020371
PAST SALE,,Single Family Residential,2972 St Davids Church Rd,Fort Valley,VA,22652,230000,5,2.0,,2216,660195,1900,,104,,,,,https://www.redfin.com/VA/Fort-Valley/2972-St-Davids-Church-Rd-22652/home/106247836,,,N,Y,38.7884118,-78.4586019
PAST SALE,,Single Family Residential,625 St Davids Church Rd,Fort Valley,VA,22652,165000,4,2.0,,1032,219237,1975,,160,,,,,https://www.redfin.com/VA/Fort-Valley/625-St-Davids-Church-Rd-22652/home/75081751,,,N,Y,38.7660887,-78.4881286
PAST SALE,,Single Family Residential,94 Wagner Ln,Fort Valley,VA,22652,169000,,,,,9975,,,,,,,,https://www.redfin.com/VA/Fort-Valley/94-Wagner-Ln-22652/home/75081350,,,N,Y,38.7677894,-78.4953441
PAST SALE,October-23-2019,Single Family Residential,1168 Camp Roosevelt Rd,Fort Valley,VA,22652,259000,2,2.0,Fort Valley,1267,1215324,1958,774,204,,Sold,,,https://www.redfin.com/VA/Fort-Valley/1168-Camp-Roosevelt-Rd-22652/home/148030329,BRIGHT MLS,VASH100058,N,Y,38.7574923,-78.5047176
PAST SALE,August-21-2020,Single Family Residential,1062 Camp Roosevelt Rd,Fort Valley,VA,22652,265000,4,2.0,Fort Valley,1766,174240,1963,471,150,,Sold,,,https://www.redfin.com/VA/Fort-Valley/1062-Camp-Roosevelt-Rd-22652/home/162666355,BRIGHT MLS,VASH117970,N,Y,38.7614118,-78.5045569
PAST SALE,June-16-2021,Single Family Residential,1076 S Fort Valley Rd,Fort Valley,VA,22652,343000,3,1.0,Fort Valley,1646,228254,1980,172,208,,Sold,,,https://www.redfin.com/VA/Fort-Valley/1076-S-Fort-Valley-Rd-22652/home/106270300,BRIGHT MLS,VASH122000,N,Y,38.7636328,-78.5086336
PAST SALE,October-30-2020,Single Family Residential,1114 S Fort Valley Rd,Fort Valley,VA,22652,265000,4,3.0,Fort Valley,1593,174240,1970,401,166,,Sold,,,https://www.redfin.com/VA/Fort-Valley/1114-S-Fort-Valley-Rd-22652/home/75081302,BRIGHT MLS,VASH119952,N,Y,38.7642215,-78.5081179
PAST SALE,November-12-2019,Single Family Residential,99 Blackhawk Ln,Fort Valley,VA,22652,630000,3,3.0,Fort Valley,3877,470796,2003,754,162,,Sold,,,https://www.redfin.com/VA/Fort-Valley/99-Blackhawk-Ln-22652/home/75081807,BRIGHT MLS,1002253894,N,Y,38.7636404,-78.5020727
PAST SALE,September-10-2019,Single Family Residential,5640 Edinburg Gap Rd,Fort Valley,VA,22652,159000,3,1.0,KINGS CROSSING,1568,33541,1977,817,101,,Sold,,,https://www.redfin.com/VA/Fort-Valley/5640-Edinburg-Gap-Rd-22652/home/40361547,BRIGHT MLS,VASH116544,N,Y,38.7722171,-78.5002941
PAST SALE,March-30-2019,Single Family Residential,314 Emmaus Rd,Fort Valley,VA,22652,249000,3,2.0,THE HOMES AT MOUNT ZION,1500,132902,2015,981,166,31,Sold,,,https://www.redfin.com/VA/Fort-Valley/314-Emmaus-Rd-22652/home/106281665,BRIGHT MLS,VASH113280,N,Y,38.7905119,-78.484392
PAST SALE,May-9-2019,Single Family Residential,661 Fort Valley Rd,Fort Valley,VA,22652,145000,2,1.0,JOHNSTON,909,44518,1955,941,160,,Sold,,,https://www.redfin.com/VA/Fort-Valley/661-Fort-Valley-Rd-22652/home/75081366,BRIGHT MLS,VASH114184,N,Y,38.7786558,-78.4915399
PAST SALE,November-26-2019,Single Family Residential,161 Mt Sinai,Fort Valley,VA,22652,199000,3,2.0,MT ZION,1380,127892,2019,740,144,31,Sold,,,https://www.redfin.com/VA/FORT-VALLEY/161-MOUNT-SINAI-PT-22652/home/106244617,BRIGHT MLS,VASH116564,N,Y,38.789867,-78.49007
PAST SALE,October-1-2019,Single Family Residential,1031 Camp Roosevelt Rd,Fort Valley,VA,22652,279000,5,3.0,Fort Valley,2667,95571,1999,796,105,,Sold,,,https://www.redfin.com/VA/Fort-Valley/1031-Camp-Roosevelt-Rd-22652/home/75081309,BRIGHT MLS,VASH116036,N,Y,38.7597405,-78.5008323
PAST SALE,January-5-2021,Single Family Residential,3026 Saint Davids Church Rd,Fort Valley,VA,22652,590000,6,3.5,Fort Valley,4600,871200,2009,334,128,,Sold,,,https://www.redfin.com/VA/Fort-Valley/3026-St-Davids-Church-Rd-22652/home/162661633,BRIGHT MLS,VASH121010,N,Y,38.7846519,-78.4547459
PAST SALE,February-22-2019,Single Family Residential,562 Saint Davids Church Rd,Fort Valley,VA,22652,255000,3,2.0,Fort Valley,2484,310931,2005,1017,103,,Sold,,,https://www.redfin.com/VA/Fort-Valley/562-St-Davids-Church-Rd-22652/home/75081422,BRIGHT MLS,1009963902,N,Y,38.7648843,-78.4870466
PAST SALE,,Single Family Residential,1140 Hickory Ln,Fort Valley,VA,22652,500000,,,,,17163,,,,,,,,https://www.redfin.com/VA/Fort-Valley/1140-Hickory-Ln-22652/home/75082922,,,N,Y,38.7485801,-78.5140593
PAST SALE,,Single Family Residential,91 Pine Tree Ln,Fort Valley,VA,22652,150000,3,1.0,,689,67779,1962,,218,,,,,https://www.redfin.com/VA/Fort-Valley/91-Pine-Tree-Ln-22652/home/40188564,,,N,Y,38.7365937,-78.5284155
PAST SALE,August-21-2020,Single Family Residential,7355 Moreland Gap Rd,Fort Valley,VA,22652,440000,3,3.5,Fort Valley,2208,1714957,1971,471,199,,Sold,,,https://www.redfin.com/VA/Fort-Valley/7355-Moreland-Gap-Rd-22652/home/75082913,BRIGHT MLS,VASH117790,N,Y,38.7373373,-78.5382873
PAST SALE,,Single Family Residential,7678 Moreland Gap Rd,Fort Valley,VA,22652,51000,1,,,168,43560,,,304,,,,,https://www.redfin.com/VA/Fort-Valley/7678-Moreland-Gap-Rd-22652/home/75082907,,,N,Y,38.7350163,-78.5328521
PAST SALE,June-17-2019,Single Family Residential,67 Plum Tree Ln,Fort Valley,VA,22652,163900,3,2.0,Fort Valley,1869,102932,1969,902,88,,Sold,,,https://www.redfin.com/VA/Fort-Valley/67-Plum-Tree-Ln-22652/home/75082902,BRIGHT MLS,VASH114386,N,Y,38.739959,-78.523151
PAST SALE,,Single Family Residential,8167 Moreland Gap Rd,Fort Valley,VA,22652,52000,,,,,217800,,,,,,,,https://www.redfin.com/VA/Fort-Valley/8167-Moreland-Gap-Rd-22652/home/28956281,,,N,Y,38.7363461,-78.5241375
PAST SALE,December-22-2020,Single Family Residential,982 Hickory Ln,Fort Valley,VA,22652,200000,2,2.0,Fort Valley,1413,777023,1973,348,142,,Sold,,,https://www.redfin.com/VA/Fort-Valley/982-Hickory-Ln-22652/home/75082896,BRIGHT MLS,VASH120938,N,Y,38.7460501,-78.5162025
PAST SALE,June-7-2019,Single Family Residential,1140 Hickory Ln,Fort Valley,VA,22652,500000,3,2.5,Fort Valley,2516,521848,1900,912,199,,Sold,,,https://www.redfin.com/VA/Fort-Valley/1140-Hickory-Ln-22652/home/75082894,BRIGHT MLS,VASH106794,N,Y,38.7485801,-78.5140593
PAST SALE,July-20-2020,Single Family Residential,187 Pine Tree Ln,Fort Valley,VA,22652,203750,3,2.0,Fort Valley,1808,51400,1957,503,113,,Sold,,,https://www.redfin.com/VA/Fort-Valley/187-Pine-Tree-Ln-22652/home/16857467,BRIGHT MLS,VASH119250,N,Y,38.7379894,-78.5273734
PAST SALE,November-15-2021,Single Family Residential,919 Mine Mountain Ln,Fort Valley,VA,22652,225000,3,2.0,MINE MTN,1288,36373,2007,20,175,6,Sold,,,https://www.redfin.com/VA/Fort-Valley/919-Mine-Mountain-Ln-22652/home/106252892,BRIGHT MLS,VASH2001082,N,Y,38.884528,-78.4239661
PAST SALE,October-4-2019,Vacant Land,Lot 365 Sunrise Hl,Fort Valley,VA,22652,15000,,,MINE MTN,,31233,,793,,8,Sold,,,https://www.redfin.com/VA/Fort-Valley/246-Crosswoods-Dr-22652/home/75075753,BRIGHT MLS,VASH116682,N,Y,38.8834469,-78.4270324
PAST SALE,November-20-2020,Vacant Land,Meadow View Ln Lot 30B,Fort Valley,VA,22652,170500,,,Fort Valley,,700444,,380,,,Sold,,,https://www.redfin.com/VA/Fort-Valley/30-Meadow-View-Ln-22652/unit-30B/home/173379665,BRIGHT MLS,VASH120554,N,Y,38.8169252,-78.4546119
PAST SALE,,Single Family Residential,483 7 Fountains Rd,Fort Valley,VA,22652,235000,3,2.0,,1456,206736,2018,,161,,,,,https://www.redfin.com/VA/Fort-Valley/483-7-Fountains-Rd-22652/home/164908897,,,N,Y,38.8410946,-78.4111854
PAST SALE,February-4-2021,Vacant Land,2355 Boliver Rd,Fort Valley,VA,22652,30000,,,Fort Valley,,282617,,304,,,Sold,,,https://www.redfin.com/VA/Fort-Valley/2355-Boliver-Rd-22652/home/173880336,BRIGHT MLS,VASH121064,N,Y,38.8276686,-78.4510647
PAST SALE,February-1-2020,Single Family Residential,1913 Fort Valley Rd,Fort Valley,VA,22652,275000,4,2.0,FORT VALLEY,2810,1761479,1900,673,98,,Sold,,,https://www.redfin.com/VA/Fort-Valley/1913-Fort-Valley-Rd-22652/home/123486436,BRIGHT MLS,VASH112830,N,Y,38.7899801,-78.4764044
PAST SALE,,Other,6701 Fort Valley Rd,Fort Valley,VA,22652,337500,1,,,320,2178000,1900,,1055,,,,,https://www.redfin.com/VA/Fort-Valley/6701-Fort-Valley-Rd-22652/home/162668795,,,N,Y,38.8402285,-78.4225381
PAST SALE,March-31-2021,Single Family Residential,8954 Fort Valley Rd,Fort Valley,VA,22652,750000,4,2.0,FORT VALLEY,1627,6446880,1947,249,461,,Sold,,,https://www.redfin.com/VA/Fort-Valley/8954-Fort-Valley-Rd-22652/home/162670801,BRIGHT MLS,VASH121260,N,Y,38.8630577,-78.3899901
PAST SALE,June-30-2020,Single Family Residential,343 Cater Ln,Fort Valley,VA,22652,465000,3,2.0,SPRING MOUNTAIN,1471,1036554,2006,523,316,15,Sold,,,https://www.redfin.com/VA/Fort-Valley/343-Cater-Ln-22652/home/40327401,BRIGHT MLS,VASH119162,N,Y,38.8981974,-78.3467138
PAST SALE,February-25-2021,Vacant Land,Crosswoods Dr,Fort Valley,VA,22652,15000,,,MINE MTN,,84506,,283,,18,Sold,,,https://www.redfin.com/VA/Fort-Valley/Crosswoods-Dr-22652/home/40399305,BRIGHT MLS,VASH121352,N,Y,38.89002523,-78.4191214
PAST SALE,,Single Family Residential,,,VA,,157000,,,,,505601,,,,,,,,https://www.redfin.com/VA/Unknown/Unknown-Unknown/home/137576896,,,N,Y,38.750186,-78.505924
PAST SALE,December-9-2020,Vacant Land,St Davids Church,Fort Valley,VA,22652,70000,,,Fort Valley,,411119,,361,,,Sold,,,https://www.redfin.com/VA/District-4/Saint-Davids-Church-Rd-22652/home/171259462,BRIGHT MLS,VASH120530,N,Y,38.82036015,-78.44790974
PAST SALE,June-3-2019,Vacant Land,187 Camp Roosevelt Rd E,Fort Valley,VA,22652,52500,,,Fort Valley,,195584,,916,,,Sold,,,https://www.redfin.com/VA/Fort-Valley/187-Camp-Roosevelt-Rd-22652/home/105637061,BRIGHT MLS,1000121109,N,Y,38.7688886,-78.4965578
PAST SALE,August-21-2020,Single Family Residential,860 S Fort Valley Rd,Fort Valley,VA,22652,155000,2,1.0,Fort Valley,1010,36590,1963,471,153,,Sold,,,https://www.redfin.com/VA/Fort-Valley/860-S-Fort-Valley-Rd-22652/home/106240311,BRIGHT MLS,VASH119240,N,Y,38.7610601,-78.5117579
PAST SALE,,Single Family Residential,246 Crosswoods Dr,Fort Valley,VA,22652,6000,,,,,31233,,,,,,,,https://www.redfin.com/VA/Fort-Valley/246-Crosswoods-Dr-22652/home/106242465,,,N,Y,38.8834469,-78.4270324
PAST SALE,June-14-2021,Vacant Land,Hickory Ln,Fort Valley,VA,22652,52000,,,Fort Valley,,217800,,174,,,Sold,,,https://www.redfin.com/VA/FORT-VALLEY/HICKORY-LN-22652/home/106255499,BRIGHT MLS,VASH122248,N,Y,38.737332,-78.525704
PAST SALE,June-4-2021,Single Family Residential,11590 Fort Valley Rd,Fort Valley,VA,22652,285000,3,2.5,Fort Valley,2041,211702,1976,184,140,,Sold,,,https://www.redfin.com/VA/Fort-Valley/11590-Fort-Valley-Rd-22652/home/106264309,BRIGHT MLS,VASH122084,N,Y,38.8920744,-78.3711344
PAST SALE,,Single Family Residential,218 Mine Mountain Ln,Fort Valley,VA,22652,34000,,,,,246942,,,,,,,,https://www.redfin.com/VA/Fort-Valley/218-Mine-Mountain-Ln-22652/home/75074989,,,N,Y,38.8774493,-78.4328579
PAST SALE,April-17-2020,Vacant Land,0 Forest Ridge Trl,Fort Valley,VA,22652,105000,,,MINE MTN,,200028,,597,,6,Sold,,,https://www.redfin.com/VA/SEVEN-FOUNTNS/Forest-Ridge-Trl-22652/home/145947094,BRIGHT MLS,VASH116556,N,Y,38.88567,-78.42727
PAST SALE,February-10-2021,Single Family Residential,1370 Seven Fountains Rd,Fort Valley,VA,22652,490000,4,3.0,Fort Valley,2600,673002,2018,298,188,,Sold,,,https://www.redfin.com/VA/Fort-Valley/1370-7-Fountains-Rd-22652/home/146056417,BRIGHT MLS,VASH120964,N,Y,38.840568,-78.396729
PAST SALE,September-16-2021,Vacant Land,0 Laurel Ln,Fort Valley,VA,22652,30000,,,MILFORD HEIGHTS,,154638,,80,,,Sold,,,https://www.redfin.com/VA/Fort-Valley/70-Laurel-Ln-22652/home/75076942,BRIGHT MLS,VASH122170,N,Y,38.8380057,-78.3867686
PAST SALE,October-4-2021,Single Family Residential,1716 Fort Valley Rd,Fort Valley,VA,22652,376000,3,2.0,Fort Valley,1500,59634,2018,62,251,,Sold,,,https://www.redfin.com/VA/Fort-Valley/1716-Fort-Valley-Rd-22652/home/106242597,BRIGHT MLS,VASH2000308,N,Y,38.7867661,-78.477162
PAST SALE,August-13-2021,Single Family Residential,139 Kings Acre Ln,Fort Valley,VA,22652,265000,3,3.0,KINGS ACRES,1985,88862,1986,114,134,,Sold,,,https://www.redfin.com/VA/Fort-Valley/139-Kings-Acre-Ln-22652/home/21516938,BRIGHT MLS,VASH122556,N,Y,38.8220037,-78.4402678
PAST SALE,August-25-2021,Single Family Residential,7350 Fort Valley Rd,Fort Valley,VA,22652,349000,2,2.0,Fort Valley,1344,279525,1981,102,260,,Sold,,,https://www.redfin.com/VA/Fort-Valley/7350-Fort-Valley-Rd-22652/home/40437958,BRIGHT MLS,VASH2000192,N,Y,38.8466142,-78.4123836
PAST SALE,,Single Family Residential,134 Mount Sinai Pointe,Fort Valley,VA,22652,375000,4,4.5,,3189,125366,2006,,118,,,,,https://www.redfin.com/VA/Fort-Valley/134-Mount-Sinai-Pointe-22652/home/106247817,,,N,Y,38.7886405,-78.491234
PAST SALE,August-20-2021,Single Family Residential,827 Mountain Slope Ln,Fort Valley,VA,22652,289000,2,2.0,FORT PASSAGE,1868,129199,2005,107,155,6,Sold,,,https://www.redfin.com/VA/Fort-Valley/827-Mountain-Slope-Ln-22652/home/75080341,BRIGHT MLS,VASH2000060,N,Y,38.8314842,-78.400244
PAST SALE,April-16-2021,Single Family Residential,496 Frenchman Pond Rd,Fort Valley,VA,22652,500000,4,2.0,FORT VALLEY,1982,1096144,1896,233,252,,Sold,,,https://www.redfin.com/VA/Fort-Valley/496-Frenchman-Pond-Rd-22652/home/16851418,BRIGHT MLS,VASH120228,N,Y,38.877137,-78.3914
PAST SALE,,Single Family Residential,3319 St Davids Church Rd,Fort Valley,VA,22652,69000,3,1.0,,1004,43560,1952,,69,,,,,https://www.redfin.com/VA/Fort-Valley/3319-St-Davids-Church-Rd-22652/home/75080397,,,N,Y,38.7935617,-78.4568241
PAST SALE,December-17-2018,Single Family Residential,1726 Seven Fountains Rd,Fort Valley,VA,22652,685000,4,4.0,Fort Valley,4848,1075932,2003,1084,141,,Sold,,,https://www.redfin.com/VA/Fort-Valley/1726-7-Fountains-Rd-22652/home/77303327,BRIGHT MLS,1002021960,N,Y,38.8462879,-78.3983594
PAST SALE,,Single Family Residential,218 Mine Mountain Ln,Fort Valley,VA,22652,34000,,,,,221067,,,,,,,,https://www.redfin.com/VA/Fort-Valley/218-Mine-Mountain-Ln-22652/home/106262721,,,N,Y,38.8774493,-78.4328579
PAST SALE,June-4-2019,Vacant Land,Oak Tree Ln,Fort Valley,VA,22652,240000,,,Fort Valley,,3456050,,915,,,Sold,,,https://www.redfin.com/VA/4/Oak-Tree-Rd-22652/home/28643134,BRIGHT MLS,1001625056,N,Y,38.82886566,-78.43486817
PAST SALE,,Single Family Residential,190 Buck Run Ln,Fort Valley,VA,22652,35000,,,,,50486,,,,,,,,https://www.redfin.com/VA/Fort-Valley/190-Buck-Run-Ln-22652/home/106255444,,,N,Y,38.799784,-78.465994
PAST SALE,October-21-2020,Vacant Land,Mine Mtn,Fort Valley,VA,22652,13000,,,Fort Valley,,43560,,410,,,Sold,,,https://www.redfin.com/VA/FORT-VALLEY/MINE-Mtn-22652/home/147257893,BRIGHT MLS,VASH120132,N,Y,38.89602578,-78.40778959
PAST SALE,May-10-2019,Single Family Residential,798 Glenmont Farm Rd,Fort Valley,VA,22652,480000,3,2.0,Fort Valley,1782,1692611,1896,940,269,,Sold,,,https://www.redfin.com/VA/Fort-Valley/798-Glenmont-Farm-Rd-22652/home/143207851,BRIGHT MLS,1000330592,N,Y,38.9078607,-78.3717777
