SALE TYPE,SOLD DATE,PROPERTY TYPE,ADDRESS,CITY,STATE OR PROVINCE,ZIP OR POSTAL CODE,PRICE,BEDS,BATHS,LOCATION,SQUARE FEET,LOT SIZE,YEAR BUILT,DAYS ON MARKET,$/SQUARE FEET,HOA/MONTH,STATUS,NEXT OPEN HOUSE START TIME,NEXT OPEN HOUSE END TIME,URL (SEE https://www.redfin.com/buy-a-home/comparative-market-analysis FOR INFO ON PRICING),SOURCE,MLS#,FAVORITE,INTERESTED,LATITUDE,LONGITUDE
MLS Listing,,Single Family Residential,1405 Farmer St,Petersburg,VA,23803,47700,2,1.0,,616,7405,1960,2,77,,Active,,,https://www.redfin.com/VA/Petersburg/1405-Farmer-St-23803/home/52377465,CVRMLS,2135465,N,Y,37.2186113,-77.4262852
MLS Listing,,Single Family Residential,922 Halifax St,Petersburg,VA,23803,63600,4,2.5,,2065,5227,1903,2,31,,Active,,,https://www.redfin.com/VA/Petersburg/922-Halifax-St-23803/home/52379979,CVRMLS,2135460,N,Y,37.2131862,-77.4097707
MLS Listing,,Multi-Family (2-4 Unit),529 Harrison St,Petersburg,VA,23803,71020,4,2.0,,2678,8276,1906,2,27,,Active,,,https://www.redfin.com/VA/Petersburg/529-Harrison-St-23803/home/52377726,CVRMLS,2135511,N,Y,37.2187363,-77.4017696
MLS Listing,,Multi-Family (2-4 Unit),1146 Farmer St,Petersburg,VA,23803,79500,,,,2984,6098,1900,2,27,,Active,,,https://www.redfin.com/VA/Petersburg/1146-Farmer-St-23803/home/52377329,CVRMLS,2135505,N,Y,37.219819,-77.420663
MLS Listing,,Single Family Residential,841 Miller St,Petersburg,VA,23803,42400,2,1.0,,875,8712,1960,2,48,,Active,,,https://www.redfin.com/VA/Petersburg/841-Miller-St-23803/home/52374324,CVRMLS,2135458,N,Y,37.2349013,-77.3915419
MLS Listing,,Single Family Residential,216 Liberty St,Petersburg,VA,23803,68900,3,3.0,,1960,3049,1915,2,35,,Active,,,https://www.redfin.com/VA/Petersburg/216-Liberty-St-23803/home/52375608,CVRMLS,2135450,N,Y,37.2221969,-77.4054433
MLS Listing,,Single Family Residential,720 E Wythe St,Petersburg,VA,23803,238500,5,2.5,,2248,,1929,2,106,,Active,,,https://www.redfin.com/VA/Petersburg/720-E-Wythe-St-23803/home/52375051,CVRMLS,2135447,N,Y,37.2295652,-77.3901517
MLS Listing,,Single Family Residential,21507 Court St,South Chesterfield,VA,23803,165000,3,1.0,Ponds & Eanes,1062,9147,1967,2,155,,Active,,,https://www.redfin.com/VA/Petersburg/21507-Court-St-23803/home/59574730,CVRMLS,2135370,N,Y,37.2324474,-77.4253508
MLS Listing,,Single Family Residential,549 Mingea St,Petersburg,VA,23803,83740,4,2.0,,1682,,1929,3,50,,Active,,,https://www.redfin.com/VA/Petersburg/549-Mingea-St-23803/home/52375657,CVRMLS,2135446,N,Y,37.226435,-77.390821
MLS Listing,,Single Family Residential,507 Mistletoe St,Petersburg,VA,23803,55120,3,1.0,,1532,3920,1916,3,36,,Active,,,https://www.redfin.com/VA/Petersburg/507-Mistletoe-St-23803/home/52377174,CVRMLS,2135455,N,Y,37.216526,-77.4077105
MLS Listing,,Single Family Residential,324 Saint Andrew St,Petersburg,VA,23803,108120,3,1.0,,2183,9147,1906,3,50,,Active,,,https://www.redfin.com/VA/Petersburg/324-St-Andrew-St-23803/home/52375192,CVRMLS,2135452,N,Y,37.2237755,-77.3962301
MLS Listing,,Single Family Residential,225 Liberty St,Petersburg,VA,23803,62540,3,1.5,,2456,6534,1911,3,25,,Active,,,https://www.redfin.com/VA/Petersburg/225-Liberty-St-23803/home/52375484,CVRMLS,2135451,N,Y,37.222426,-77.4058532
MLS Listing,,Single Family Residential,1011 Melville St,Petersburg,VA,23803,58300,4,2.0,,1720,3049,1915,3,34,,Active,,,https://www.redfin.com/VA/Petersburg/1011-Melville-St-23803/home/52379845,CVRMLS,2135461,N,Y,37.2126685,-77.4091987
MLS Listing,,Vacant Land,128 S Crater Rd,Petersburg,VA,23803,44900,,,,,6534,,3,,,Active,,,https://www.redfin.com/VA/Petersburg/128-S-Crater-Rd-23803/home/177479262,CVRMLS,2135723,N,Y,37.228579,-77.3908561
MLS Listing,,Single Family Residential,540 Mingea St,Petersburg,VA,23803,74200,2,1.0,,720,,1952,3,103,,Active,,,https://www.redfin.com/VA/Petersburg/540-Mingea-St-23803/home/52375800,CVRMLS,2135445,N,Y,37.2258876,-77.3908805
MLS Listing,,Multi-Family (2-4 Unit),1206 Melville St,Petersburg,VA,23803,90100,,,,1808,8712,1918,3,50,,Active,,,https://www.redfin.com/VA/Petersburg/1206-Melville-St-23803/home/52379941,CVRMLS,2135520,N,Y,37.210797,-77.409684
MLS Listing,,Single Family Residential,1225 Grant Ave,Petersburg,VA,23803,84990,2,1.0,,576,3920,1948,3,148,,Active,,,https://www.redfin.com/VA/Petersburg/1225-Grant-Ave-23803/home/52380152,CVRMLS,2135715,N,Y,37.207875,-77.4211028
MLS Listing,,Multi-Family (2-4 Unit),322 Hinton St,Petersburg,VA,23803,116600,,,,4519,6969,1890,3,26,,Active,,,https://www.redfin.com/VA/Petersburg/322-Hinton-St-23803/home/52375898,CVRMLS,2135512,N,Y,37.2277477,-77.4099721
MLS Listing,,Multi-Family (2-4 Unit),115 S Jefferson St,Petersburg,VA,23803,104940,,,,2248,3920,1925,3,47,,Active,,,https://www.redfin.com/VA/Petersburg/115-S-Jefferson-St-23803/home/52375696,CVRMLS,2135513,N,Y,37.2265652,-77.3989861
MLS Listing,,Vacant Land,628 & 630 Grove Ave,Petersburg,VA,23803,50000,,,,,4791,,3,,,Active,,,https://www.redfin.com/VA/Petersburg/630-Grove-Ave-23803/home/177477573,CVRMLS,2135690,N,Y,37.2308838,-77.4154136
MLS Listing,,Single Family Residential,1228 Mckenzie St,Petersburg,VA,23803,140000,3,2.5,,1590,5227,2007,3,88,,Active,,,https://www.redfin.com/VA/Petersburg/1228-McKenzie-St-23803/home/52376228,CVRMLS,2135624,N,Y,37.2259305,-77.4259925
MLS Listing,,Single Family Residential,1653 Fairfax St,Petersburg,VA,23805,155000,3,1.0,Walnut Hill,1189,7405,1951,4,130,,Active,,,https://www.redfin.com/VA/Petersburg/1653-Fairfax-St-23805/home/52379141,CVRMLS,2135525,N,Y,37.2082268,-77.3942327
MLS Listing,,Single Family Residential,21307 Jackson St,Chesterfield,VA,23803,190000,3,1.0,Orange Hill,912,16117,2021,4,208,,Active,,,https://www.redfin.com/VA/Petersburg/21307-Jackson-St-23803/home/59574716,CVRMLS,2135397,N,Y,37.234521,-77.426832
MLS Listing,,Single Family Residential,20 S Burch St,Petersburg,VA,23803,59999,3,1.0,,849,5227,1951,5,71,,Active,,,https://www.redfin.com/VA/Petersburg/20-S-Burch-St-23803/home/52374787,CVRMLS,2135418,N,Y,37.2310715,-77.3888512
MLS Listing,,Condo/Co-op,826 Halifax St,Petersburg,VA,23803,35999,2,1.0,Battlefield Park,1716,3920,1900,5,21,,Active,,,https://www.redfin.com/VA/Petersburg/826-Halifax-St-23803/home/52379983,CVRMLS,2135494,N,Y,37.2140471,-77.4091134
MLS Listing,,Single Family Residential,1031 Augusta Ave,Petersburg,VA,23803,200000,3,1.5,Westview,1536,16117,1962,10,130,,Active,,,https://www.redfin.com/VA/Petersburg/1031-Augusta-Ave-23803/home/52380001,CVRMLS,2134964,N,Y,37.2114595,-77.4227504
MLS Listing,,Single Family Residential,1401 Ferndale Ave,Petersburg,VA,23803,45000,4,2.0,,2226,4791,1930,17,20,,Active,,,https://www.redfin.com/VA/Petersburg/1401-Ferndale-Ave-23803/home/52377368,CVRMLS,2134868,N,Y,37.21937,-77.4262474
MLS Listing,,Single Family Residential,335 Claremont St,Petersburg,VA,23805,219900,4,2.0,Walnut Hill Addition,2157,18730,1941,20,102,,Active,,,https://www.redfin.com/VA/Petersburg/335-Claremont-St-23805/home/52378916,CVRMLS,2134555,N,Y,37.2094235,-77.3867097
MLS Listing,,Single Family Residential,521 Clinton St,Petersburg,VA,23803,49900,2,1.5,,1479,7405,1893,20,34,,Active,,,https://www.redfin.com/VA/Petersburg/521-Clinton-St-23803/home/52377992,CVRMLS,2134385,N,Y,37.2205825,-77.3962064
MLS Listing,,Vacant Land,335 & 339 University Blvd St,Petersburg,VA,23803,10000,,,,,3920,,23,,,Active,,,https://www.redfin.com/VA/Petersburg/339-Canal-St-23803/home/101393078,CVRMLS,2134334,N,Y,37.2293814,-77.416398
MLS Listing,,Single Family Residential,524 S Dunlop St,Petersburg,VA,23803,225000,4,3.0,,1904,7405,1929,24,118,,Active,,,https://www.redfin.com/VA/Petersburg/524-S-Dunlop-St-23803/home/52377043,CVRMLS,2133511,N,Y,37.2192042,-77.4151285
MLS Listing,,Vacant Land,512 Hinton St,Petersburg,VA,23803,10000,,,,,9583,,25,,,Active,,,https://www.redfin.com/VA/Petersburg/512-Hinton-St-23803/home/59881901,CVRMLS,2134139,N,Y,37.2272127,-77.4113963
MLS Listing,,Multi-Family (2-4 Unit),38 S Jones St,Petersburg,VA,23803,59000,2,1.0,,1344,4791,1900,25,44,,Active,,,https://www.redfin.com/VA/Petersburg/38-S-Jones-St-23803/home/52376437,CVRMLS,2133807,N,Y,37.2244887,-77.4145007
MLS Listing,,Multi-Family (2-4 Unit),211 Shore St,Petersburg,VA,23803,110000,2,1.0,A. P. Hill,1376,,1925,26,80,,Active,,,https://www.redfin.com/VA/Petersburg/211-Shore-St-23803/home/52377908,CVRMLS,2133999,N,Y,37.216008,-77.402932
MLS Listing,,Vacant Land,1238 W High St,Petersburg,VA,23803,14000,,,,,6534,,27,,,Active,,,https://www.redfin.com/VA/Petersburg/1238-W-High-St-23803/home/52376245,CVRMLS,2133864,N,Y,37.2251423,-77.4256952
MLS Listing,,Single Family Residential,1219 Melville St,Petersburg,VA,23803,75000,3,1.0,,988,7840,1919,28,76,,Active,,,https://www.redfin.com/VA/Petersburg/1219-Melville-St-23803/home/52379912,CVRMLS,2133796,N,Y,37.2102822,-77.4091202
MLS Listing,,Single Family Residential,457 Byrne St,Petersburg,VA,23803,89900,3,2.0,,1944,6534,1907,33,46,,Active,,,https://www.redfin.com/VA/Petersburg/457-Byrne-St-23803/home/52377709,CVRMLS,2133340,N,Y,37.2200979,-77.4039187
MLS Listing,,Single Family Residential,825 W Washington St,Petersburg,VA,23803,199500,3,1.5,,1962,3920,1900,33,102,,Active,,,https://www.redfin.com/VA/Petersburg/825-W-Washington-St-23803/home/52375863,CVRMLS,2132465,N,Y,37.225081,-77.4167546
MLS Listing,,Single Family Residential,1437 Halifax St,Petersburg,VA,23803,44500,2,1.0,Cool Springs,994,11761,1900,33,45,,Active,,,https://www.redfin.com/VA/Petersburg/1437-Halifax-St-23803/home/52379513,CVRMLS,2133331,N,Y,37.2080247,-77.4154087
MLS Listing,,Single Family Residential,1605 Wilton Rd,Petersburg,VA,23805,424500,4,2.5,Walnut Hill Addition,3520,17424,1959,35,121,,Active,December-5-2021 01:00 PM,December-5-2021 03:00 PM,https://www.redfin.com/VA/Petersburg/1605-Wilton-Rd-23805/home/52379043,CVRMLS,2131331,N,Y,37.2132945,-77.3893676
MLS Listing,,Vacant Land,509-511 S West St,Petersburg,VA,23803,60000,,,,,7840,,38,,,Active,,,https://www.redfin.com/VA/Petersburg/509-S-West-St-23803/home/52376997,CVRMLS,2132864,N,Y,37.218535,-77.417813
MLS Listing,,Single Family Residential,115 Central Park,Petersburg,VA,23803,225000,3,2.5,,1880,2178,1910,44,120,,Active,,,https://www.redfin.com/VA/Petersburg/115-Central-Park-23803/home/52375558,CVRMLS,2132114,N,Y,37.2240683,-77.399883
MLS Listing,,Single Family Residential,823 Halifax St,Petersburg,VA,23803,29500,3,2.0,Battlefield Park,1984,5662,1901,44,15,,Active,,,https://www.redfin.com/VA/Petersburg/823-Halifax-St-23803/home/52379987,CVRMLS,2132302,N,Y,37.2142153,-77.4097031
MLS Listing,,Vacant Land,926 Wilcox St,Petersburg,VA,23803,12000,,,Stainback,,6969,,45,,,Active,,,https://www.redfin.com/VA/PETERSBURG/926-WILCOX-ST-23803/home/59887129,CVRMLS,2132240,N,Y,37.220245,-77.416691
MLS Listing,,Single Family Residential,102 Early St,Petersburg,VA,23803,120000,3,1.5,,1314,2613,1976,47,91,,Active,,,https://www.redfin.com/VA/Petersburg/102-Early-St-23803/home/52377918,CVRMLS,2131934,N,Y,37.217624,-77.4008247
MLS Listing,,Single Family Residential,930 Willcox,Petersburg,VA,23803,48000,3,2.0,Stainback,2100,,1930,52,23,,Active,,,https://www.redfin.com/VA/PETERSBURG/930-WILCOX-ST-23803/home/52377086,CVRMLS,2131527,N,Y,37.220188,-77.416846
MLS Listing,,Single Family Residential,1146 W Washington St,Petersburg,VA,23803,325000,6,3.0,,3568,7405,1909,59,91,,Active,,,https://www.redfin.com/VA/Petersburg/1146-W-Washington-St-23803/home/59856461,CVRMLS,2130816,N,Y,37.2225242,-77.422459
MLS Listing,,Condo/Co-op,605 S Adams St,Petersburg,VA,23803,103950,3,1.5,,1200,1742,1920,59,87,,Active,,,https://www.redfin.com/VA/Petersburg/605-S-Adams-St-23803/home/52377790,CVRMLS,2130718,N,Y,37.219072,-77.3984949
MLS Listing,,Vacant Land,1109-1111 Rome St,Petersburg,VA,23803,14500,,,,,2613,,63,,,Active,,,https://www.redfin.com/VA/Petersburg/1109-Rome-St-23803/home/101393433,CVRMLS,2130417,N,Y,37.221566,-77.420309
MLS Listing,,Single Family Residential,150 Clayton St,Petersburg,VA,23803,72950,3,1.0,Blandford,944,3920,1929,65,77,,Active,,,https://www.redfin.com/VA/Petersburg/150-Clayton-St-23803/home/52375671,CVRMLS,2130231,N,Y,37.2271531,-77.3922146
MLS Listing,,Single Family Residential,919 Farmer St,Petersburg,VA,23803,145000,3,2.0,,1308,6534,2021,121,111,,Active,,,https://www.redfin.com/VA/Petersburg/919-Farmer-St-23803/home/101393352,CVRMLS,2124450,N,Y,37.2217627,-77.4171224
MLS Listing,,Vacant Land,505 S West St,Petersburg,VA,23803,11000,,,,,1742,,139,,,Active,,,https://www.redfin.com/VA/Petersburg/505-S-West-St-23803/home/52377262,CVRMLS,2122268,N,Y,37.2187141,-77.4179261
MLS Listing,,Single Family Residential,1436 Ferndale Ave,Petersburg,VA,23803,57950,2,1.0,,1320,3920,1916,156,44,,Active,,,https://www.redfin.com/VA/Petersburg/1436-Ferndale-Ave-23803/home/52377454,CVRMLS,2120294,N,Y,37.2186065,-77.4271889
MLS Listing,,Single Family Residential,118 W Tabb St,Petersburg,VA,23803,69500,4,,,2926,2178,1820,268,24,,Active,,,https://www.redfin.com/VA/Petersburg/118-W-Tabb-St-23803/home/174681495,CVRMLS,2106693,N,Y,37.2297348,-77.4062748
MLS Listing,,Single Family Residential,21611 Pannill St,Chesterfield,VA,23803,124900,2,1.0,,996,10890,1960,311,125,,Active,,,https://www.redfin.com/VA/South-Chesterfield/21611-Pannill-St-23803/home/59576418,CVRMLS,2101782,N,Y,37.2325188,-77.4233333
MLS Listing,,Single Family Residential,728 Harding St,Petersburg,VA,23803,90000,4,2.0,,1488,17859,1900,316,60,,Active,,,https://www.redfin.com/VA/Petersburg/728-Harding-St-23803/home/52377886,CVRMLS,2037467,N,Y,37.2159375,-77.4047195
MLS Listing,,Single Family Residential,404 North Carolina Ave,Petersburg,VA,23803,105000,3,2.0,,1100,9147,1906,316,95,,Active,,,https://www.redfin.com/VA/Petersburg/404-N-Carolina-Ave-23803/home/52379239,CVRMLS,2037496,N,Y,37.2114802,-77.4057124
MLS Listing,,Vacant Land,818 Cameron St,Petersburg,VA,23803,9000,,,Blandford,,4791,,424,,,Active,,,https://www.redfin.com/VA/Petersburg/818-Cameron-St-23803/home/101393184,CVRMLS,2030753,N,Y,37.2287847,-77.3877958
MLS Listing,,Single Family Residential,3513 South St,Chesterfield,VA,23803,249999,3,2.0,Laurel Branch Farms,1316,7405,2021,7299,190,,Active,,,https://www.redfin.com/VA/Petersburg/3513-South-St-23803/home/59575033,CVRMLS,2128832,N,Y,37.2417071,-77.4268559
PAST SALE,August-1-2019,Single Family Residential,20212 Sheffield Pl,Chesterfield,VA,23803,80000,3,1.0,College Park,1148,10890,1958,857,70,,Sold,,,https://www.redfin.com/VA/South-Chesterfield/20212-Sheffield-Pl-23803/home/59576212,CVRMLS,1913552,N,Y,37.2453385,-77.4242748
PAST SALE,December-18-2020,Single Family Residential,492 Montibello St,Petersburg,VA,23805,139950,4,1.0,Walnut Hill,1241,10018,1955,352,113,,Sold,,,https://www.redfin.com/VA/Petersburg/492-Montibello-St-23805/home/52378197,CVRMLS,2032616,N,Y,37.2173127,-77.3887615
PAST SALE,October-12-2020,Single Family Residential,314 Ivey Ave,Colonial Heights,VA,23834,154000,3,1.5,Colonial Heights,999,6969,1988,419,154,,Sold,,,https://www.redfin.com/VA/Colonial-Heights/314-Ivey-Ave-23834/home/52864545,CVRMLS,2024502,N,Y,37.2447452,-77.4007798
PAST SALE,July-16-2020,Single Family Residential,509 Colonial Ave,Colonial Heights,VA,23834,175000,3,2.0,Colonial Heights,1448,6098,1932,507,121,,Sold,,,https://www.redfin.com/VA/Colonial-Heights/509-Colonial-Ave-23834/home/52864538,CVRMLS,2016542,N,Y,37.2455434,-77.4028425
PAST SALE,,Single Family Residential,148 Culpeper Ave,Petersburg,VA,23803,45000,3,1.0,,936,7050,1949,,48,,,,,https://www.redfin.com/VA/Petersburg/148-Culpeper-Ave-23803/home/52374460,,,N,Y,37.236751,-77.3775605
PAST SALE,October-19-2021,Single Family Residential,920 Prince Ave,Petersburg,VA,23803,95000,7,3.0,,2896,6534,1930,47,33,,Sold,,,https://www.redfin.com/VA/Petersburg/920-Prince-Ave-23803/home/52379720,CVRMLS,2127539,N,Y,37.2128551,-77.4127521
PAST SALE,May-19-2021,Vacant Land,21520 Jackson St,Chesterfield,VA,23803,14000,,,Ponds & Eanes,,35283,,200,,,Sold,,,https://www.redfin.com/VA/Petersburg/21520-Jackson-St-23803/home/59574757,CVRMLS,2025178,N,Y,37.231787,-77.427348
PAST SALE,,Single Family Residential,801 Harding St,Petersburg,VA,23803,45000,3,2.0,,2342,8313,1901,,19,,,,,https://www.redfin.com/VA/Petersburg/801-Harding-St-23803/home/52377981,,,N,Y,37.2153764,-77.4040444
PAST SALE,August-11-2020,Single Family Residential,224 Hamilton Ave,Colonial Heights,VA,23834,194000,5,2.0,,2272,3484,1924,481,85,,Sold,,,https://www.redfin.com/VA/Colonial-Heights/224-Hamilton-Ave-23834/home/52863734,CVRMLS,2013881,N,Y,37.2438059,-77.4062713
PAST SALE,,Single Family Residential,616 Greensville Ave,Petersburg,VA,23803,62000,3,1.0,,884,3220,1953,,70,,,,,https://www.redfin.com/VA/Petersburg/616-Greensville-Ave-23803/home/52378327,,,N,Y,37.2189289,-77.3842767
PAST SALE,January-28-2021,Single Family Residential,1034 Farmer St,Petersburg,VA,23803,50000,2,1.5,,1086,6969,1932,311,46,,Sold,,,https://www.redfin.com/VA/Petersburg/1034-Farmer-St-23803/home/52377159,CVRMLS,2031928,N,Y,37.2206918,-77.4186257
PAST SALE,,Single Family Residential,1205 St James St,Petersburg,VA,23803,27500,2,1.0,,1282,5200,1954,,21,,,,,https://www.redfin.com/VA/Petersburg/1205-St-James-St-23803/home/52379903,,,N,Y,37.2108568,-77.4079544
PAST SALE,,Single Family Residential,913 Laurel Rd,Petersburg,VA,23805,135000,2,1.0,,1000,10492,1962,,135,,,,,https://www.redfin.com/VA/Petersburg/913-Laurel-Rd-23805/home/52378247,,,N,Y,37.2156126,-77.3890305
PAST SALE,October-27-2021,Single Family Residential,106 Walkover St,Petersburg,VA,23803,55000,2,1.0,,948,2613,1917,39,58,,Sold,,,https://www.redfin.com/VA/Petersburg/106-Walkover-St-23803/home/52379601,CVRMLS,2130557,N,Y,37.209945,-77.4151733
PAST SALE,,Single Family Residential,435 Harding St,Petersburg,VA,23803,27500,2,1.0,,640,4500,1910,,43,,,,,https://www.redfin.com/VA/Petersburg/435-Harding-St-23803/home/52377658,,,N,Y,37.220461,-77.4058581
PAST SALE,,Multi-Family (2-4 Unit),1106 Bolling St,Petersburg,VA,23803,10600,4,2.0,,1020,8550,1952,,10,,,,,https://www.redfin.com/VA/Petersburg/1106-Bolling-St-23803/home/52379233,,,N,Y,37.2120367,-77.4070576
PAST SALE,July-31-2020,Single Family Residential,775 Allen Ave,Petersburg,VA,23805,105000,3,2.0,,1342,13068,1961,492,78,,Sold,,,https://www.redfin.com/VA/Petersburg/775-Allen-Ave-23805/home/52378665,CVRMLS,2015284,N,Y,37.2120876,-77.3810532
PAST SALE,October-19-2021,Single Family Residential,334 Rolfe St,Petersburg,VA,23803,109500,3,1.0,,1040,5227,1996,47,105,,Sold,,,https://www.redfin.com/VA/Petersburg/334-Rolfe-St-23803/home/52374362,CVRMLS,2125649,N,Y,37.2374976,-77.3976857
PAST SALE,October-8-2020,Single Family Residential,166 Chesterfield Ave,Colonial Heights,VA,23834,212500,3,1.5,,1685,10890,1936,423,126,,Sold,,,https://www.redfin.com/VA/Colonial-Heights/166-Chesterfield-Ave-23834/home/52863897,CVRMLS,2024877,N,Y,37.2403173,-77.4078198
PAST SALE,,Single Family Residential,1338 Steel St,Petersburg,VA,23803,42000,3,1.0,,1001,8800,1987,,42,,,,,https://www.redfin.com/VA/Petersburg/1338-Steel-St-23803/home/52380206,,,N,Y,37.209911,-77.4198362
PAST SALE,October-19-2021,Single Family Residential,716 Marks Aly,Petersburg,VA,23803,60000,4,2.0,Blandford,1120,4791,1963,47,54,,Sold,,,https://www.redfin.com/VA/Petersburg/716-Marks-Aly-23803/home/52375809,CVRMLS,2035599,N,Y,37.2276944,-77.3889296
PAST SALE,,Single Family Residential,420 St Matthew St,Petersburg,VA,23803,10000,2,1.0,,676,4087,1912,,15,,,,,https://www.redfin.com/VA/Petersburg/420-St-Matthew-St-23803/home/52379102,,,N,Y,37.2142562,-77.4062689
PAST SALE,July-23-2020,Vacant Land,740 Stratford Ave,Petersburg,VA,23803,9000,,,,,8712,,500,,,Sold,,,https://www.redfin.com/VA/Petersburg/740-Stratford-Ave-23803/home/52375447,CVRMLS,2008103,N,Y,37.2215471,-77.3814512
PAST SALE,,Single Family Residential,381 Terrace Ave,Petersburg,VA,23803,110000,3,2.0,,1275,7500,2006,,86,,,,,https://www.redfin.com/VA/Petersburg/381-Terrace-Ave-23803/home/52375284,,,N,Y,37.22339,-77.390432
PAST SALE,October-19-2021,Single Family Residential,453 Roundtop Ave,Petersburg,VA,23803,150000,3,1.0,Meadow Brook Farm,988,7405,1971,47,152,,Sold,,,https://www.redfin.com/VA/Petersburg/453-Round-Top-Ave-23803/home/52375764,CVRMLS,2116774,N,Y,37.2233186,-77.3871918
PAST SALE,,Single Family Residential,528 St Andrew St,Petersburg,VA,23803,15950,2,1.0,,660,11029,1950,,24,,,,,https://www.redfin.com/VA/Petersburg/528-St-Andrew-St-23803/home/52375269,,,N,Y,37.2247829,-77.3904656
PAST SALE,,Single Family Residential,829 Cameron St,Petersburg,VA,23803,75000,4,1.5,,1296,7000,1971,,58,,,,,https://www.redfin.com/VA/Petersburg/829-Cameron-St-23803/home/52375032,,,N,Y,37.2292164,-77.3879654
PAST SALE,June-4-2019,Single Family Residential,510 Braxton Ave,Colonial Heights,VA,23834,150000,3,2.0,,1278,8276,1954,915,117,,Sold,,,https://www.redfin.com/VA/Colonial-Heights/510-Braxton-Ave-23834/home/52863155,CVRMLS,1912371,N,Y,37.2442342,-77.4147698
PAST SALE,,Single Family Residential,107 S Jefferson St,Petersburg,VA,23803,54792,5,3.0,,1882,4158,1910,,29,,,,,https://www.redfin.com/VA/Petersburg/107-S-Jefferson-St-23803/home/52375690,,,N,Y,37.226771,-77.3989861
PAST SALE,March-7-2019,Condo/Co-op,424 W Washington St,Petersburg,VA,23803,195000,5,4.5,,3668,10890,1850,1004,53,,Sold,,,https://www.redfin.com/VA/Petersburg/424-W-Washington-St-23803/home/52375828,CVRMLS,1837592,N,Y,37.2261388,-77.410334
PAST SALE,November-19-2021,Single Family Residential,514 Chestnut Ave,,VA,23834,153487,2,1.0,,,,1954,16,,,Sold,,,https://www.redfin.com/VA/Colonial-Heights/514-Chestnut-Ave-23834/home/52864963,CVRMLS,2135192,N,Y,37.2449205,-77.3970579
PAST SALE,June-25-2021,Single Family Residential,754 Myrick Ave,Petersburg,VA,23805,193000,3,1.5,,1690,13939,1959,163,114,,Sold,,,https://www.redfin.com/VA/Petersburg/754-Myrick-Ave-23805/home/52378691,CVRMLS,2114288,N,Y,37.2135046,-77.3828415
PAST SALE,July-16-2020,Single Family Residential,130 Marshall St,Petersburg,VA,23803,225000,5,2.5,,3125,15245,1875,507,72,,Sold,,,https://www.redfin.com/VA/Petersburg/130-Marshall-St-23803/home/52375518,CVRMLS,1937993,N,Y,37.2252627,-77.399691
PAST SALE,,Single Family Residential,720 Miller St,Petersburg,VA,23803,75000,2,1.0,,972,5350,1952,,77,,,,,https://www.redfin.com/VA/Petersburg/720-Miller-St-23803/home/52374885,,,N,Y,37.233591,-77.3935151
PAST SALE,May-1-2020,Single Family Residential,1664 Mount Vernon St,Petersburg,VA,23805,151950,3,1.5,Walnut Hill,1428,7405,1930,583,106,,Sold,,,https://www.redfin.com/VA/Petersburg/1664-Mt-Vernon-St-23805/home/52379123,CVRMLS,1938967,N,Y,37.2098769,-77.3915868
PAST SALE,,Single Family Residential,3812 Greenwood Dr,Petersburg,VA,23803,145000,3,1.0,,1047,10237,1958,,138,,,,,https://www.redfin.com/VA/Petersburg/3812-Greenwood-Dr-23803/home/59574012,,,N,Y,37.2355928,-77.4284778
PAST SALE,October-8-2020,Single Family Residential,418 Hamilton Ave,Colonial Heights,VA,23834,155000,3,1.0,,1107,4791,1971,423,140,,Sold,,,https://www.redfin.com/VA/Colonial-Heights/418-Hamilton-Ave-23834/home/52864200,CVRMLS,2024034,N,Y,37.2454615,-77.4042956
PAST SALE,July-13-2020,Single Family Residential,1635 S Sycamore St,Petersburg,VA,23805,240000,3,2.0,,2296,13068,1926,510,105,,Sold,,,https://www.redfin.com/VA/Petersburg/1635-S-Sycamore-St-23805/home/52378997,CVRMLS,2013608,N,Y,37.20952,-77.3938591
PAST SALE,March-1-2019,Single Family Residential,34 Liberty St,Petersburg,VA,23803,10000,2,,,1944,6534,1850,1010,5,,Sold,,,https://www.redfin.com/VA/Petersburg/34-Liberty-St-23803/home/52375532,CVRMLS,1902739,N,Y,37.222659,-77.4027287
PAST SALE,December-15-2020,Single Family Residential,515 S Dunlop St,Petersburg,VA,23803,162000,4,2.5,Poorhouse Plat,1644,7405,1931,355,99,,Sold,,,https://www.redfin.com/VA/Petersburg/515-S-Dunlop-St-23803/home/52377137,CVRMLS,2030945,N,Y,37.2196596,-77.4147698
PAST SALE,,Other,680 Pegram St #82,Petersburg,VA,23803,43000,4,2.0,,1904,7350,1925,,23,,,,,https://www.redfin.com/VA/Petersburg/680-Pegram-St-23803/unit-82/home/52377145,,,N,Y,37.215633,-77.415124
PAST SALE,,Multi-Family (2-4 Unit),901 Priam St,Petersburg,VA,23803,18500,4,2.0,,1484,5500,1957,,12,,,,,https://www.redfin.com/VA/Petersburg/901-Priam-St-23803/home/52375303,,,N,Y,37.228977,-77.386522
PAST SALE,,Single Family Residential,814 Fort Henry St,Petersburg,VA,23803,48500,3,1.0,,864,6708,1954,,56,,,,,https://www.redfin.com/VA/Petersburg/814-Fort-Henry-St-23803/home/52374040,,,N,Y,37.2296663,-77.4186257
PAST SALE,,Single Family Residential,511 Windham St,Petersburg,VA,23803,79000,4,1.0,,1664,11250,1964,,47,,,,,https://www.redfin.com/VA/Petersburg/511-Windham-St-23803/home/52375749,,,N,Y,37.2217325,-77.3873712
PAST SALE,,Single Family Residential,1116 Rome St,Petersburg,VA,23803,44000,2,1.0,,920,6000,1900,,48,,,,,https://www.redfin.com/VA/Petersburg/1116-Rome-St-23803/home/52377209,,,N,Y,37.2212043,-77.4203294
PAST SALE,February-4-2019,Vacant Land,822 W High St,Petersburg,VA,23803,7000,,,,,21780,,1035,,,Sold,,,https://www.redfin.com/VA/Petersburg/822-W-High-St-23803/home/59863590,CVRMLS,1819827,N,Y,37.22784,-77.418353
PAST SALE,February-21-2019,Single Family Residential,3500 E River Rd,Chesterfield,VA,23803,57000,2,1.5,,1008,7405,1950,1018,57,,Sold,,,https://www.redfin.com/VA/South-Chesterfield/3500-E-River-Rd-23803/home/59575067,CVRMLS,1902810,N,Y,37.2416602,-77.4256646
PAST SALE,August-11-2021,Multi-Family (2-4 Unit),840A & 840B S Jones St,Petersburg,VA,23803,110008,4,2.0,,1296,8712,1972,116,85,,Sold,,,https://www.redfin.com/VA/Petersburg/840-S-Jones-St-23803/home/52379957,CVRMLS,2120638,N,Y,37.213878,-77.410831
PAST SALE,January-10-2020,Single Family Residential,414 Clinton St,Petersburg,VA,23803,45000,3,1.0,,1940,5227,1915,695,23,,Sold,,,https://www.redfin.com/VA/Petersburg/414-Clinton-St-23803/home/52375232,CVRMLS,1929389,N,Y,37.2221172,-77.3970656
PAST SALE,,Single Family Residential,220 Mercury St,Petersburg,VA,23803,14500,2,1.0,,1408,4704,1911,,10,,,,,https://www.redfin.com/VA/Petersburg/220-Mercury-St-23803/home/52378139,,,N,Y,37.2194392,-77.3966543
PAST SALE,March-12-2019,Single Family Residential,322 Jackson Ave,Colonial Heights,VA,23834,118300,3,1.0,Colonial Heights,1288,5227,1951,999,92,,Sold,,,https://www.redfin.com/VA/Colonial-Heights/322-Jackson-Ave-23834/home/52863816,CVRMLS,1841144,N,Y,37.2423547,-77.4041878
PAST SALE,August-28-2020,Single Family Residential,1105 W Booker Cir,Petersburg,VA,23803,70000,3,1.5,Westview,1565,6969,1966,464,45,,Sold,,,https://www.redfin.com/VA/Petersburg/1105-W-Booker-Cir-23803/home/52380336,CVRMLS,2006974,N,Y,37.2114862,-77.4184015
PAST SALE,February-28-2020,Vacant Land,842 Gladstone St,Petersburg,VA,23803,3000,,,,,3484,,646,,,Sold,,,https://www.redfin.com/VA/Petersburg/842-Gladstone-St-23803/home/52377518,CVRMLS,1936483,N,Y,37.214739,-77.4122507
PAST SALE,August-26-2021,Single Family Residential,415 Hinton St,Petersburg,VA,23803,170000,2,1.5,,1188,6969,1860,101,143,,Sold,,,https://www.redfin.com/VA/Petersburg/415-Hinton-St-23803/home/52374819,CVRMLS,2121127,N,Y,37.2278594,-77.4107232
PAST SALE,August-31-2021,Condo/Co-op,126 N Jefferson St,Petersburg,VA,23803,60000,2,1.5,,1200,,1916,96,50,,Sold,,,https://www.redfin.com/VA/Petersburg/126-N-Jefferson-St-23803/home/174919130,CVRMLS,2110010,N,Y,37.2300714,-77.4003166
PAST SALE,,Single Family Residential,1320 W Wythe St,Petersburg,VA,23803,30000,4,2.0,,1332,4950,1917,,23,,,,,https://www.redfin.com/VA/Petersburg/1320-W-Wythe-St-23803/home/52377356,,,N,Y,37.2206205,-77.4248576
PAST SALE,,Single Family Residential,105 Culpepper Ave,Petersburg,VA,23803,32225,2,1.0,,960,5000,1952,,34,,,,,https://www.redfin.com/VA/Petersburg/105-Culpepper-Ave-23803/home/52374284,,,N,Y,37.2356604,-77.3761522
PAST SALE,April-23-2021,Vacant Land,316 Rolfe St,Petersburg,VA,23803,13500,,,,,10018,,226,,,Sold,,,https://www.redfin.com/VA/Petersburg/316-Rolfe-St-23803/home/59884535,CVRMLS,2102451,N,Y,37.237528,-77.398022
PAST SALE,,Single Family Residential,106 Culpeper Ave,Petersburg,VA,23803,45000,3,1.0,,988,5500,1974,,46,,,,,https://www.redfin.com/VA/Petersburg/106-Culpeper-Ave-23803/home/52374432,,,N,Y,37.2354675,-77.3765625
PAST SALE,November-7-2019,Vacant Land,100 S West St,Petersburg,VA,23803,7000,,,,,8276,,759,,,Sold,,,https://www.redfin.com/VA/Petersburg/100-S-West-St-23803/home/146427900,CVRMLS,1827216,N,Y,37.2222807,-77.4203953
PAST SALE,July-15-2021,Single Family Residential,1765 Oakland St,Petersburg,VA,23805,245000,4,2.0,Walnut Hill,2010,13503,1947,143,122,,Sold,,,https://www.redfin.com/VA/Petersburg/1765-Oakland-St-23805/home/52378879,CVRMLS,2116025,N,Y,37.2072772,-77.3858015
PAST SALE,September-23-2019,Condo/Co-op,417 N Dunlop St,Petersburg,VA,23803,18500,3,1.5,,1440,5227,1920,804,13,,Sold,,,https://www.redfin.com/VA/Petersburg/417-N-Dunlop-St-23803/home/52374054,CVRMLS,1814874,N,Y,37.2283412,-77.4197017
PAST SALE,October-16-2020,Single Family Residential,431 Roslyn Ave,Colonial Heights,VA,23834,139950,3,2.0,,1064,5227,1979,415,132,,Sold,,,https://www.redfin.com/VA/Colonial-Heights/431-Roslyn-Ave-23834/home/52863653,CVRMLS,2029025,N,Y,37.2417047,-77.4000623
PAST SALE,June-16-2021,Single Family Residential,246 Grove Ave,Petersburg,VA,23803,133000,3,2.0,,3102,11325,1850,172,43,,Sold,,,https://www.redfin.com/VA/Petersburg/246-Grove-Ave-23803/home/52374490,CVRMLS,2113463,N,Y,37.2322931,-77.4089857
PAST SALE,September-10-2021,Single Family Residential,1442 Halifax St,Petersburg,VA,23803,80000,3,2.0,,1704,5227,1912,86,47,,Sold,,,https://www.redfin.com/VA/Petersburg/1442-Halifax-St-23803/home/52379834,CVRMLS,2120608,N,Y,37.2077263,-77.4152181
PAST SALE,October-23-2020,Single Family Residential,1662 Blair Rd,Petersburg,VA,23805,204000,3,2.5,Walnut Hill Addition,2165,60112,1941,408,94,,Sold,,,https://www.redfin.com/VA/Petersburg/1662-Blair-Rd-23805/home/52378913,CVRMLS,2026494,N,Y,37.2101422,-77.3867882
PAST SALE,October-12-2020,Single Family Residential,1668 S Sycamore St,Petersburg,VA,23805,150000,0,1.5,Walnut Hill Addition,2662,26136,1959,419,56,,Sold,,,https://www.redfin.com/VA/Petersburg/1668-S-Sycamore-St-23805/home/59862990,CVRMLS,2015973,N,Y,37.2083142,-77.3935151
PAST SALE,February-27-2020,Multi-Family (2-4 Unit),1336-1338 Hinton St,Petersburg,VA,23803,10000,2,2.0,,2048,4791,1915,647,5,,Sold,,,https://www.redfin.com/VA/Petersburg/1336-Hinton-St-23803/home/52376047,CVRMLS,1932188,N,Y,37.221969,-77.426164
PAST SALE,,Multi-Family (5+ Unit),15 N Union St,Petersburg,VA,23803,3560324,,4.0,,30102,16486,1917,,118,,,,,https://www.redfin.com/VA/Petersburg/15-N-Union-St-23803/home/52374883,,,N,Y,37.2280876,-77.4045241
PAST SALE,,Unknown,1201 Commerce St,Petersburg,VA,23803,850000,,3.0,,,176854,1987,,,,,,,https://www.redfin.com/VA/Petersburg/1201-Commerce-St-23803/home/102231464,,,N,Y,37.2242205,-77.4248352
PAST SALE,January-22-2021,Multi-Family (2-4 Unit),1235 Washington St,Petersburg,VA,23803,55000,,,,2128,,1922,317,26,,Sold,,,https://www.redfin.com/VA/Petersburg/1235-W-Washington-St-23803/home/52376068,CVRMLS,2020159,N,Y,37.2222101,-77.4244205
PAST SALE,July-1-2021,Single Family Residential,622 High St,Petersburg,VA,23803,239900,3,2.5,,1978,11325,1850,157,121,,Sold,,,https://www.redfin.com/VA/Petersburg/622-High-St-23803/home/52375970,CVRMLS,2116056,N,Y,37.2279737,-77.4148482
PAST SALE,,Single Family Residential,225 High St,Petersburg,VA,23803,70000,3,2.0,,2608,18720,1800,,27,,,,,https://www.redfin.com/VA/Petersburg/225-High-St-23803/home/52374635,,,N,Y,37.2312395,-77.4082794
PAST SALE,April-10-2020,Single Family Residential,414 St Luke St,Petersburg,VA,23803,18000,2,1.0,,800,4791,1918,604,23,,Sold,,,https://www.redfin.com/VA/Petersburg/414-St-Luke-St-23803/home/52379308,CVRMLS,2004254,N,Y,37.2104482,-77.4060711
PAST SALE,,Multi-Family (5+ Unit),301 N Dunlop St,Petersburg,VA,23803,2700000,,3.0,,19800,74473,1922,,136,,,,,https://www.redfin.com/VA/Petersburg/301-N-Dunlop-St-23803/home/52376195,,,N,Y,37.2272338,-77.4187826
PAST SALE,May-17-2019,Condo/Co-op,422 High St #203,Petersburg,VA,23803,123700,1,1.0,,894,871,2008,933,138,,Sold,,,https://www.redfin.com/VA/Petersburg/422-High-St-23803/unit-203/home/52374627,CVRMLS,1830699,N,Y,37.2287357,-77.4111907
PAST SALE,,Condo/Co-op,30 Franklin St,Petersburg,VA,23803,2617151,,,,36201,,1930,,72,,,,,https://www.redfin.com/VA/Petersburg/30-Franklin-St-23803/home/148547173,,,N,Y,37.2286528,-77.4022204
PAST SALE,December-3-2020,Vacant Land,1241 Montgomery Ave,Petersburg,VA,23803,4200,,,,,4356,,367,,,Sold,,,https://www.redfin.com/VA/Petersburg/1241-Montgomery-Ave-23803/home/59858072,CVRMLS,2030809,N,Y,37.2073319,-77.4219143
PAST SALE,September-21-2020,Condo/Co-op,525 W Washington St,Petersburg,VA,23803,127000,5,2.5,,2901,4356,1850,440,44,,Sold,,,https://www.redfin.com/VA/Petersburg/525-W-Washington-St-23803/home/52375890,CVRMLS,2017144,N,Y,37.2264587,-77.4121865
PAST SALE,January-4-2019,Single Family Residential,541 Roslyn Ave,Colonial Heights,VA,23834,125000,3,1.0,Grove Park,1113,9147,1940,1066,112,,Sold,,,https://www.redfin.com/VA/Colonial-Heights/541-Roslyn-Ave-23834/home/52864893,CVRMLS,1832684,N,Y,37.2429933,-77.3975063
PAST SALE,,Single Family Residential,511 S Jefferson St,Petersburg,VA,23803,60000,3,1.0,,1462,6150,1935,,41,,,,,https://www.redfin.com/VA/Petersburg/511-S-Jefferson-St-23803/home/52378007,,,N,Y,37.2206789,-77.3974614
PAST SALE,June-8-2021,Single Family Residential,711 S West St,Petersburg,VA,23803,85000,3,1.5,,988,15681,1990,180,86,,Sold,,,https://www.redfin.com/VA/Petersburg/711-S-West-St-23803/home/52377132,CVRMLS,2111475,N,Y,37.2153021,-77.4159804
PAST SALE,November-12-2021,Single Family Residential,1964 N Westchester Dr,Petersburg,VA,23805,255000,4,2.5,,2376,22651,1969,23,107,,Sold,,,https://www.redfin.com/VA/Petersburg/1964-N-Westchester-Dr-23805/home/52378675,CVRMLS,2127132,N,Y,37.2079292,-77.3806775
PAST SALE,,Single Family Residential,216 S South St,Petersburg,VA,23803,45000,3,1.0,,1284,5655,1915,,35,,,,,https://www.redfin.com/VA/Petersburg/216-S-South-St-23803/home/52376314,,,N,Y,37.2228927,-77.4145904
PAST SALE,,Single Family Residential,435 Cross St,Petersburg,VA,23803,40000,2,1.0,,1468,4159,1835,,27,,,,,https://www.redfin.com/VA/Petersburg/435-Cross-St-23803/home/52374510,,,N,Y,37.2312752,-77.4126077
PAST SALE,August-10-2021,Single Family Residential,1522 Westover Ave,Petersburg,VA,23805,330000,5,4.0,Walnut Hill,3696,53143,1920,117,89,,Sold,,,https://www.redfin.com/VA/Petersburg/1522-Westover-Ave-23805/home/52379430,CVRMLS,2114475,N,Y,37.2098475,-77.4001072
PAST SALE,July-31-2019,Condo/Co-op,619 Adams St,Petersburg,VA,23803,60000,3,1.5,,1200,1742,1920,858,50,,Sold,,,https://www.redfin.com/VA/Petersburg/619-S-Adams-St-23803/home/52377795,CVRMLS,1908946,N,Y,37.218705,-77.3983989
PAST SALE,October-23-2019,Single Family Residential,917 Harding St,Petersburg,VA,23803,34100,3,1.0,,864,3484,1956,774,39,,Sold,,,https://www.redfin.com/VA/Petersburg/917-Harding-St-23803/home/52377497,CVRMLS,1922136,N,Y,37.2143062,-77.4037083
PAST SALE,December-23-2019,Single Family Residential,546 Riverview Rd,Colonial Heights,VA,23834,105500,2,1.0,Grove Park,744,9583,1940,713,142,,Sold,,,https://www.redfin.com/VA/Colonial-Heights/546-Riverview-Rd-23834/home/52864900,CVRMLS,1936168,N,Y,37.2425635,-77.3969009
PAST SALE,,Single Family Residential,523 Riverview Rd,Colonial Heights,VA,23834,105000,2,1.0,,1140,12197,1940,,92,,,,,https://www.redfin.com/VA/Colonial-Heights/523-Riverview-Rd-23834/home/52864890,,,N,Y,37.241921,-77.3971027
PAST SALE,,Multi-Family (5+ Unit),450 Van Buren Dr,Petersburg,VA,23803,2867398,,,,,212137,1983,,,,,,,https://www.redfin.com/VA/Petersburg/450-Van-Buren-Dr-23803/home/52377015,,,N,Y,37.2208842,-77.4087391
PAST SALE,February-14-2019,Condo/Co-op,220 Jefferson St,Petersburg,VA,23803,60000,4,1.5,,1920,,1916,1025,31,,Sold,,,https://www.redfin.com/VA/Petersburg/220-S-Jefferson-St-23803/home/173428271,CVRMLS,1834496,N,Y,37.2249358,-77.3988215
PAST SALE,December-3-2020,Vacant Land,1239 Montgomery Ave,Petersburg,VA,23803,4200,,,,,4356,,367,,,Sold,,,https://www.redfin.com/VA/Petersburg/1239-Montgomery-Ave-23803/home/59858071,CVRMLS,2030807,N,Y,37.2074102,-77.4219452
PAST SALE,October-30-2020,Multi-Family (2-4 Unit),107 N Jefferson St,Petersburg,VA,23803,234000,7,5.0,,4100,10018,1890,401,57,,Sold,,,https://www.redfin.com/VA/Petersburg/107-N-Jefferson-St-23803/home/52374873,CVRMLS,2024837,N,Y,37.2295288,-77.3997484
PAST SALE,,Multi-Family (5+ Unit),215 N Market St,Petersburg,VA,23803,175500,2,1.0,,2916,4446,1830,,60,,,,,https://www.redfin.com/VA/Petersburg/215-N-Market-St-23803/home/101393025,,,N,Y,37.2302705,-77.4070443
PAST SALE,,Single Family Residential,310 Maple Ln,Colonial Heights,VA,23834,115000,3,1.0,,1064,11761,1952,,108,,,,,https://www.redfin.com/VA/Colonial-Heights/310-Maple-Ln-23834/home/52863101,,,N,Y,37.2450927,-77.4170116
PAST SALE,August-10-2020,Single Family Residential,122 Lee Ave,Colonial Heights,VA,23834,140000,2,1.0,Colonial Heights,960,4791,1916,482,146,,Sold,,,https://www.redfin.com/VA/Colonial-Heights/122-Lee-Ave-23834/home/52864401,CVRMLS,2018806,N,Y,37.2444279,-77.4085373
PAST SALE,,Single Family Residential,101 Lafayette Ave,Colonial Heights,VA,23834,159800,4,2.0,,2112,3485,1956,,76,,,,,https://www.redfin.com/VA/Colonial-Heights/101-Lafayette-Ave-23834/home/52864326,,,N,Y,37.2426771,-77.4082346
PAST SALE,December-18-2018,Vacant Land,1215 Young Rd,Petersburg,VA,23803,30000,,,,,108900,,1083,,,Sold,,,https://www.redfin.com/VA/Petersburg/1215-Youngs-Rd-23803/home/148354098,CVRMLS,1837170,N,Y,37.2151735,-77.4275768
PAST SALE,,Single Family Residential,211 Marvin Ave,Colonial Heights,VA,23834,134000,3,2.0,,1864,16553,1935,,72,,,,,https://www.redfin.com/VA/Colonial-Heights/211-Marvin-Ave-23834/home/52863594,,,N,Y,37.2408802,-77.4111379
PAST SALE,November-23-2021,Single Family Residential,210 Jefferson Ave,Colonial Heights,VA,23834,126323,4,2.0,,1775,12632,1936,12,71,,Sold,,,https://www.redfin.com/VA/Colonial-Heights/210-Jefferson-Ave-23834/home/52864026,CVRMLS,2132978,N,Y,37.2409076,-77.403724
PAST SALE,July-13-2021,Single Family Residential,3818 Greenwood Dr,South Chesterfield,VA,23803,183818,3,2.0,Orange Hill,1008,10454,1975,145,182,,Sold,,,https://www.redfin.com/VA/Petersburg/3818-Greenwood-Dr-23803/home/59574016,CVRMLS,2116584,N,Y,37.2352614,-77.4289373
PAST SALE,July-1-2021,Single Family Residential,232 Archer Ave,Colonial Heights,VA,23834,163000,3,1.5,,1030,8276,1990,157,158,,Sold,,,https://www.redfin.com/VA/Colonial-Heights/232-Archer-Ave-23834/home/52864006,CVRMLS,2108709,N,Y,37.2355655,-77.4118553
PAST SALE,,Single Family Residential,215 Lee Ave,Colonial Heights,VA,23834,62000,4,1.5,,1898,12632,1928,,33,,,,,https://www.redfin.com/VA/Colonial-Heights/215-Lee-Ave-23834/home/52864384,,,N,Y,37.2446655,-77.4076853
PAST SALE,,Single Family Residential,810 Harding St,Petersburg,VA,23803,33000,3,1.0,,1549,3276,1915,,21,,,,,https://www.redfin.com/VA/Petersburg/810-Harding-St-23803/home/52378031,,,N,Y,37.2151372,-77.4044008
PAST SALE,September-15-2021,Single Family Residential,18 E Fillmore St,Petersburg,VA,23803,275000,5,2.5,,4548,9147,1880,81,60,,Sold,,,https://www.redfin.com/VA/Petersburg/18-E-Fillmore-St-23803/home/52375594,CVRMLS,2122489,N,Y,37.2217241,-77.4002866
PAST SALE,August-2-2019,Single Family Residential,923 E Wills Rd,Petersburg,VA,23803,35000,2,1.0,,741,2178,1957,856,47,,Sold,,,https://www.redfin.com/VA/Petersburg/923-Wills-Rd-23803/home/52375332,CVRMLS,1822530,N,Y,37.2286794,-77.3852746
PAST SALE,August-18-2021,Single Family Residential,813 Wills Rd,Petersburg,VA,23803,245000,3,2.0,Blandford,1998,37897,2006,109,123,,Sold,,,https://www.redfin.com/VA/Petersburg/813-Wills-Rd-23803/home/52375014,CVRMLS,2115907,N,Y,37.2280597,-77.3876403
PAST SALE,June-1-2021,Multi-Family (2-4 Unit),21408 Chesterfield Ave,Chesterfield,VA,23803,35000,4,2.0,,2160,4356,1902,187,16,,Sold,,,https://www.redfin.com/VA/Petersburg/21408-Chesterfield-Ave-23803/home/59576448,CVRMLS,2112579,N,Y,37.2335133,-77.4213912
PAST SALE,,Single Family Residential,1023 8th St,Petersburg,VA,23803,75000,2,1.0,,783,5500,1952,,96,,,,,https://www.redfin.com/VA/Petersburg/1023-8th-St-23803/home/52375315,,,N,Y,37.2296487,-77.3840524
PAST SALE,June-14-2019,Single Family Residential,1917 S Westchester Dr,Petersburg,VA,23805,175000,4,3.0,,3312,30766,1970,905,53,,Sold,,,https://www.redfin.com/VA/Petersburg/1917-S-Westchester-Dr-23805/home/52378545,CVRMLS,1913339,N,Y,37.2085455,-77.3773249
PAST SALE,,Other,620 W Wythe St,Petersburg,VA,23803,69000,8,2.0,,2640,4700,1890,,26,,,,,https://www.redfin.com/VA/Petersburg/620-W-Wythe-St-23803/home/52376348,,,N,Y,37.224049,-77.412555
PAST SALE,October-29-2021,Single Family Residential,227 Battery Pl,Colonial Heights,VA,23834,300000,4,2.5,Briarcliffe,2200,33976,1915,37,136,,Sold,,,https://www.redfin.com/VA/Colonial-Heights/227-Battery-Pl-23834/home/52863187,CVRMLS,2127335,N,Y,37.2424101,-77.4115863
PAST SALE,October-26-2021,Single Family Residential,417 Gould Ave,Colonial Heights,VA,23834,190000,3,1.0,,1322,13068,1954,40,144,,Sold,,,https://www.redfin.com/VA/Colonial-Heights/417-Gould-Ave-23834/home/52863613,CVRMLS,2128629,N,Y,37.242786,-77.4158458
PAST SALE,October-28-2021,Single Family Residential,114 Conduit Rd,Colonial Heights,VA,23834,230000,3,2.0,,1551,8276,1941,38,148,,Sold,,,https://www.redfin.com/VA/Colonial-Heights/114-Conduit-Rd-23834/home/52863673,CVRMLS,2129423,N,Y,37.2427136,-77.4001632
PAST SALE,February-19-2021,Single Family Residential,207 Lee Ave,Colonial Heights,VA,23834,117300,3,1.0,Colonial Heights,1136,,1920,289,103,,Sold,,,https://www.redfin.com/VA/Colonial-Heights/207-Lee-Ave-23834/home/52864386,CVRMLS,2100961,N,Y,37.2443919,-77.4078198
PAST SALE,,Single Family Residential,229 Franklin St,Petersburg,VA,23803,30000,4,2.0,,1944,10000,1888,,15,,,,,https://www.redfin.com/VA/Petersburg/229-Franklin-St-23803/home/52374878,,,N,Y,37.2296792,-77.3988516
PAST SALE,,Other,926 Cameron St,Petersburg,VA,23803,75000,,,,,3225,,,,,,,,https://www.redfin.com/VA/Petersburg/926-Cameron-St-23803/home/101393112,,,N,Y,37.2296936,-77.385799
PAST SALE,April-10-2020,Single Family Residential,277 Grove Ave,Petersburg,VA,23803,103000,3,2.0,,1650,7405,1885,604,62,,Sold,,,https://www.redfin.com/VA/Petersburg/277-Grove-Ave-23803/home/52373998,CVRMLS,1924439,N,Y,37.2324282,-77.4102412
PAST SALE,June-7-2021,Multi-Family (2-4 Unit),1212 W Wythe St,Petersburg,VA,23803,35000,,,,1606,6534,1890,181,22,,Sold,,,https://www.redfin.com/VA/Petersburg/1212-W-Wythe-St-23803/home/52376462,CVRMLS,2109325,N,Y,37.221209,-77.422856
PAST SALE,,Single Family Residential,218 High St,Petersburg,VA,23803,230000,2,2.0,,2632,3867,1830,,87,,,,,https://www.redfin.com/VA/Petersburg/218-High-St-23803/home/52374682,,,N,Y,37.2310733,-77.4075956
PAST SALE,November-6-2019,Multi-Family (2-4 Unit),1006-08 W High St,Petersburg,VA,23803,80000,6,4.0,,3670,,1890,760,22,,Sold,,,https://www.redfin.com/VA/Petersburg/1006-W-High-St-23803/home/52376178,CVRMLS,1930013,N,Y,37.226701,-77.421513
PAST SALE,February-1-2021,Single Family Residential,305 Maple Ln,Colonial Heights,VA,23834,139000,2,1.0,Wrights Estates,886,5662,1952,307,157,,Sold,,,https://www.redfin.com/VA/Colonial-Heights/305-Maple-Ln-23834/home/52863140,CVRMLS,2037159,N,Y,37.2447419,-77.4164287
PAST SALE,,Single Family Residential,819 Augusta Ave,Petersburg,VA,23803,44000,3,1.0,,1345,7480,1960,,33,,,,,https://www.redfin.com/VA/Petersburg/819-Augusta-Ave-23803/home/52377036,,,N,Y,37.2144468,-77.4210468
PAST SALE,November-12-2021,Multi-Family (2-4 Unit),215 N Jefferson St,Petersburg,VA,23803,160000,4,3.0,,2490,5227,1906,23,64,,Sold,,,https://www.redfin.com/VA/Petersburg/215-N-Jefferson-St-23803/home/52374977,CVRMLS,2100424,N,Y,37.2310953,-77.400152
PAST SALE,February-12-2021,Vacant Land,212 St Marks St,Petersburg,VA,23803,3200,,,,,5227,,296,,,Sold,,,https://www.redfin.com/VA/Petersburg/212-St-Mark-St-23803/home/52379375,CVRMLS,2100333,N,Y,37.212811,-77.402683
PAST SALE,,Single Family Residential,156 Chesterfield Ave,Colonial Heights,VA,23834,80000,3,1.5,,1330,9148,1950,,60,,,,,https://www.redfin.com/VA/Colonial-Heights/156-Chesterfield-Ave-23834/home/52863952,,,N,Y,37.2396151,-77.4081786
PAST SALE,,Other,411 Bradsher Ave,Colonial Heights,VA,23834,137500,,,,,4356,,,,,,,,https://www.redfin.com/VA/Colonial-Heights/411-Bradsher-Ave-23834/home/52863585,,,N,Y,37.2418156,-77.414755
PAST SALE,,Single Family Residential,510 Battery Pl,Colonial Heights,VA,23834,59000,3,1.0,,990,8712,1953,,60,,,,,https://www.redfin.com/VA/Colonial-Heights/510-Battery-Pl-23834/home/52863206,,,N,Y,37.2445425,-77.4126624
PAST SALE,September-13-2019,Single Family Residential,517 Battery Pl,Colonial Heights,VA,23834,135000,2,1.0,Wrights Estates,1048,,1953,814,129,,Sold,,,https://www.redfin.com/VA/Colonial-Heights/517-Battery-Pl-23834/home/52863123,CVRMLS,1924064,N,Y,37.2448229,-77.4137385
PAST SALE,January-11-2021,Single Family Residential,1706 Mount Vernon St,Petersburg,VA,23805,245000,3,3.5,Walnut Hill Addition,3189,14810,1961,328,77,,Sold,,,https://www.redfin.com/VA/Petersburg/1706-Mt-Vernon-St-23805/home/52379222,CVRMLS,2030215,N,Y,37.2089605,-77.3905329
PAST SALE,,Single Family Residential,220 N Jefferson St,Petersburg,VA,23803,55000,4,2.0,,1920,3264,1916,,29,,,,,https://www.redfin.com/VA/Petersburg/220-N-Jefferson-St-23803/home/52374848,,,N,Y,37.2310969,-77.4005785
PAST SALE,May-6-2019,Vacant Land,622 Wesley St,Petersburg,VA,23803,8500,,,,,16988,,944,,,Sold,,,https://www.redfin.com/VA/Petersburg/622-Wesley-St-23803/home/52377285,CVRMLS,1910644,N,Y,37.2163483,-77.4092612
PAST SALE,,Single Family Residential,718 Texas Ave,Petersburg,VA,23803,99000,3,1.0,,960,6000,1976,,103,,,,,https://www.redfin.com/VA/Petersburg/718-Texas-Ave-23803/home/52375476,,,N,Y,37.2209537,-77.3824379
PAST SALE,July-12-2021,Single Family Residential,21209 Rutledge Ave,Petersburg,VA,23803,213000,3,1.5,Orange Hill,1458,6969,1973,146,146,,Sold,,,https://www.redfin.com/VA/South-Chesterfield/21209-Rutledge-Ave-23803/home/59574651,CVRMLS,2115793,N,Y,37.2359165,-77.4266061
PAST SALE,,Single Family Residential,738 Harrison St,Petersburg,VA,23803,13700,3,1.0,,1468,10700,1900,,9,,,,,https://www.redfin.com/VA/Petersburg/738-Harrison-St-23803/home/52377902,,,N,Y,37.2163909,-77.4019906
PAST SALE,March-23-2020,Single Family Residential,529 S Dunlop St,Petersburg,VA,23803,80850,3,1.5,Poorhouse Plat,1227,7405,1968,622,66,,Sold,,,https://www.redfin.com/VA/Petersburg/529-S-Dunlop-St-23803/home/52377133,CVRMLS,1937593,N,Y,37.2192362,-77.4145007
PAST SALE,October-28-2020,Single Family Residential,127 N Jefferson St,Petersburg,VA,23803,80000,3,2.5,,2572,4791,1915,403,31,,Sold,,,https://www.redfin.com/VA/Petersburg/127-N-Jefferson-St-23803/home/52374882,CVRMLS,2019441,N,Y,37.2301655,-77.3999278
PAST SALE,December-28-2018,Single Family Residential,833 Fort Henry St,Petersburg,VA,23803,46000,3,1.0,,1170,6534,1953,1073,39,,Sold,,,https://www.redfin.com/VA/Petersburg/833-Fort-Henry-St-23803/home/52374020,CVRMLS,1824517,N,Y,37.2297991,-77.4194775
PAST SALE,July-30-2020,Single Family Residential,617 Plum St,Petersburg,VA,23803,23000,2,2.0,,1476,4791,1885,493,16,,Sold,,,https://www.redfin.com/VA/Petersburg/617-Plum-St-23803/home/52374724,CVRMLS,2018100,N,Y,37.2302857,-77.4148146
PAST SALE,October-31-2019,Multi-Family (2-4 Unit),25 S Jefferson St,Petersburg,VA,23803,225000,2,1.0,,1771,7840,1755,766,127,,Sold,,,https://www.redfin.com/VA/Petersburg/25-S-Jefferson-St-23803/home/52375702,CVRMLS,1926073,N,Y,37.2274356,-77.3992328
PAST SALE,March-22-2019,Single Family Residential,104 Marshall St,Petersburg,VA,23803,288500,3,2.5,,3372,8276,1870,989,86,,Sold,,,https://www.redfin.com/VA/Petersburg/104-Marshall-St-23803/home/52375509,CVRMLS,1838376,N,Y,37.2250294,-77.4007798
PAST SALE,April-16-2021,Single Family Residential,236 Battery Pl,Colonial Heights,VA,23834,195000,4,2.0,Colonial Heights,1404,6534,1948,233,139,,Sold,,,https://www.redfin.com/VA/Colonial-Heights/236-Battery-Pl-23834/home/52863217,CVRMLS,2104210,N,Y,37.2433786,-77.411407
PAST SALE,June-11-2020,Multi-Family (2-4 Unit),605 W Washington St,Petersburg,VA,23803,62000,2,1.0,Folly Castle,1520,3920,1930,542,41,,Sold,,,https://www.redfin.com/VA/Petersburg/605-W-Washington-St-23803/home/52375876,CVRMLS,2014645,N,Y,37.2261142,-77.4131556
PAST SALE,,Single Family Residential,1024 W Wythe St,Petersburg,VA,23803,40000,3,1.5,,936,7700,1976,,43,,,,,https://www.redfin.com/VA/Petersburg/1024-W-Wythe-St-23803/home/52375994,,,N,Y,37.2224876,-77.4195336
PAST SALE,June-12-2020,Single Family Residential,1145 Hinton St,Petersburg,VA,23803,45500,2,2.0,,1334,5227,1920,541,34,,Sold,,,https://www.redfin.com/VA/Petersburg/1145-Hinton-St-23803/home/52376119,CVRMLS,2013184,N,Y,37.2236877,-77.4227504
PAST SALE,December-17-2019,Single Family Residential,1134 W High St,Petersburg,VA,23803,35000,3,2.0,,1224,5227,1928,719,29,,Sold,,,https://www.redfin.com/VA/Petersburg/1134-W-High-St-23803/home/52376200,CVRMLS,1924239,N,Y,37.2259387,-77.4236807
PAST SALE,,Single Family Residential,1124 W Wythe St,Petersburg,VA,23803,35000,3,1.5,,860,7800,1900,,41,,,,,https://www.redfin.com/VA/Petersburg/1124-W-Wythe-St-23803/home/52376476,,,N,Y,37.2219861,-77.4210916
PAST SALE,,Vacant Land,804 Gates Ln,Petersburg,VA,23803,38500,,,,,4416,,,,,,,,https://www.redfin.com/VA/Petersburg/804-Gates-Ln-23803/home/59869839,,,N,Y,37.2156784,-77.4005732
PAST SALE,December-31-2020,Single Family Residential,338 Myrtle Dr,Petersburg,VA,23803,149900,3,2.0,,1797,8712,1967,339,83,,Sold,,,https://www.redfin.com/VA/Petersburg/338-Myrtle-Dr-23803/home/52376510,CVRMLS,2014848,N,Y,37.2152144,-77.4293408
PAST SALE,June-22-2020,Multi-Family (2-4 Unit),661 Pegram St,Petersburg,VA,23803,79000,4,2.0,Poorhouse Plat,1728,7405,1929,531,46,,Sold,,,https://www.redfin.com/VA/Petersburg/661-Pegram-St-23803/home/52377221,CVRMLS,2014080,N,Y,37.2164072,-77.4148749
PAST SALE,April-13-2020,Townhouse,9 Kennedy Ct,Petersburg,VA,23803,64000,3,1.0,Cedar Lawn West,1106,871,1987,601,58,55,Sold,,,https://www.redfin.com/VA/Petersburg/9-Kennedy-Ct-23803/home/52377612,CVRMLS,2004498,N,Y,37.2192858,-77.409733
PAST SALE,October-16-2020,Single Family Residential,126 S Old Church St,Petersburg,VA,23803,15000,2,1.0,Blandford,684,3049,1929,415,22,,Sold,,,https://www.redfin.com/VA/Petersburg/126-S-Old-Church-St-23803/home/52375050,CVRMLS,2024061,N,Y,37.2291919,-77.389266
PAST SALE,September-29-2020,Single Family Residential,323 Washington Ave,Colonial Heights,VA,23834,189900,3,2.0,,2077,9583,1947,432,91,,Sold,,,https://www.redfin.com/VA/Colonial-Heights/323-Washington-Ave-23834/home/52863693,CVRMLS,2016465,N,Y,37.2430357,-77.4017215
PAST SALE,September-29-2020,Multi-Family (2-4 Unit),127 Virginia Ave Virginia Ave,Petersburg,VA,23803,125540,4,2.0,,1020,7840,1952,432,123,,Sold,,,https://www.redfin.com/VA/Petersburg/127-Virginia-Ave-23803/home/52377956,CVRMLS,2021752,N,Y,37.214559,-77.401318
PAST SALE,October-28-2020,Single Family Residential,711 Harding St,Petersburg,VA,23803,90000,3,1.0,,1600,2178,1915,403,56,,Sold,,,https://www.redfin.com/VA/Petersburg/711-Harding-St-23803/home/52377836,CVRMLS,2027656,N,Y,37.2165425,-77.4045465
PAST SALE,September-25-2020,Single Family Residential,713 Harding St,Petersburg,VA,23803,34000,3,1.5,,952,3484,1977,436,36,,Sold,,,https://www.redfin.com/VA/Petersburg/713-Harding-St-23803/home/52377913,CVRMLS,2026130,N,Y,37.2163681,-77.4044568
PAST SALE,,Single Family Residential,122 Kentucky Ave,Petersburg,VA,23803,27000,2,1.0,,1012,4655,1966,,27,,,,,https://www.redfin.com/VA/Petersburg/122-Kentucky-Ave-23803/home/52377921,,,N,Y,37.2168048,-77.4023941
PAST SALE,February-28-2020,Single Family Residential,780 King Ave,Petersburg,VA,23805,202000,4,2.5,,1940,8276,2010,646,104,,Sold,,,https://www.redfin.com/VA/Petersburg/780-King-Ave-23805/home/52378274,CVRMLS,1937099,N,Y,37.2143268,-77.3817191
PAST SALE,June-24-2021,Single Family Residential,20344 Laurel Rd,Chesterfield,VA,23803,240000,3,2.0,Laurel Branch Farms,1294,24829,2008,164,185,,Sold,,,https://www.redfin.com/VA/Petersburg/20344-Laurel-Rd-23803/home/59483351,CVRMLS,2114197,N,Y,37.2452156,-77.4277269
PAST SALE,March-16-2020,Vacant Land,437 S Jefferson St,Petersburg,VA,23803,7000,,,,,4791,,629,,,Sold,,,https://www.redfin.com/VA/Petersburg/437-S-Jefferson-St-23803/home/59885938,CVRMLS,2001590,N,Y,37.2211236,-77.397495
PAST SALE,September-1-2020,Single Family Residential,1751 Monticello St,Petersburg,VA,23805,102900,3,1.5,Walnut Hill,1400,7840,1947,460,74,,Sold,,,https://www.redfin.com/VA/Petersburg/1751-Monticello-St-23805/home/52379186,CVRMLS,2021002,N,Y,37.20745,-77.3875449
PAST SALE,December-7-2020,Vacant Land,202 N West St,Petersburg,VA,23803,7250,,,,,2613,,363,,,Sold,,,https://www.redfin.com/VA/Petersburg/202-North-West-St-23803/home/172266124,CVRMLS,2017453,N,Y,37.2248438,-77.4218159
PAST SALE,,Single Family Residential,1015 Lee Ave,Petersburg,VA,23803,18000,3,1.0,,792,9000,1953,,23,,,,,https://www.redfin.com/VA/Petersburg/1015-Lee-Ave-23803/home/52377004,,,N,Y,37.2179779,-77.4167426
PAST SALE,February-3-2021,Single Family Residential,1106 W Booker Cir,Petersburg,VA,23803,90000,3,2.0,Westview,1450,6098,1964,305,62,,Sold,,,https://www.redfin.com/VA/Petersburg/1106-W-Booker-Cir-23803/home/52380333,CVRMLS,2037326,N,Y,37.2113648,-77.418805
PAST SALE,,Other,606 S Sycamore St,Petersburg,VA,23803,65000,4,4.5,,3102,5428,1913,,21,,,,,https://www.redfin.com/VA/Petersburg/606-S-Sycamore-St-23803/home/52377721,,,N,Y,37.2187455,-77.400152
PAST SALE,April-13-2021,Single Family Residential,1404 Stark St,Petersburg,VA,23803,35000,2,1.0,Birdville Park,614,5227,1948,236,57,,Sold,,,https://www.redfin.com/VA/Petersburg/1404-Stark-St-23803/home/52380117,CVRMLS,2103368,N,Y,37.2095058,-77.4210468
PAST SALE,October-12-2020,Single Family Residential,1130 E Augusta Ave,Petersburg,VA,23803,130000,3,2.0,Birdville Park,1638,7405,1966,419,79,,Sold,,,https://www.redfin.com/VA/Petersburg/1130-E-Augusta-Ave-23803/home/52380165,CVRMLS,2024324,N,Y,37.2096674,-77.4221676
PAST SALE,July-10-2020,Single Family Residential,420 Maycox St,Petersburg,VA,23805,138000,3,2.0,Walnut Hill,1517,12632,1951,513,91,,Sold,,,https://www.redfin.com/VA/Petersburg/420-Maycox-St-23805/home/52378886,CVRMLS,2007423,N,Y,37.208048,-77.3857632
PAST SALE,April-9-2020,Single Family Residential,23 Shore St,Petersburg,VA,23803,80000,3,1.0,Walnut Hill,1298,6969,1941,605,62,,Sold,,,https://www.redfin.com/VA/Petersburg/23-Shore-St-23803/home/172511298,CVRMLS,2006077,N,Y,37.216549,-77.4000175
PAST SALE,November-3-2020,Single Family Residential,558 Bellevue Ave,Petersburg,VA,23803,70000,3,1.0,Bellevue Heights,1133,6098,1951,397,62,,Sold,,,https://www.redfin.com/VA/Petersburg/558-Bellevue-Ave-23803/home/52378304,CVRMLS,2029052,N,Y,37.217976,-77.385872
PAST SALE,March-6-2020,Vacant Land,502 Grove Ave,Petersburg,VA,23803,35000,,,,,24829,,639,,,Sold,,,https://www.redfin.com/VA/Petersburg/502-Grove-Ave-23803/home/80175266,CVRMLS,2001394,N,Y,37.2312829,-77.4131051
PAST SALE,February-25-2021,Multi-Family (2-4 Unit),3300 Light St,South Chesterfield,VA,23803,135000,6,2.0,,1824,8276,1986,283,74,,Sold,,,https://www.redfin.com/VA/South-Chesterfield/3300-Light-St-23803/home/59576415,CVRMLS,2100965,N,Y,37.234147,-77.4224927
PAST SALE,March-8-2021,Single Family Residential,130 N Jefferson St,Petersburg,VA,23803,60000,4,2.0,,2156,3920,1916,272,28,,Sold,,,https://www.redfin.com/VA/Petersburg/130-N-Jefferson-St-23803/home/52374841,CVRMLS,2037872,N,Y,37.2302235,-77.4004659
PAST SALE,April-30-2019,Single Family Residential,96 Culpepper Ave,Petersburg,VA,23803,20000,2,1.0,,760,10018,1948,950,26,,Sold,,,https://www.redfin.com/VA/Petersburg/96-Culpeper-Ave-23803/home/52374289,CVRMLS,1911580,N,Y,37.2351092,-77.3762933
PAST SALE,April-7-2020,Single Family Residential,126 Clayton St,Petersburg,VA,23803,28000,3,,,1656,4791,1920,607,17,,Sold,,,https://www.redfin.com/VA/Petersburg/126-Clayton-St-23803/home/52375678,CVRMLS,2006102,N,Y,37.2277777,-77.3926631
PAST SALE,June-21-2019,Single Family Residential,144 Chesterfield Ave,Colonial Heights,VA,23834,155000,3,1.0,Colonial Heights,1164,13939,1956,898,133,,Sold,,,https://www.redfin.com/VA/Colonial-Heights/144-Chesterfield-Ave-23834/home/52863971,CVRMLS,1915441,N,Y,37.2384785,-77.409378
PAST SALE,October-8-2021,Single Family Residential,208 Marvin Ave,Colonial Heights,VA,23834,268000,3,2.5,,1825,14374,1947,58,147,,Sold,,,https://www.redfin.com/VA/Colonial-Heights/208-Marvin-Ave-23834/home/52863189,CVRMLS,2127817,N,Y,37.2412872,-77.4106475
PAST SALE,August-21-2020,Single Family Residential,1387 Southampton St,Petersburg,VA,23803,65000,3,1.0,,920,5662,1974,471,71,,Sold,,,https://www.redfin.com/VA/Petersburg/1387-Southampton-St-23803/home/52374459,CVRMLS,2021378,N,Y,37.2369757,-77.3779529
PAST SALE,,Single Family Residential,411 Hurt St,Petersburg,VA,23803,75000,2,,,1216,7808,1835,,62,,,,,https://www.redfin.com/VA/Petersburg/411-Hurt-St-23803/home/52374700,,,N,Y,37.2304088,-77.4155768
PAST SALE,June-2-2021,Single Family Residential,130 Archer Ave,Colonial Heights,VA,23834,290000,3,2.0,,2300,22215,1922,186,126,,Sold,,,https://www.redfin.com/VA/Colonial-Heights/130-Archer-Ave-23834/home/52864033,CVRMLS,2108690,N,Y,37.2375009,-77.4063177
PAST SALE,May-10-2021,Vacant Land,825 Rome St,Petersburg,VA,23803,10000,,,,,7405,,209,,,Sold,,,https://www.redfin.com/VA/Petersburg/825-Rome-St-23803/home/52376398,CVRMLS,2015689,N,Y,37.2233015,-77.4157113
PAST SALE,November-23-2020,Single Family Residential,133 St Marks St,Petersburg,VA,23803,30000,3,1.5,,1536,4791,1911,377,20,,Sold,,,https://www.redfin.com/VA/Petersburg/133-St-Mark-St-23803/home/52379337,CVRMLS,2023977,N,Y,37.2135124,-77.4014024
PAST SALE,,Single Family Residential,311 E Fillmore St,Petersburg,VA,23803,60000,3,2.0,,2111,9000,1909,,28,,,,,https://www.redfin.com/VA/Petersburg/311-E-Fillmore-St-23803/home/52375188,,,N,Y,37.2229191,-77.3965788
PAST SALE,,Vacant Land,802 McKenzie St,Petersburg,VA,23803,41500,,,,,5450,,,,,,,,https://www.redfin.com/VA/Petersburg/802-McKenzie-St-23803/home/101393061,,,N,Y,37.2288458,-77.418101
PAST SALE,July-20-2021,Single Family Residential,609 Grove Ave,Petersburg,VA,23803,174000,3,1.0,,1482,9583,1791,138,117,,Sold,,,https://www.redfin.com/VA/Petersburg/609-Grove-Ave-23803/home/52373983,CVRMLS,2106197,N,Y,37.2314559,-77.4146913
PAST SALE,June-9-2020,Condo/Co-op,256 Grove Ave,Petersburg,VA,23803,41660,2,1.5,,1496,5227,1861,544,28,,Sold,,,https://www.redfin.com/VA/Petersburg/256-Grove-Ave-23803/home/52374489,CVRMLS,2001204,N,Y,37.2320038,-77.4093707
PAST SALE,November-2-2021,Single Family Residential,233 Bartow Aly,Petersburg,VA,23803,190000,2,2.0,,1440,871,1953,33,132,,Sold,,,https://www.redfin.com/VA/Petersburg/233-Bartow-Aly-23803/home/101393016,CVRMLS,2122098,N,Y,37.2308684,-77.4062157
PAST SALE,,Other,235 Grove Ave,Petersburg,VA,23803,97000,,2.0,,3328,10449,1800,,29,,,,,https://www.redfin.com/VA/Petersburg/235-Grove-Ave-23803/home/52374482,,,N,Y,37.232834,-77.40879
PAST SALE,,Single Family Residential,217 Low St,Petersburg,VA,23803,80000,,1.0,,1410,3000,,,57,,,,,https://www.redfin.com/VA/Petersburg/217-Low-St-23803/home/52374500,,,N,Y,37.2318165,-77.4079992
PAST SALE,May-8-2020,Single Family Residential,411 Cross St,Petersburg,VA,23803,39983,3,1.0,,832,4356,1971,576,48,,Sold,,,https://www.redfin.com/VA/Petersburg/411-Cross-St-23803/home/52374511,CVRMLS,2007553,N,Y,37.2306379,-77.4123485
PAST SALE,,Other,434 Cross St,Petersburg,VA,23803,13500,,,,,3066,,,,,,,,https://www.redfin.com/VA/Petersburg/434-Cross-St-23803/home/52374515,,,N,Y,37.2311026,-77.4128418
PAST SALE,,Single Family Residential,618 Grove Ave,Petersburg,VA,23803,22000,2,1.0,,1368,10260,1790,,16,,,,,https://www.redfin.com/VA/Petersburg/618-Grove-Ave-23803/home/52374523,,,N,Y,37.2311397,-77.4150052
PAST SALE,March-25-2021,Single Family Residential,150 Virginia Ave,Petersburg,VA,23803,53000,3,1.0,,1344,1742,1917,255,39,,Sold,,,https://www.redfin.com/VA/Petersburg/150-Virginia-Ave-23803/home/52379327,CVRMLS,2027416,N,Y,37.2140537,-77.4020802
PAST SALE,August-19-2020,Vacant Land,338 Hurt St,Petersburg,VA,23803,10000,,,,,6534,,473,,,Sold,,,https://www.redfin.com/VA/Petersburg/338-Hurt-St-23803/home/101393072,CVRMLS,2018195,N,Y,37.2292782,-77.4160235
PAST SALE,August-21-2019,Multi-Family (2-4 Unit),216 S Jefferson St,Petersburg,VA,23803,85000,4,4.0,,3159,7840,1893,837,27,,Sold,,,https://www.redfin.com/VA/Petersburg/216-S-Jefferson-St-23803/home/52375561,CVRMLS,1914982,N,Y,37.2250566,-77.3991206
PAST SALE,November-8-2021,Multi-Family (2-4 Unit),539-541 S Dunlop St,Petersburg,VA,23803,218000,6,4.0,,2352,5227,1929,27,93,,Sold,,,https://www.redfin.com/VA/Petersburg/539-S-Dunlop-St-23803/home/52377154,CVRMLS,2125565,N,Y,37.219023,-77.414294
PAST SALE,November-9-2021,Vacant Land,1013 Upper Appomattox St,Petersburg,VA,23803,5800,,,,,3920,,26,,,Sold,,,https://www.redfin.com/VA/Petersburg/1013-Upper-Appomattox-St-23803/home/101393372,CVRMLS,2114825,N,Y,37.2263748,-77.4214582
PAST SALE,,Single Family Residential,510 S Dunlop St,Petersburg,VA,23803,55000,3,1.0,,1708,7350,1900,,32,,,,,https://www.redfin.com/VA/Petersburg/510-S-Dunlop-St-23803/home/52377038,,,N,Y,37.219548,-77.415263
PAST SALE,February-7-2020,Single Family Residential,548 Columbia Rd,Petersburg,VA,23803,148000,3,2.0,Bellevue Heights,1140,5227,2019,667,130,,Sold,,,https://www.redfin.com/VA/Petersburg/548-Columbia-Rd-23803/home/52378286,CVRMLS,1927494,N,Y,37.2185799,-77.3856221
PAST SALE,August-12-2021,Single Family Residential,310 St Matthew St,Petersburg,VA,23803,20000,2,1.0,,784,3484,1890,115,26,,Sold,,,https://www.redfin.com/VA/Petersburg/310-St-Matthew-St-23803/home/52377484,CVRMLS,2121196,N,Y,37.2144832,-77.4048268
PAST SALE,December-3-2020,Vacant Land,1235 Montgomery Ave,Petersburg,VA,23803,4200,,,,,4356,,367,,,Sold,,,https://www.redfin.com/VA/Petersburg/1235-Montgomery-Ave-23803/home/59858069,CVRMLS,2030802,N,Y,37.2074918,-77.4219726
PAST SALE,October-19-2021,Single Family Residential,841 Cameron St,Petersburg,VA,23803,130000,3,2.0,Blandford,1872,9147,1969,47,69,,Sold,,,https://www.redfin.com/VA/Petersburg/841-Cameron-St-23803/home/52375035,CVRMLS,2116052,N,Y,37.2293575,-77.3874609
PAST SALE,September-10-2020,Single Family Residential,196 Archer Ave,Colonial Heights,VA,23834,153450,3,2.0,Colonial Heights,1344,12196,1988,451,114,,Sold,,,https://www.redfin.com/VA/Colonial-Heights/196-Archer-Ave-23834/home/52863962,CVRMLS,2021720,N,Y,37.2359438,-77.4103663
PAST SALE,December-9-2019,Vacant Land,114 N Davis St,Petersburg,VA,23803,3000,,,,,1742,,727,,,Sold,,,https://www.redfin.com/VA/Petersburg/114-N-Davis-St-23803/home/59886609,CVRMLS,1935385,N,Y,37.2286324,-77.4094912
PAST SALE,March-25-2020,Single Family Residential,1531 Berkeley Ave,Petersburg,VA,23805,62000,3,1.5,Walnut Hill,1605,8712,1920,620,39,,Sold,,,https://www.redfin.com/VA/Petersburg/1531-Berkeley-Ave-23805/home/52379469,CVRMLS,2006402,N,Y,37.209145,-77.4004659
PAST SALE,April-6-2020,Single Family Residential,317 Lafayette Ave,Colonial Heights,VA,23834,100000,2,1.0,Colonial Heights,912,5227,1920,608,110,,Sold,,,https://www.redfin.com/VA/Colonial-Heights/317-Lafayette-Ave-23834/home/52864338,CVRMLS,1913597,N,Y,37.2451746,-77.405533
PAST SALE,February-7-2021,Multi-Family (2-4 Unit),701 Plum St,Petersburg,VA,23219,120000,4,2.0,,1274,3920,1974,301,94,,Sold,,,https://www.redfin.com/VA/Petersburg/701-Plum-St-23803/home/172096052,CVRMLS,2100450,N,Y,37.2301084,-77.4159926
PAST SALE,,Single Family Residential,909 Farmer St,Petersburg,VA,23803,31125,4,2.0,,2083,4390,1924,,15,,,,,https://www.redfin.com/VA/Petersburg/909-Farmer-St-23803/home/52376344,,,N,Y,37.2217749,-77.4167084
PAST SALE,,Single Family Residential,107 Lee Ave,Colonial Heights,VA,23834,130000,3,1.0,,1248,4356,1920,,104,,,,,https://www.redfin.com/VA/Colonial-Heights/107-Lee-Ave-23834/home/52864362,,,N,Y,37.2435199,-77.408896
PAST SALE,,Single Family Residential,209 High St,Petersburg,VA,23803,125000,3,2.0,,3220,2314,1850,,39,,,,,https://www.redfin.com/VA/Petersburg/209-High-St-23803/home/52374603,,,N,Y,37.2315121,-77.407562
PAST SALE,July-30-2021,Vacant Land,641 High St,Petersburg,VA,23803,30000,,,,,14374,,128,,,Sold,,,https://www.redfin.com/VA/Petersburg/641-High-St-23803/home/59885200,CVRMLS,2101955,N,Y,37.228502,-77.4156804
PAST SALE,January-17-2020,Single Family Residential,1613 Dupuy Rd,Petersburg,VA,23803,129950,2,1.0,Pembroke,1144,10018,1947,688,114,,Sold,,,https://www.redfin.com/VA/Petersburg/1613-Dupuy-Rd-23803/home/52376671,CVRMLS,1936953,N,Y,37.2170935,-77.4299685
PAST SALE,January-31-2020,Single Family Residential,21012 Chesterfield Ave,Petersburg,VA,23803,169500,3,2.5,Orange Hill,1400,7840,2008,674,121,,Sold,,,https://www.redfin.com/VA/South-Chesterfield/21012-Chesterfield-Ave-23803/home/59574616,CVRMLS,1933804,N,Y,37.2369753,-77.4253508
PAST SALE,May-14-2019,Single Family Residential,541 High St,Petersburg,VA,23803,170000,2,2.0,,1846,10018,1865,936,92,,Sold,,,https://www.redfin.com/VA/Petersburg/541-High-St-23803/home/52374761,CVRMLS,1907664,N,Y,37.2288601,-77.4134247
PAST SALE,,Single Family Residential,320 High St,Petersburg,VA,23803,275000,3,2.0,,6270,44306,1830,,44,,,,,https://www.redfin.com/VA/Petersburg/320-High-St-23803/home/52374574,,,N,Y,37.2290852,-77.4114623
PAST SALE,January-15-2021,Single Family Residential,258 Grove Ave,Petersburg,VA,23803,115000,2,1.0,,1364,6969,1891,324,84,,Sold,,,https://www.redfin.com/VA/Petersburg/258-Grove-Ave-23803/home/52374492,CVRMLS,2036028,N,Y,37.2319956,-77.4094201
PAST SALE,January-18-2019,Condo/Co-op,221 High St,Petersburg,VA,23803,180000,4,3.0,,3256,3049,1850,1052,55,,Sold,,,https://www.redfin.com/VA/Petersburg/221-High-St-23803/home/52374592,CVRMLS,1839817,N,Y,37.2312593,-77.407975
PAST SALE,December-30-2019,Vacant Land,301 Hinton St,Petersburg,VA,23803,6500,,,,,7405,,706,,,Sold,,,https://www.redfin.com/VA/Petersburg/301-Hinton-St-23803/home/59886478,CVRMLS,1933303,N,Y,37.2284042,-77.4093842
PAST SALE,,Vacant Land,305 Hinton St,Petersburg,VA,23803,5500,,,,,8750,,,,,,,,https://www.redfin.com/VA/Petersburg/305-Hinton-St-23803/home/101393098,,,N,Y,37.2283948,-77.4095701
PAST SALE,March-7-2019,Single Family Residential,315 Grove Ave,Petersburg,VA,23803,118000,2,2.5,,1725,,1830,1004,68,,Sold,,,https://www.redfin.com/VA/Petersburg/315-Grove-Ave-23803/home/52373996,CVRMLS,1900574,N,Y,37.2322439,-77.4108241
PAST SALE,,Other,243 Hinton St,Petersburg,VA,23803,360000,16,4.0,,6052,8750,1908,,59,,,,,https://www.redfin.com/VA/Petersburg/243-Hinton-St-23803/home/52374670,,,N,Y,37.228568,-77.408916
PAST SALE,,Single Family Residential,272 High St,Petersburg,VA,23803,203000,2,1.5,,1591,4088,1972,,128,,,,,https://www.redfin.com/VA/Petersburg/272-High-St-23803/home/52374641,,,N,Y,37.2301445,-77.4094482
PAST SALE,June-22-2021,Single Family Residential,239 High St,Petersburg,VA,23803,205000,3,1.5,,2280,9147,1850,166,90,,Sold,,,https://www.redfin.com/VA/Petersburg/239-High-St-23803/home/52374588,CVRMLS,2106171,N,Y,37.2310239,-77.4086513
PAST SALE,August-24-2021,Single Family Residential,203 N Jefferson St,Petersburg,VA,23803,75000,3,2.0,,2110,3920,1915,103,36,,Sold,,,https://www.redfin.com/VA/Petersburg/203-N-Jefferson-St-23803/home/52374975,CVRMLS,2112067,N,Y,37.230628,-77.4000175
PAST SALE,August-18-2020,Condo/Co-op,219 Henry St,Petersburg,VA,23803,70000,3,3.0,,2310,3049,1879,474,30,,Sold,,,https://www.redfin.com/VA/Petersburg/219-Henry-St-23803/home/52374971,CVRMLS,2017977,N,Y,37.2315584,-77.4004429
PAST SALE,August-18-2020,Condo/Co-op,217 Henry St,Petersburg,VA,23803,70000,3,3.0,,2310,2613,1875,474,30,,Sold,,,https://www.redfin.com/VA/Petersburg/217-Henry-St-23803/home/52374972,CVRMLS,2017976,N,Y,37.2315092,-77.4005556
PAST SALE,June-24-2021,Multi-Family (2-4 Unit),215 Henry St,Petersburg,VA,23803,115000,3,3.0,,2160,3049,1923,164,53,,Sold,,,https://www.redfin.com/VA/Petersburg/215-Henry-St-23803/home/52374969,CVRMLS,2115441,N,Y,37.2315474,-77.4006216
PAST SALE,,Multi-Family (5+ Unit),12 W Bank St,Petersburg,VA,23803,174000,,1.0,,3869,3201,1814,,45,,,,,https://www.redfin.com/VA/Petersburg/12-W-Bank-St-23803/home/101393018,,,N,Y,37.2317439,-77.405219
PAST SALE,January-4-2019,Single Family Residential,271 High St,Petersburg,VA,23803,81300,2,1.0,,1612,7405,1796,1066,50,,Sold,,,https://www.redfin.com/VA/Petersburg/271-High-St-23803/home/52374663,CVRMLS,1832998,N,Y,37.2306462,-77.4097479
PAST SALE,November-16-2020,Single Family Residential,6 Centre Hill Ct,Petersburg,VA,23803,79000,3,2.0,,2172,5662,1916,384,36,,Sold,,,https://www.redfin.com/VA/Petersburg/6-Centre-Hill-Ct-23803/home/52374851,CVRMLS,2017964,N,Y,37.2312355,-77.4006901
PAST SALE,February-14-2019,Condo/Co-op,7 Centre Hill Ct,Petersburg,VA,23803,70000,3,1.5,,1920,,1916,1025,36,,Sold,,,https://www.redfin.com/VA/Petersburg/7-Centre-Hill-Ct-23803/unit-PLAT/home/52374847,CVRMLS,1834490,N,Y,37.2311063,-77.4006852
PAST SALE,March-27-2020,Single Family Residential,216 N Jefferson St,Petersburg,VA,23803,55000,3,1.0,,1920,3920,1916,618,29,,Sold,,,https://www.redfin.com/VA/Petersburg/216-N-Jefferson-St-23803/home/52374849,CVRMLS,1924818,N,Y,37.2309572,-77.4005758
PAST SALE,July-2-2020,Multi-Family (2-4 Unit),8 Centre Hill Ct,Petersburg,VA,23803,55000,4,2.0,,1920,2178,1916,521,29,,Sold,,,https://www.redfin.com/VA/Petersburg/8-Centre-Hill-Ct-23803/home/52374850,CVRMLS,2014548,N,Y,37.2309885,-77.4006901
PAST SALE,,Other,212 N Jefferson St,Petersburg,VA,23803,32000,6,2.0,,3000,6450,1917,,11,,,,,https://www.redfin.com/VA/Petersburg/212-N-Jefferson-St-23803/home/52374843,,,N,Y,37.230833,-77.400619
PAST SALE,,Single Family Residential,238 High St,Petersburg,VA,23803,190000,3,2.5,,2892,2855,1869,,66,,,,,https://www.redfin.com/VA/Petersburg/238-High-St-23803/home/52374691,,,N,Y,37.2307682,-77.4083391
PAST SALE,January-23-2019,Single Family Residential,715 High St,Petersburg,VA,23803,85000,3,2.0,,2160,10890,1915,1047,39,,Sold,,,https://www.redfin.com/VA/Petersburg/715-High-St-23803/home/52374741,CVRMLS,1833592,N,Y,37.2283017,-77.4164415
PAST SALE,August-8-2019,Single Family Residential,402 High St,Petersburg,VA,23803,302000,3,2.5,,2995,5662,1893,850,101,,Sold,,,https://www.redfin.com/VA/Petersburg/402-High-St-23803/home/52374572,CVRMLS,1915163,N,Y,37.2295189,-77.4108326
PAST SALE,,Vacant Land,137 N Jefferson St,Petersburg,VA,23803,13000,,,,,6500,,,,,,,,https://www.redfin.com/VA/Petersburg/137-N-Jefferson-St-23803/home/52374861,,,N,Y,37.2303809,-77.3999046
PAST SALE,May-12-2021,Vacant Land,133 N Jefferson St,Petersburg,VA,23803,10000,,,,,4791,,207,,,Sold,,,https://www.redfin.com/VA/Petersburg/133-N-Jefferson-St-23803/home/52374862,CVRMLS,2109912,N,Y,37.2302584,-77.3998822
PAST SALE,August-20-2020,Single Family Residential,121 N Jefferson St,Petersburg,VA,23803,50000,6,2.0,,2963,8712,1914,472,17,,Sold,,,https://www.redfin.com/VA/Petersburg/121-N-Jefferson-St-23803/home/52374880,CVRMLS,2017943,N,Y,37.2299137,-77.399883
PAST SALE,,Other,417 Hinton St,Petersburg,VA,23803,22000,,2.0,,3264,5166,1912,,7,,,,,https://www.redfin.com/VA/Petersburg/417-Hinton-St-23803/home/52374814,,,N,Y,37.2277586,-77.4109494
PAST SALE,October-15-2019,Single Family Residential,724 Miller St,Petersburg,VA,23803,75000,3,2.0,Blandford,1074,,1970,782,70,,Sold,,,https://www.redfin.com/VA/Petersburg/724-Miller-St-23803/home/52374886,CVRMLS,1822089,N,Y,37.2337745,-77.3932124
PAST SALE,,Single Family Residential,805 Miller St,Petersburg,VA,23803,49000,2,1.0,,1320,11300,1950,,37,,,,,https://www.redfin.com/VA/Petersburg/805-Miller-St-23803/home/52374903,,,N,Y,37.2344555,-77.3927528
PAST SALE,September-15-2021,Single Family Residential,145 Franklin St,Petersburg,VA,23803,256000,4,3.0,,3100,3920,1903,81,83,,Sold,,,https://www.redfin.com/VA/Petersburg/145-Franklin-St-23803/home/52374858,CVRMLS,2112408,N,Y,37.2293531,-77.4002193
PAST SALE,August-17-2021,Single Family Residential,223 Franklin St,Petersburg,VA,23803,185000,3,1.5,,2202,14810,1860,110,84,,Sold,,,https://www.redfin.com/VA/Petersburg/223-Franklin-St-23803/home/52374877,CVRMLS,2119422,N,Y,37.2296622,-77.3990758
PAST SALE,August-20-2020,Vacant Land,115 N Jefferson St,Petersburg,VA,23803,10000,,,,,10018,,472,,,Sold,,,https://www.redfin.com/VA/Petersburg/115-N-Jefferson-St-23803/home/59881758,CVRMLS,2017994,N,Y,37.229747,-77.3996003
PAST SALE,,Single Family Residential,306 N Old Church St,Petersburg,VA,23803,75000,2,1.0,,840,4000,1958,,89,,,,,https://www.redfin.com/VA/Petersburg/306-N-Old-Church-St-23803/home/52374944,,,N,Y,37.2342521,-77.3931564
PAST SALE,October-23-2020,Single Family Residential,14 N Old Church St,Petersburg,VA,23803,25000,3,1.0,,1232,3484,1927,408,20,,Sold,,,https://www.redfin.com/VA/Petersburg/14-N-Old-Church-St-23803/home/52374609,CVRMLS,2028169,N,Y,37.2314615,-77.3910374
PAST SALE,August-9-2021,Single Family Residential,108 N Old Church St,Petersburg,VA,23803,94900,4,2.0,Blandford,,,1957,118,,,Sold,,,https://www.redfin.com/VA/Petersburg/108-N-Old-Church-St-23803/unit-10/home/52374678,CVRMLS,2124758,N,Y,37.2325938,-77.3919007
PAST SALE,July-16-2021,Multi-Family (2-4 Unit),102 N Old Church St,Richmond,VA,23803,94900,2,2.0,,1430,10890,1957,142,66,,Sold,,,https://www.redfin.com/VA/Petersburg/102-N-Old-Church-St-23803/unit-4/home/52374676,CVRMLS,2110535,N,Y,37.232412,-77.391834
PAST SALE,,Single Family Residential,835 E Bank St,Petersburg,VA,23803,50000,3,1.0,,864,3726,1971,,58,,,,,https://www.redfin.com/VA/Petersburg/835-E-Bank-St-23803/home/52374912,,,N,Y,37.2342501,-77.391228
PAST SALE,July-7-2021,Vacant Land,605 Taylor St,Petersburg,VA,23803,10000,,,Blandford,,10890,,151,,,Sold,,,https://www.redfin.com/VA/Petersburg/605-Taylor-St-23803/home/101393137,CVRMLS,2117579,N,Y,37.2316268,-77.3939075
PAST SALE,July-7-2021,Single Family Residential,601 Taylor St,Petersburg,VA,23803,36500,3,1.0,Blandford,1632,10890,1850,151,22,,Sold,,,https://www.redfin.com/VA/Petersburg/601-Taylor-St-23803/home/52374653,CVRMLS,2117576,N,Y,37.2313755,-77.3939636
PAST SALE,March-24-2021,Vacant Land,117 N Burch St,Petersburg,VA,23803,9000,,,,,5227,,256,,,Sold,,,https://www.redfin.com/VA/Petersburg/117-N-Burch-St-23803/home/101393142,CVRMLS,2026959,N,Y,37.2336847,-77.3902687
PAST SALE,,Single Family Residential,123 N Burch St,Petersburg,VA,23803,48039,3,2.0,,1061,14500,1999,,45,,,,,https://www.redfin.com/VA/Petersburg/123-N-Burch-St-23803/home/52374695,,,N,Y,37.2338386,-77.3904656
PAST SALE,,Single Family Residential,21 Cherry St,Petersburg,VA,23803,30000,2,1.0,,720,4300,1952,,42,,,,,https://www.redfin.com/VA/Petersburg/21-Cherry-St-23803/home/52374613,,,N,Y,37.2314553,-77.3915532
PAST SALE,April-20-2021,Multi-Family (2-4 Unit),4 Eastover Ave,Petersburg,VA,23803,105000,4,3.0,,1375,4791,1952,229,76,,Sold,,,https://www.redfin.com/VA/Petersburg/4-Eastover-Ave-23803/home/52374830,CVRMLS,2100050,N,Y,37.2319529,-77.3886269
PAST SALE,October-21-2020,Single Family Residential,39 N Old Church St,Petersburg,VA,23803,41500,2,1.0,,720,5227,1963,410,58,,Sold,,,https://www.redfin.com/VA/Petersburg/39-N-Old-Church-St-23803/home/52374571,CVRMLS,2027809,N,Y,37.2321781,-77.3911944
PAST SALE,April-12-2021,Vacant Land,8 N Old Church St,Petersburg,VA,23803,4500,,,,,2178,,237,,,Sold,,,https://www.redfin.com/VA/Petersburg/8-N-Old-Church-St-23803/home/101393150,CVRMLS,2105765,N,Y,37.2313219,-77.3909601
PAST SALE,January-10-2020,Single Family Residential,11 N Foley St,Petersburg,VA,23803,18000,2,1.5,Blandford,960,3049,1921,695,19,,Sold,,,https://www.redfin.com/VA/Petersburg/11-N-Foley-St-23803/home/52374563,CVRMLS,1837639,N,Y,37.23186,-77.3899611
PAST SALE,June-12-2020,Vacant Land,24 N Foley St,Petersburg,VA,23803,6000,,,,,5227,,541,,,Sold,,,https://www.redfin.com/VA/Petersburg/24-N-Foley-St-23803/home/101393153,CVRMLS,1901758,N,Y,37.2320739,-77.3906146
PAST SALE,,Single Family Residential,907 E Wythe St,Petersburg,VA,23803,44500,3,1.5,,1380,8181,1964,,32,,,,,https://www.redfin.com/VA/Petersburg/907-E-Wythe-St-23803/home/52374824,,,N,Y,37.2308562,-77.3879991
PAST SALE,,Single Family Residential,25 Cherry St,Petersburg,VA,23803,11550,2,1.0,,576,4300,1952,,20,,,,,https://www.redfin.com/VA/Petersburg/25-Cherry-St-23803/home/52374615,,,N,Y,37.2316321,-77.3916653
PAST SALE,July-2-2021,Single Family Residential,840 Cameron St,Petersburg,VA,23803,80000,3,1.0,,960,8712,1979,156,83,,Sold,,,https://www.redfin.com/VA/Petersburg/840-Cameron-St-23803/home/52375010,CVRMLS,2111484,N,Y,37.2290022,-77.3873151
PAST SALE,August-30-2021,Multi-Family (2-4 Unit),114 Clayton St,Petersburg,VA,23803,40000,4,2.0,,1900,4791,1913,97,21,,Sold,,,https://www.redfin.com/VA/Petersburg/114-Clayton-St-23803/unit-16/home/52374717,CVRMLS,2121204,N,Y,37.228019,-77.392776
PAST SALE,January-19-2021,Multi-Family (2-4 Unit),10 S Burch St,Petersburg,VA,23803,100000,3,2.0,Blandford,1024,6098,1951,320,98,,Sold,,,https://www.redfin.com/VA/Petersburg/10-S-Burch-St-23803/home/52374812,CVRMLS,2035847,N,Y,37.231471,-77.3891202
PAST SALE,September-17-2021,Single Family Residential,120 S Old Church St,Petersburg,VA,23803,199000,3,2.5,Blandford,1890,8712,1954,79,105,,Sold,,,https://www.redfin.com/VA/Petersburg/120-S-Old-Church-St-23803/home/52375049,CVRMLS,2120244,N,Y,37.2292821,-77.3894342
PAST SALE,May-5-2021,Single Family Residential,837 Cameron St,Petersburg,VA,23803,117500,3,2.0,Blandford,936,7840,1977,214,126,,Sold,,,https://www.redfin.com/VA/Petersburg/837-Cameron-St-23803/home/52375036,CVRMLS,2103161,N,Y,37.2292946,-77.3876403
PAST SALE,,Single Family Residential,16 S Burch St,Petersburg,VA,23803,23500,3,1.0,,1027,5250,1951,,23,,,,,https://www.redfin.com/VA/Petersburg/16-S-Burch-St-23803/home/52374807,,,N,Y,37.2313378,-77.3890305
PAST SALE,September-21-2020,Single Family Residential,825 Cameron St,Petersburg,VA,23803,55000,3,1.0,,864,6969,1971,440,64,,Sold,,,https://www.redfin.com/VA/Petersburg/825-Cameron-St-23803/home/52375033,CVRMLS,2024732,N,Y,37.2291831,-77.3881336
PAST SALE,December-18-2020,Single Family Residential,826 Cameron St,Petersburg,VA,23803,13000,2,1.0,Blandford,892,10890,1929,352,15,,Sold,,,https://www.redfin.com/VA/Petersburg/826-Cameron-St-23803/home/52375039,CVRMLS,2030759,N,Y,37.2288969,-77.3876739
PAST SALE,,Single Family Residential,526 Van Buren Dr,Petersburg,VA,23803,170000,3,2.5,,1685,8295,2008,,101,,,,,https://www.redfin.com/VA/Petersburg/526-Van-Buren-Dr-23803/home/52377012,,,N,Y,37.2186017,-77.4087615
PAST SALE,September-16-2020,Single Family Residential,1039 Amelia St,Petersburg,VA,23803,71000,2,1.5,,988,5662,1972,445,72,,Sold,,,https://www.redfin.com/VA/Petersburg/1039-Amelia-St-23803/home/52374987,CVRMLS,2025891,N,Y,37.2341179,-77.3858015
PAST SALE,March-19-2020,Vacant Land,1071 Nottoway St,Petersburg,VA,23803,4000,,,,,7405,,626,,,Sold,,,https://www.redfin.com/VA/Petersburg/1071-Nottoway-St-23803/home/59887651,CVRMLS,1936480,N,Y,37.2338978,-77.3842336
PAST SALE,October-25-2021,Single Family Residential,345 Jefferson Ave,Colonial Heights,VA,23834,225000,3,2.0,,1832,6969,1942,41,123,,Sold,,,https://www.redfin.com/VA/Colonial-Heights/345-Jefferson-Ave-23834/home/52864532,CVRMLS,2129093,N,Y,37.2436285,-77.4030219
PAST SALE,April-17-2021,Multi-Family (2-4 Unit),708 Cameron St,Petersburg,VA,23803,37000,2,3.0,Blandford,2075,9147,1925,232,18,,Sold,,,https://www.redfin.com/VA/Petersburg/708-Cameron-St-23803/home/52375022,CVRMLS,2109049,N,Y,37.228117,-77.389501
PAST SALE,June-25-2020,Multi-Family (2-4 Unit),222 S Old Church St,Petersburg,VA,23803,44500,4,2.0,,1404,5227,1973,528,32,,Sold,,,https://www.redfin.com/VA/Petersburg/222-S-Old-Church-St-23803/home/52375017,CVRMLS,2013180,N,Y,37.2279681,-77.3884139
PAST SALE,September-28-2021,Single Family Residential,1115 6th St,Petersburg,VA,23803,55000,3,1.0,,960,5662,1983,68,57,,Sold,,,https://www.redfin.com/VA/Petersburg/1115-6th-St-23803/home/52375158,CVRMLS,2126592,N,Y,37.2320629,-77.382393
PAST SALE,May-9-2019,Single Family Residential,1562 Berkeley Ave,Petersburg,VA,23805,184900,4,2.0,Walnut Hill,3000,27878,1917,941,62,,Sold,,,https://www.redfin.com/VA/Petersburg/1562-Berkeley-Ave-23805/home/52379435,CVRMLS,1831646,N,Y,37.2080696,-77.4004211
PAST SALE,December-18-2018,Single Family Residential,109 Center St,Petersburg,VA,23803,22500,2,1.0,,860,6969,1954,1083,26,,Sold,,,https://www.redfin.com/VA/Petersburg/109-Center-St-23803/home/52375133,CVRMLS,1838879,N,Y,37.2306822,-77.3863846
PAST SALE,July-16-2020,Vacant Land,103 Center St,Petersburg,VA,23803,4500,,,Blandford,,3049,,507,,,Sold,,,https://www.redfin.com/VA/Petersburg/103-Center-St-23803/home/101393160,CVRMLS,1837620,N,Y,37.2308461,-77.3864144
PAST SALE,,Single Family Residential,1049 8th St,Petersburg,VA,23803,75000,3,1.0,,1026,8250,1977,,73,,,,,https://www.redfin.com/VA/Petersburg/1049-8th-St-23803/home/52375363,,,N,Y,37.2300048,-77.3831555
PAST SALE,September-18-2020,Single Family Residential,1057 7th St,Petersburg,VA,23803,42000,2,1.0,,780,5662,1953,443,54,,Sold,,,https://www.redfin.com/VA/Petersburg/1057-7th-St-23803/home/52375077,CVRMLS,2025319,N,Y,37.2307916,-77.3832003
PAST SALE,March-19-2021,Single Family Residential,231 Center St,Petersburg,VA,23803,74800,2,2.0,,1240,7405,1920,261,60,,Sold,,,https://www.redfin.com/VA/Petersburg/231-Center-St-23803/home/52375323,CVRMLS,2037351,N,Y,37.2290643,-77.3854091
PAST SALE,,Multi-Family (2-4 Unit),932 Priam St,Petersburg,VA,23803,75000,4,2.0,,1456,5500,1958,,52,,,,,https://www.redfin.com/VA/Petersburg/932-Priam-St-23803/home/52375324,,,N,Y,37.2290916,-77.3849943
PAST SALE,,Single Family Residential,933 Cameron St,Petersburg,VA,23803,75000,1,1.0,,528,3000,1954,,142,,,,,https://www.redfin.com/VA/Petersburg/933-Cameron-St-23803/home/52375090,,,N,Y,37.2301303,-77.385659
PAST SALE,,Other,931 Cameron St,Petersburg,VA,23803,75000,,,,,3000,,,,,,,,https://www.redfin.com/VA/Petersburg/931-Cameron-St-23803/home/101393107,,,N,Y,37.230024,-77.385809
PAST SALE,,Single Family Residential,1016 8th St,Petersburg,VA,23803,75000,2,1.0,,816,6750,1952,,92,,,,,https://www.redfin.com/VA/Petersburg/1016-8th-St-23803/home/52375335,,,N,Y,37.2292147,-77.3841309
PAST SALE,,Single Family Residential,1026 McKenzie St,Petersburg,VA,23803,34000,3,1.0,,864,5400,1965,,39,,,,,https://www.redfin.com/VA/Petersburg/1026-McKenzie-St-23803/home/52376270,,,N,Y,37.2273246,-77.422403
PAST SALE,,Multi-Family (5+ Unit),445 Round Top Ave,Petersburg,VA,23803,5837838,,,,,132858,1968,,,,,,,https://www.redfin.com/VA/Petersburg/445-Round-Top-Ave-23803/home/52375766,,,N,Y,37.2238692,-77.3877398
