SALE TYPE,SOLD DATE,PROPERTY TYPE,ADDRESS,CITY,STATE OR PROVINCE,ZIP OR POSTAL CODE,PRICE,BEDS,BATHS,LOCATION,SQUARE FEET,LOT SIZE,YEAR BUILT,DAYS ON MARKET,$/SQUARE FEET,HOA/MONTH,STATUS,NEXT OPEN HOUSE START TIME,NEXT OPEN HOUSE END TIME,URL (SEE https://www.redfin.com/buy-a-home/comparative-market-analysis FOR INFO ON PRICING),SOURCE,MLS#,FAVORITE,INTERESTED,LATITUDE,LONGITUDE
MLS Listing,,Single Family Residential,1910 Monumental Rd,Baltimore,MD,21227,334900,3,1.5,OAK PARK,1984,6000,1988,17,169,,Active,,,https://www.redfin.com/MD/Halethorpe/1910-Monumental-Rd-21227/home/9375277,BRIGHT MLS,MDBC2016210,N,Y,39.239653681,-76.680001
PAST SALE,September-30-2020,Single Family Residential,2833 Tennessee Ave,Baltimore,MD,21227,250000,3,2.0,ROSEMONT,1284,9375,1956,431,195,,Sold,,,https://www.redfin.com/MD/Halethorpe/2833-Tennessee-Ave-21227/home/40516895,BRIGHT MLS,MDBC500770,N,Y,39.2407854,-76.6381572
PAST SALE,December-21-2018,Townhouse,2 Lanhill Ct,Baltimore,MD,21227,239900,3,2.5,RIVERCHASE,2200,,1993,1080,109,179,Sold,,,https://www.redfin.com/MD/Halethorpe/2-Lanhill-Ct-21227/unit-2/home/9387975,BRIGHT MLS,1009957200,N,Y,39.2371961,-76.7062025
PAST SALE,November-18-2021,Single Family Residential,21 Lavern Ave,Baltimore,MD,21227,265000,3,2.0,JOSHUA,1800,4800,1887,17,147,,Sold,,,https://www.redfin.com/MD/Halethorpe/21-Lavern-Ave-21227/home/9378013,BRIGHT MLS,MDBC2011720,N,Y,39.2457274,-76.6635594
PAST SALE,February-19-2021,Townhouse,36 Ingate Ter #4501,Halethorpe,MD,21227,270000,3,2.5,RIVERCHASE,1530,,1990,289,176,210,Sold,,,https://www.redfin.com/MD/Halethorpe/36-Ingate-Ter-21227/unit-4501/home/9386971,BRIGHT MLS,MDBC517554,N,Y,39.2388946,-76.7002154
PAST SALE,October-5-2020,Townhouse,1135 Ingate Rd,Halethorpe,MD,21227,250000,3,3.0,RIVERCHASE,1724,,1990,426,145,200,Sold,,,https://www.redfin.com/MD/Halethorpe/1135-Ingate-Rd-21227/unit-1135/home/9387189,BRIGHT MLS,MDBC503900,N,Y,39.2382332,-76.7022909
PAST SALE,,Townhouse,989 Circle Dr,Halethorpe,MD,21227,250000,,1.5,,1408,1890,1960,,178,,,,,https://www.redfin.com/MD/Halethorpe/989-Circle-Dr-21227/home/9366245,,,N,Y,39.2587108,-76.7044469
PAST SALE,November-30-2021,Single Family Residential,2833 Rose Ave,Halethorpe,MD,21227,300000,3,2.0,ROSE GATE,1600,6520,1963,5,188,,Sold,,,https://www.redfin.com/MD/Halethorpe/2833-Rose-Ave-21227/home/9709886,BRIGHT MLS,MDBC2011332,N,Y,39.2444287,-76.6366003
PAST SALE,August-28-2020,Townhouse,1052 Downton Rd,Baltimore,MD,21227,205000,3,1.5,ARBOUR MANOR,1566,2016,1954,464,131,,Sold,,,https://www.redfin.com/MD/Halethorpe/1052-Downton-Rd-21227/home/9380770,BRIGHT MLS,MDBC498368,N,Y,39.2405349,-76.7035891
PAST SALE,April-18-2019,Single Family Residential,5635 Ashbourne Rd,Baltimore,MD,21227,220000,3,1.0,HALETHORPE HEIGHTS,1144,9150,1939,962,192,,Sold,,,https://www.redfin.com/MD/Halethorpe/5635-Ashbourne-Rd-21227/home/9365183,BRIGHT MLS,MDBC433134,N,Y,39.2396244,-76.6957918
PAST SALE,November-30-2021,Single Family Residential,3204 Hilltop Ave,Baltimore,MD,21227,170000,3,1.0,HILLTOP,1092,6250,1920,5,156,,Sold,,,https://www.redfin.com/MD/Halethorpe/3204-Hilltop-Ave-21227/home/9366907,BRIGHT MLS,MDBC2014024,N,Y,39.2554896,-76.6620682
PAST SALE,October-19-2021,Single Family Residential,7 4th Ave,Baltimore,MD,21227,220000,4,1.0,LANSDOWNE,1266,5000,1953,47,174,,Sold,,,https://www.redfin.com/MD/Baltimore/7-4th-Ave-21227/home/9381147,BRIGHT MLS,MDBC2010926,N,Y,39.2421176,-76.6643051
PAST SALE,September-17-2021,Townhouse,3112 Ryerson Cir,Baltimore,MD,21227,185000,3,1.0,PATAPSCO TERRACE,1116,3978,1963,79,166,,Sold,,,https://www.redfin.com/MD/Halethorpe/3112-Ryerson-Cir-21227/home/9361201,BRIGHT MLS,MDBC2004730,N,Y,39.23716,-76.658885
PAST SALE,September-16-2021,Townhouse,4820 Carmella Dr,Halethorpe,MD,21227,262500,4,4.0,MAIDEN CHOICE VILLAGE,1444,1800,1955,80,182,,Sold,,,https://www.redfin.com/MD/Halethorpe/4820-Carmella-Dr-21227/home/9383579,BRIGHT MLS,MDBC2002204,N,Y,39.2612959,-76.7012712
PAST SALE,,Single Family Residential,2804 Louisiana Ave,Halethorpe,MD,21227,300000,,2.5,,1408,15687,1920,,213,,,,,https://www.redfin.com/MD/Halethorpe/2804-Louisiana-Ave-21227/home/9359763,,,N,Y,39.2425871,-76.6403646
PAST SALE,March-22-2021,Single Family Residential,1206 Oakland Terrace Rd,Baltimore,MD,21227,317000,3,2.0,OAKLAND TERRACE,1560,7592,1959,258,203,,Sold,,,https://www.redfin.com/MD/Halethorpe/1206-Oakland-Terrace-Rd-21227/home/9375015,BRIGHT MLS,MDBC518362,N,Y,39.243349,-76.7016002
PAST SALE,August-5-2020,Townhouse,2705 Theresa Ln,Baltimore,MD,21227,250000,3,2.5,MYRTLE RIDGE,1296,1650,2014,487,193,70,Sold,,,https://www.redfin.com/MD/Baltimore/2705-Theresa-Ln-21227/home/21468597,BRIGHT MLS,MDBC484196,N,Y,39.2420507,-76.6465732
PAST SALE,September-3-2020,Condo/Co-op,20-A Deer Run Ct #509,Halethorpe,MD,21227,175000,2,1.0,RIVERCHASE,992,,1988,458,176,200,Sold,,,https://www.redfin.com/MD/Halethorpe/20-Deer-Run-Ct-21227/unit-509/home/9386388,BRIGHT MLS,MDBC495248,N,Y,39.2351576,-76.7072554
PAST SALE,September-18-2020,Single Family Residential,4610 Ridge Ave,Baltimore,MD,21227,178000,2,1.0,HALETHORPE,1290,6250,1928,443,138,,Sold,,,https://www.redfin.com/MD/Halethorpe/4610-Ridge-Ave-21227/home/9366056,BRIGHT MLS,MDBC502176,N,Y,39.2387094,-76.6899285
PAST SALE,November-18-2021,Single Family Residential,2050 Northeast Ave,Baltimore,MD,21227,340000,3,1.5,OAK PARK,1755,21800,1952,17,194,,Sold,,,https://www.redfin.com/MD/Halethorpe/2050-Northeast-Ave-21227/home/9367741,BRIGHT MLS,MDBC2012032,N,Y,39.2338461,-76.6803203
PAST SALE,February-5-2019,Single Family Residential,5545 Gayland Rd,Baltimore,MD,21227,275000,3,1.5,OAKLAND TERRACE,1593,6765,1953,1034,173,,Sold,,,https://www.redfin.com/MD/Halethorpe/5545-Gayland-Rd-21227/home/9360367,BRIGHT MLS,MDBC101680,N,Y,39.2435959,-76.699306
PAST SALE,September-16-2021,Townhouse,3 Piedmont Ct,Halethorpe,MD,21227,270000,2,2.5,RICHARDSON MEWS,1862,1614,1983,80,145,76,Sold,,,https://www.redfin.com/MD/Halethorpe/3-Piedmont-Ct-21227/home/9384393,BRIGHT MLS,MDBC525920,N,Y,39.231786,-76.7021599
PAST SALE,September-4-2019,Single Family Residential,4 Palo Ct,Baltimore,MD,21227,310000,4,1.5,WYNNEWOOD,1832,8040,1955,823,169,,Sold,,,https://www.redfin.com/MD/Halethorpe/4-Palo-Ct-21227/home/9375910,BRIGHT MLS,MDBC382558,N,Y,39.227725,-76.696434
PAST SALE,July-29-2021,Townhouse,1262 Brewster St,Halethorpe,MD,21227,245000,3,1.5,GAYLORD MANOR,1234,3094,1953,129,199,,Sold,,,https://www.redfin.com/MD/Halethorpe/1262-Brewster-St-21227/home/9376101,BRIGHT MLS,MDBC2000614,N,Y,39.2457615,-76.6998936
PAST SALE,November-15-2019,Townhouse,2023 Putnam Rd,Baltimore,MD,21227,234990,3,2.0,MONUMENTAL PARK,1800,2540,1990,751,131,,Sold,,,https://www.redfin.com/MD/Halethorpe/2023-Putnam-Rd-21227/home/9384886,BRIGHT MLS,MDBC475150,N,Y,39.2368467,-76.6785065
PAST SALE,October-26-2021,Single Family Residential,5002 Hazel,Baltimore,MD,21227,380000,3,3.0,RELAY,2006,6621,1980,40,189,,Sold,,,https://www.redfin.com/MD/Halethorpe/5002-Hazel-Ave-21227/home/9384558,BRIGHT MLS,MDBC2008930,N,Y,39.2260469,-76.7033057
PAST SALE,September-20-2021,Single Family Residential,3011 Vermont Ave,Halethorpe,MD,21227,260000,2,1.0,BALTIMORE HIGHLANDS,1414,12500,1953,76,184,,Sold,,,https://www.redfin.com/MD/Halethorpe/3011-Vermont-Ave-21227/home/9381058,BRIGHT MLS,MDBC2005518,N,Y,39.2356155,-76.6350531
PAST SALE,July-29-2019,Single Family Residential,1715 Magnolia Ave,Baltimore,MD,21227,484900,7,5.0,CEDAR HEIGHTS,3535,15000,1910,860,137,,Sold,,,https://www.redfin.com/MD/Halethorpe/1715-Magnolia-Ave-21227/home/9381608,BRIGHT MLS,MDBC459328,N,Y,39.2265678,-76.7028252
PAST SALE,September-7-2021,Single Family Residential,322 2nd Ave,Baltimore,MD,21227,365000,5,3.5,LANSDOWNE,2058,10000,1954,89,177,,Sold,,,https://www.redfin.com/MD/Lansdowne/322-2nd-Ave-21227/home/9380727,BRIGHT MLS,MDBC2004466,N,Y,39.2442514,-76.6565431
PAST SALE,August-6-2021,Single Family Residential,3014 Georgia Ave,Halethorpe,MD,21227,265000,2,2.0,BALTIMORE HIGHLANDS,820,9375,1947,121,323,,Sold,,,https://www.redfin.com/MD/Halethorpe/3014-Georgia-Ave-21227/home/9372800,BRIGHT MLS,MDBC2002000,N,Y,39.2349889,-76.6348167
PAST SALE,February-14-2020,Single Family Residential,208 4th Ave,Baltimore,MD,21227,201100,3,2.0,LANSDOWNE,1448,5000,1950,660,139,,Sold,,,https://www.redfin.com/MD/Halethorpe/208-4th-Ave-21227/home/9365193,BRIGHT MLS,MDBC481376,N,Y,39.2422918,-76.660077
MLS Listing,,Townhouse,1008 Elm Rd,Halethorpe,MD,21227,239900,4,1.5,ARBOUR MANOR,1566,2178,1954,3,153,,Active,,,https://www.redfin.com/MD/Halethorpe/1008-Elm-Rd-21227/home/9376207,BRIGHT MLS,MDBC2017546,N,Y,39.2419105,-76.7059822
MLS Listing,,Townhouse,405 Burbank Ct,Baltimore,MD,21227,139950,3,1.0,RIVERVIEW,1024,1680,1957,3,137,,Active,December-11-2021 12:00 PM,December-11-2021 02:00 PM,https://www.redfin.com/MD/Halethorpe/405-Burbank-Ct-21227/home/9369303,BRIGHT MLS,MDBC2016456,N,Y,39.2342092,-76.6528862
MLS Listing,,Townhouse,1804 Glen Gate Rd,Halethorpe,MD,21227,390000,3,3.0,HILLTOP PLACE,1676,1742,2018,3,233,39,Active,,,https://www.redfin.com/MD/Halethorpe/1804-Glen-Gate-Rd-21227/home/9688369,BRIGHT MLS,MDBC2017710,N,Y,39.2279456,-76.7002237
MLS Listing,,Townhouse,1033 Circle Dr,Baltimore,MD,21227,249900,4,1.5,MAIDEN CHOICE VILLAGE,1602,4888,1960,4,156,,Active,,,https://www.redfin.com/MD/Halethorpe/1033-Circle-Dr-21227/home/9381844,BRIGHT MLS,MDBC2016772,N,Y,39.2584457,-76.7033467
MLS Listing,,Townhouse,9 Gates Mill Ct,Halethorpe,MD,21227,389900,3,2.5,HIGHGATE,2220,1742,2019,6,176,39,Active,,,https://www.redfin.com/MD/Baltimore/9-Gates-Mill-Ct-21227/home/9688458,BRIGHT MLS,MDBC2017358,N,Y,39.2264663,-76.6986451
MLS Listing,,Single Family Residential,2412 Saratoga Ave,Baltimore,MD,21227,279900,3,2.0,HIGHLAND,1240,5000,1953,6,226,,Active,,,https://www.redfin.com/MD/Lansdowne/2412-Saratoga-Ave-21227/home/9360658,BRIGHT MLS,MDBC2017310,N,Y,39.2470562,-76.656618
MLS Listing,,Single Family Residential,2422 Zion Rd,Baltimore,MD,21227,289900,3,2.0,HIGHLAND,1092,5000,1953,10,265,,Active,,,https://www.redfin.com/MD/Halethorpe/2422-Zion-Rd-21227/home/9370054,BRIGHT MLS,MDBC2017200,N,Y,39.2475898,-76.6557757
MLS Listing,,Single Family Residential,2200 Hammonds Ferry Rd,Baltimore,MD,21227,365000,0,1.0,LANDSDOWNE,1200,10215,1952,12,304,,Active,,,https://www.redfin.com/MD/Halethorpe/2200-Hammonds-Ferry-Rd-21227/home/177314656,BRIGHT MLS,MDBC2016714,N,Y,39.2521476,-76.6639803
MLS Listing,,Single Family Residential,2209 Gaylawn Dr,Baltimore,MD,21227,294999,3,2.0,GAYLAWN,1858,7125,1955,16,159,,Active,,,https://www.redfin.com/MD/Halethorpe/2209-Gaylawn-Dr-21227/home/9367720,BRIGHT MLS,MDBC2016896,N,Y,39.251513,-76.657515
MLS Listing,,Single Family Residential,5514 Willys Ave,Halethorpe,MD,21227,385000,6,3.0,SULPHUR SPRING TERRACE,2475,6098,1942,16,156,,Active,December-5-2021 12:00 PM,December-5-2021 02:00 PM,https://www.redfin.com/MD/Halethorpe/5514-Willys-Ave-21227/home/9371426,BRIGHT MLS,MDBC2016694,N,Y,39.245649,-76.6964688
MLS Listing,,Multi-Family (2-4 Unit),1249 Francis Ave,Halethorpe,MD,21227,250000,,,Halethorpe,1504,8602,1925,16,166,,Active,,,https://www.redfin.com/MD/Halethorpe/1249-Francis-Ave-21227/home/9382579,BRIGHT MLS,MDBC2013732,N,Y,39.2380224,-76.6973544
MLS Listing,,Townhouse,955 Regina Dr,Halethorpe,MD,21227,250000,3,2.5,MAIDEN CHOICE VILLAGE,1408,1818,1962,17,178,,Active,December-5-2021 01:00 PM,December-5-2021 03:00 PM,https://www.redfin.com/MD/Halethorpe/955-Regina-Dr-21227/home/9366766,BRIGHT MLS,MDBC2016452,N,Y,39.2604801,-76.7054587
MLS Listing,,Single Family Residential,2208 Hammonds Ferry Rd,Halethorpe,MD,21227,249000,3,2.5,LANDSDOWNE,1427,9222,1915,17,174,,Active,,,https://www.redfin.com/MD/Halethorpe/2208-Hammonds-Ferry-Rd-21227/home/9365455,BRIGHT MLS,MDBC2016718,N,Y,39.2517552,-76.6640337
MLS Listing,,Single Family Residential,1318 Elm Rd,Baltimore,MD,21227,295000,4,2.0,NORTH HALETHORPE,1338,7700,1942,17,220,,Active,,,https://www.redfin.com/MD/Halethorpe/1318-Elm-Rd-21227/home/9371001,BRIGHT MLS,MDBC2000743,N,Y,39.2420172,-76.6946518
MLS Listing,,Single Family Residential,4402 Ridge Ave,Baltimore,MD,21227,325000,3,2.0,HALETHORPE,1820,7500,1964,18,179,,Active,,,https://www.redfin.com/MD/Halethorpe/4402-Ridge-Ave-21227/home/9378532,BRIGHT MLS,MDBC2013978,N,Y,39.2394536,-76.685403
MLS Listing,,Single Family Residential,1243 Poplar Rd,Halethorpe,MD,21227,319900,3,1.0,POPLAR AVENUE,960,5550,1949,19,333,,Active,December-5-2021 01:00 PM,December-5-2021 03:00 PM,https://www.redfin.com/MD/Halethorpe/1243-Poplar-Ave-21227/home/9358238,BRIGHT MLS,MDBC2016306,N,Y,39.250105,-76.698948
MLS Listing,,Single Family Residential,4627 Magnolia Ave,Baltimore,MD,21227,319900,4,3.0,HALETHORPE,2514,10680,1890,19,127,,Active,,,https://www.redfin.com/MD/Halethorpe/4627-Magnolia-Ave-21227/home/9365632,BRIGHT MLS,MDBC2016512,N,Y,39.2348883,-76.6905673
MLS Listing,,Single Family Residential,1236 Maple Ave,Halethorpe,MD,21227,350000,4,2.0,ARBUTUS TERRACE,1694,4280,1938,20,207,,Active,,,https://www.redfin.com/MD/Halethorpe/1236-Maple-Ave-21227/home/9366689,BRIGHT MLS,MDBC2016218,N,Y,39.2523725,-76.6989588
MLS Listing,,Townhouse,5745 Richardson Mews Sq,Halethorpe,MD,21227,235000,3,2.5,RICHARDSON MEWS,1980,1614,1979,27,119,96,Active,,,https://www.redfin.com/MD/Halethorpe/5745-Richardson-Mews-Sq-21227/home/9384328,BRIGHT MLS,MDBC2014882,N,Y,39.2303246,-76.701869
MLS Listing,,Single Family Residential,2505 Hammonds Ferry Rd,Baltimore,MD,21227,399000,4,2.5,JOSHUA,1740,5472,2019,31,229,,Active,,,https://www.redfin.com/MD/Halethorpe/2505-Hammonds-Ferry-Rd-21227/home/9360420,BRIGHT MLS,MDBC2015430,N,Y,39.246545,-76.664145
MLS Listing,,Single Family Residential,1212 10 Oaks Rd,Baltimore,MD,21227,355000,4,2.0,LEEDS,1176,5691,1950,36,302,,Active,,,https://www.redfin.com/MD/Baltimore/1212-Ten-Oaks-Rd-21227/home/9370602,BRIGHT MLS,MDBC2014310,N,Y,39.2584136,-76.6944469
MLS Listing,,Single Family Residential,1232 Oakland Terrace Rd,Baltimore,MD,21227,345000,3,1.5,OAKLAND TERRACE,1528,6952,1953,43,226,,Active,,,https://www.redfin.com/MD/Halethorpe/1232-Oakland-Terrace-Rd-21227/home/9375171,BRIGHT MLS,MDBC2009188,N,Y,39.24238,-76.700224
MLS Listing,,Single Family Residential,1600 Walk Ave,Baltimore,MD,21227,499900,4,1.0,ARBUTUS,1494,100188,1923,44,335,,Active,,,https://www.redfin.com/MD/Halethorpe/1600-Walk-Ave-21227/home/9378708,BRIGHT MLS,MDBC2014126,N,Y,39.253198,-76.685704
MLS Listing,,Single Family Residential,5120 S Rolling Rd,Baltimore,MD,21227,349000,9,4.5,RELAY,3234,25600,1910,46,108,,Active,,,https://www.redfin.com/MD/Halethorpe/5120-S-Rolling-Rd-21227/home/9374797,BRIGHT MLS,MDBC2013966,N,Y,39.2261893,-76.7080389
MLS Listing,,Single Family Residential,2921 Pennsylvania,Halethorpe,MD,21227,257900,4,1.0,ROSEMONT,1252,12500,1949,51,206,,Active,,,https://www.redfin.com/MD/Halethorpe/2921-Pennsylvania-Ave-21227/home/9387804,BRIGHT MLS,MDBC2001067,N,Y,39.2382868,-76.635513
MLS Listing,,Single Family Residential,4402 Washington Blvd,Baltimore,MD,21227,284900,3,2.0,HALETHORPE,1365,8910,1950,51,209,,Active,,,https://www.redfin.com/MD/Halethorpe/4402-Washington-Blvd-21227/home/9378252,BRIGHT MLS,MDBC2000927,N,Y,39.2379679,-76.683935
MLS Listing,,Townhouse,1154 Linden Ave,Halethorpe,MD,21227,255000,3,1.0,MAIDEN CHOICE VILLAGE,1479,2642,1958,57,172,,Active,,,https://www.redfin.com/MD/Halethorpe/1154-Linden-Ave-21227/home/9368459,BRIGHT MLS,MDBC2000481,N,Y,39.2557801,-76.7011546
MLS Listing,,Single Family Residential,1302 Poplar Ave,Arbutus,MD,21227,300000,4,2.0,LINDEN HEIGHTS,1570,5400,1939,59,191,,Active,,,https://www.redfin.com/MD/Halethorpe/1302-Poplar-Ave-21227/home/9364240,BRIGHT MLS,MDBC2012378,N,Y,39.2495978,-76.696938
MLS Listing,,Vacant Land,"Lots 31,32,33 Alabama Ave",Halethorpe,MD,21227,135000,,,Halethorpe,,7500,,68,,,Active,,,https://www.redfin.com/MD/Lansdowne/Lots-31-32-33-Alabama-Ave-21227/home/176557758,BRIGHT MLS,MDBC2012810,N,Y,39.23986957,-76.63749413
MLS Listing,,Townhouse,1107 Ingate Rd,Halethorpe,MD,21227,274900,3,3.0,RIVERCHASE,1860,,1990,73,148,210,Active,,,https://www.redfin.com/MD/Halethorpe/1107-Ingate-Rd-21227/unit-1107/home/9387139,BRIGHT MLS,MDBC2012000,N,Y,39.2383116,-76.7034242
MLS Listing,,Townhouse,2409 Hammonds Ferry Rd,Halethorpe,MD,21227,169900,3,1.0,JOSHUA,1536,3104,1900,81,111,,Active,,,https://www.redfin.com/MD/Halethorpe/2409-Hammonds-Ferry-Rd-21227/home/9365399,BRIGHT MLS,MDBC2011360,N,Y,39.2473871,-76.6641705
MLS Listing,,Single Family Residential,2820 Hoffman Ave,Halethorpe,MD,21227,279980,4,2.0,PATAPSCO HEIGHTS,1800,5750,1954,86,156,,Active,,,https://www.redfin.com/MD/Lansdowne/2820-Hoffman-Ave-21227/home/9371627,BRIGHT MLS,MDBC2011002,N,Y,39.2272134,-76.6386765
MLS Listing,,Single Family Residential,417 5th Ave,Baltimore,MD,21227,299900,3,2.0,LANSDOWNE,1602,12750,1895,87,187,,Active,,,https://www.redfin.com/MD/Lansdowne/417-Fifth-Ave-21227/home/9366501,BRIGHT MLS,MDBC2010786,N,Y,39.2418634,-76.6553379
MLS Listing,,Single Family Residential,,Baltimore,MD,21227,349900,4,3.0,ROSEMONT,1342,7500,1950,90,261,,Active,,,https://www.redfin.com/MD/Halethorpe/Undisclosed-address-21227/home/9364946,BRIGHT MLS,MDBC2010310,N,Y,39.2401209,-76.638924
MLS Listing,,Townhouse,802 Regis Ct,Baltimore,MD,21227,139900,3,1.0,RIVERVIEW,1024,2016,1957,122,137,,Active,,,https://www.redfin.com/MD/Halethorpe/802-Regis-Ct-21227/home/9379065,BRIGHT MLS,MDBC2006826,N,Y,39.2389891,-76.6524564
MLS Listing,,Single Family Residential,2834 Louisiana Ave,Baltimore,MD,21227,199900,2,1.0,ROSEMONT,796,7040,1950,131,251,,Active,,,https://www.redfin.com/MD/Halethorpe/2834-Louisiana-Ave-21227/home/9365093,BRIGHT MLS,MDBC2005522,N,Y,39.2420635,-76.6382037
MLS Listing,,Single Family Residential,3900 Glenrose Ave,Halethorpe,MD,21227,145000,2,1.0,ROSEMONT,650,6886,1945,136,223,,Active,,,https://www.redfin.com/MD/Halethorpe/3900-Glenrose-Ave-21227/home/9388043,BRIGHT MLS,MDBC2004826,N,Y,39.242207,-76.6421306
MLS Listing,,Single Family Residential,2201 Hammonds Ferry Rd,Baltimore,MD,21227,450000,3,2.5,CATON HILLS,2600,6750,1927,137,173,,Active,,,https://www.redfin.com/MD/Halethorpe/2201-Hammonds-Ferry-Rd-21227/home/168916783,BRIGHT MLS,MDBC2004728,N,Y,39.2516608,-76.6630418
MLS Listing,,Single Family Residential,5 Garrett Ave,Baltimore,MD,21227,199000,3,1.5,HALETHORPE,1512,10000,1925,151,132,,Active,,,https://www.redfin.com/MD/Halethorpe/5-Garrett-Ave-21227/home/9364541,BRIGHT MLS,MDBC2003006,N,Y,39.2455427,-76.7054664
MLS Listing,,Vacant Land,2809 Rose Ave,Halethorpe,MD,21227,279500,,,Halethorpe,,75794,,165,,,Active,,,https://www.redfin.com/MD/Halethorpe/2809-Rose-Ave-21227/home/169704185,BRIGHT MLS,MDBC2001340,N,Y,39.2446509,-76.639876
MLS Listing,,Vacant Land,1426 S Ellamont St,Baltimore,MD,21230,25000,,,Ward 25,,6294,,172,,,Active,,,https://www.redfin.com/MD/Baltimore/1426-S-Ellamont-St-21230/home/11034095,BRIGHT MLS,MDBA2000596,N,Y,39.263063,-76.66423
MLS Listing,,Vacant Land,3900 Old Washington Blvd,Halethorpe,MD,21227,77000,,,OAK PARK,,25700,,184,,,Active,,,https://www.redfin.com/MD/Arbutus/3900-Old-Washington-Blvd-21227/home/175271174,BRIGHT MLS,MDBC531690,N,Y,39.2423143,-76.6755886
MLS Listing,,Vacant Land,Monumental Ave,Halethorpe,MD,21227,150000,,,OAK PARK,,8850,,242,,,Active,,,https://www.redfin.com/MD/BALTIMORE/MONUMENTAL-AVE-21227/home/9374422,BRIGHT MLS,MDBC524790,N,Y,39.239763,-76.680413
MLS Listing,,Single Family Residential,1847 Clark Blvd,Baltimore,MD,21227,675000,3,2.5,WYNNEWOOD,1800,78887,2000,321,375,,Active,,,https://www.redfin.com/MD/Halethorpe/1847-Clarke-Blvd-21227/home/9361730,BRIGHT MLS,MDBC517620,N,Y,39.2275458,-76.6951831
MLS Listing,,Vacant Land,Harwalt Ave,Halethorpe,MD,21227,50000,,,HALETHORPE TERRACE,,4400,,356,,,Active,,,https://www.redfin.com/MD/Halethorpe/Harwalt-Ave-21227/home/145547973,BRIGHT MLS,MDBC515474,N,Y,39.24308,-76.67768
PAST SALE,April-15-2020,Single Family Residential,5564 Ashbourne Rd,Baltimore,MD,21227,265000,5,2.5,HALETHORPE HEIGHTS,1847,7000,1942,599,143,,Sold,,,https://www.redfin.com/MD/Halethorpe/5564-Ashbourne-Rd-21227/home/9380137,BRIGHT MLS,MDBC483700,N,Y,39.2426356,-76.696965
PAST SALE,December-30-2019,Townhouse,1103 Kelfield Dr,Baltimore,MD,21227,223000,3,2.5,RIVER CHASE,1236,,1992,706,180,184,Sold,,,https://www.redfin.com/MD/Halethorpe/1103-Kelfield-Dr-21227/home/9387901,BRIGHT MLS,MDBC475854,N,Y,39.2375534,-76.7038853
PAST SALE,,Townhouse,1942 Victory Dr,Halethorpe,MD,21227,210000,,1.0,,1140,4025,1945,,184,,,,,https://www.redfin.com/MD/Halethorpe/1942-Victory-Dr-21227/home/9359438,,,N,Y,39.246152,-76.6692565
PAST SALE,May-27-2021,Single Family Residential,419 2nd Ave,Baltimore,MD,21227,385000,4,3.0,LANSDOWNE,2992,9017,1900,192,129,,Sold,,,https://www.redfin.com/MD/Lansdowne/419-2nd-Ave-21227/home/9385004,BRIGHT MLS,MDBC524638,N,Y,39.2439336,-76.6553943
PAST SALE,May-30-2019,Townhouse,988 Circle Dr,Baltimore,MD,21227,218000,3,2.0,MAIDEN CHOICE VILLAGE,1728,1926,1961,920,126,,Sold,,,https://www.redfin.com/MD/Halethorpe/988-Circle-Dr-21227/home/9370134,BRIGHT MLS,MDBC453526,N,Y,39.258903,-76.7042653
PAST SALE,January-4-2019,Townhouse,3168 Shiloh Ct,Baltimore,MD,21227,105000,3,1.0,RIVERVIEW,1024,1680,1956,1066,103,,Sold,,,https://www.redfin.com/MD/Halethorpe/3168-Shiloh-Ct-21227/home/9370936,BRIGHT MLS,MDBC201628,N,Y,39.2373867,-76.6539793
PAST SALE,December-27-2019,Townhouse,507 Carlsbad Ct,Baltimore,MD,21227,15000,2,1.0,RIVERVIEW,1024,4165,1956,709,15,,Sold,,,https://www.redfin.com/MD/Halethorpe/507-Carlsbad-Ct-21227/home/9360536,BRIGHT MLS,MDBC480676,N,Y,39.236203,-76.653336
PAST SALE,September-27-2019,Single Family Residential,18 Fourth Ave,Halethorpe,MD,21227,220000,3,2.0,LANSDOWNE,1080,7500,1928,800,204,,Sold,,,https://www.redfin.com/MD/Halethorpe/18-4th-Ave-21227/home/9367350,BRIGHT MLS,MDBC463160,N,Y,39.2421661,-76.6640893
PAST SALE,April-26-2021,Single Family Residential,2730 Arbutus Ave,Halethorpe,MD,21227,340000,4,2.0,ENGLISH CONSUL ESTATES,1829,16485,1916,223,186,,Sold,,,https://www.redfin.com/MD/Halethorpe/2730-Arbutus-Ave-21227/home/9367438,BRIGHT MLS,MDBC522456,N,Y,39.2457315,-76.6444309
PAST SALE,May-31-2019,Townhouse,443 Caledonia Ave,Baltimore,MD,21227,90101,3,1.0,RIVERVIEW,1088,7332,1957,919,83,,Sold,,,https://www.redfin.com/MD/Halethorpe/443-Caledonia-Ave-21227/home/9366726,BRIGHT MLS,MDBC454948,N,Y,39.234869,-76.6544866
PAST SALE,,Townhouse,5820 Richardson Mews Sq,Halethorpe,MD,21227,235000,,2.5,,1773,1614,1979,,133,,,,,https://www.redfin.com/MD/Halethorpe/5820-Richardson-Mews-Sq-21227/home/9384284,,,N,Y,39.2306258,-76.7014529
PAST SALE,October-15-2019,Vacant Land,705 Woodland Dr,Halethorpe,MD,21227,87500,,,HALETHORPE,,45302,,782,,,Sold,,,https://www.redfin.com/MD/Arbutus/705-Woodland-Dr-21227/home/143850319,BRIGHT MLS,1004161189,N,Y,39.230098,-76.710731
PAST SALE,December-14-2018,Single Family Residential,1216 Leeds Ter,Baltimore,MD,21227,300000,3,2.0,LEEDS,1440,7800,1940,1087,208,,Sold,,,https://www.redfin.com/MD/Halethorpe/1216-Leeds-Ter-21227/home/9362181,BRIGHT MLS,1007050550,N,Y,39.2591949,-76.6939
PAST SALE,December-26-2019,Single Family Residential,343 Third Ave,Baltimore,MD,21227,132000,3,2.0,LANSDOWNE,1484,4100,1910,710,89,,Sold,,,https://www.redfin.com/MD/Lansdowne/343-3rd-Ave-21227/home/9370705,BRIGHT MLS,MDBC478912,N,Y,39.24321,-76.6565449
PAST SALE,,Single Family Residential,5822 Heron Dr,Halethorpe,MD,21227,331000,,1.0,,1487,7100,1955,,223,,,,,https://www.redfin.com/MD/Halethorpe/5822-Heron-Dr-21227/home/9362478,,,N,Y,39.2320238,-76.695721
PAST SALE,September-24-2021,Townhouse,943 Oakmoor Dr,Halethorpe,MD,21227,296000,3,3.5,RIVERCHASE,1396,,1988,72,212,210,Sold,,,https://www.redfin.com/MD/Halethorpe/943-Oakmoor-Dr-21227/unit-943/home/9386184,BRIGHT MLS,MDBC2008436,N,Y,39.2363023,-76.7057268
PAST SALE,August-15-2019,Single Family Residential,5405 Highview Rd,Halethorpe,MD,21227,330000,3,3.0,ARBUTUS TERRACE,1772,4600,1920,843,186,,Sold,,,https://www.redfin.com/MD/Halethorpe/5405-Highview-Rd-21227/home/9376345,BRIGHT MLS,MDBC464570,N,Y,39.2506344,-76.696329
PAST SALE,April-27-2021,Townhouse,5520 Highridge St,Halethorpe,MD,21227,227000,3,2.0,GAYLORD MANOR,1224,1504,1953,222,185,,Sold,,,https://www.redfin.com/MD/Halethorpe/5520-Highridge-St-21227/home/9367859,BRIGHT MLS,MDBC521170,N,Y,39.2467201,-76.7018354
PAST SALE,October-30-2019,Townhouse,923 Imperial Ct,Halethorpe,MD,21227,87000,2,1.0,RIVERVIEW,1024,1920,1955,767,85,,Sold,,,https://www.redfin.com/MD/Halethorpe/923-Imperial-Ct-21227/home/9364245,BRIGHT MLS,MDBC460592,N,Y,39.2379435,-76.6515844
PAST SALE,December-26-2019,Townhouse,1115 Ingate Rd,Baltimore,MD,21227,232999,3,3.5,RIVERCHASE,1236,,1990,710,189,200,Sold,,,https://www.redfin.com/MD/Halethorpe/1115-Ingate-Rd-21227/unit-1115/home/9387151,BRIGHT MLS,MDBC476338,N,Y,39.2383073,-76.7031703
PAST SALE,May-9-2019,Townhouse,16 Gates Park Ct,Halethorpe,MD,21227,319080,3,2.5,HIGHGATE VILLAGE,2441,1568,2019,941,131,39,Sold,,,https://www.redfin.com/MD/Baltimore/16-Gates-Park-Ct-21227/home/9688419,BRIGHT MLS,1007414954,N,Y,39.2259466,-76.6998688
PAST SALE,December-14-2018,Townhouse,1821 Glen Gate Rd,Halethorpe,MD,21227,311100,3,2.5,HIGHGATE VILLAGE,1918,1568,2018,1087,162,39,Sold,,,https://www.redfin.com/MD/Arbutus/1821-Glen-Gate-Rd-21227/home/9688536,BRIGHT MLS,1002092702,N,Y,39.2276427,-76.6995021
PAST SALE,December-17-2018,Vacant Land,Shelbourne Rd,Halethorpe,MD,21227,72500,,,HALETHORPE,,10098,,1084,,,Sold,,,https://www.redfin.com/MD/Unknown/Shelbourne-Rd-21227/home/55077552,BRIGHT MLS,1005891907,N,Y,39.24661854,-76.70778686
PAST SALE,June-13-2019,Townhouse,3226 Tartarian Ct,Halethorpe,MD,21227,123500,3,1.0,RIVERVIEW,1024,1696,1956,906,121,,Sold,,,https://www.redfin.com/MD/Halethorpe/3226-Tartarian-Ct-21227/home/9373923,BRIGHT MLS,1002770756,N,Y,39.235291,-76.653814
PAST SALE,,Townhouse,3161 Kessler Rd,Halethorpe,MD,21227,142000,,1.0,,1024,4160,1956,,139,,,,,https://www.redfin.com/MD/Halethorpe/3161-Kessler-Rd-21227/home/9372545,,,N,Y,39.2374453,-76.6546163
PAST SALE,June-29-2020,Townhouse,1819 Wind Gate Rd,Halethorpe,MD,21227,345290,3,2.5,HIGHGATE VILLAGE,1693,1568,2020,524,204,39,Sold,,,https://www.redfin.com/MD/Baltimore/1819-Wind-Gate-Rd-21227/home/9688498,BRIGHT MLS,MDBC480056,N,Y,39.2275443,-76.6983978
PAST SALE,May-28-2020,Townhouse,3244 Ryerson Cir,Baltimore,MD,21227,177000,3,1.5,PATAPSCO TERRACE,1508,2718,1963,556,117,,Sold,,,https://www.redfin.com/MD/Halethorpe/3244-Ryerson-Cir-21227/home/9358439,BRIGHT MLS,MDBC488844,N,Y,39.2352324,-76.6585183
PAST SALE,September-23-2020,Single Family Residential,419 Gun Rd,Baltimore,MD,21227,600000,5,3.0,AVALON,4328,145055,1962,438,139,,Sold,,,https://www.redfin.com/MD/Halethorpe/419-Gun-Rd-21227/home/9376692,BRIGHT MLS,MDBC499548,N,Y,39.233453656870154,-76.71963606768372
PAST SALE,May-14-2020,Single Family Residential,5714 Mineral Ave,Baltimore,MD,21227,265000,4,2.0,HALETHORPE / BALTIMORE HIGHLANDS,1343,5525,1951,570,197,,Sold,,,https://www.redfin.com/MD/Halethorpe/5714-Mineral-Ave-21227/home/9378210,BRIGHT MLS,MDBC491182,N,Y,39.2363,-76.697283
PAST SALE,September-19-2019,Single Family Residential,1233 Circle Dr,Halethorpe,MD,21227,243000,3,1.0,SHELBOURNE RIDGE,1400,8050,1939,808,174,,Sold,,,https://www.redfin.com/MD/Halethorpe/1233-Circle-Dr-21227/home/9366643,BRIGHT MLS,MDBC463064,N,Y,39.2548415,-76.6969853
PAST SALE,,Single Family Residential,1342 Poplar Ave,Halethorpe,MD,21227,105000,,1.0,,1250,4242,1938,,84,,,,,https://www.redfin.com/MD/Halethorpe/1342-Poplar-Ave-21227/home/9358810,,,N,Y,39.2477302,-76.6941234
PAST SALE,May-15-2019,Single Family Residential,5515 Ashbourne Rd,Baltimore,MD,21227,323000,3,3.5,HALETHORPE HEIGHTS,1632,7400,1943,935,198,,Sold,,,https://www.redfin.com/MD/Halethorpe/5515-Ashbourne-Rd-21227/home/9358874,BRIGHT MLS,MDBC452788,N,Y,39.2454192,-76.6978715
PAST SALE,May-6-2019,Townhouse,1069 Elm Rd,Halethorpe,MD,21227,175000,2,1.0,ARBOUR MANOR,1234,1792,1954,944,142,,Sold,,,https://www.redfin.com/MD/Halethorpe/1069-Elm-Rd-21227/home/9369328,BRIGHT MLS,MDBC435366,N,Y,39.2412516,-76.7036274
PAST SALE,November-22-2019,Single Family Residential,3227 Violet Ave,Baltimore,MD,21227,232000,4,2.0,ENGLISH CONSUL ESTATES,2224,6250,1984,744,104,,Sold,,,https://www.redfin.com/MD/Halethorpe/3227-Violet-Ave-21227/home/9372755,BRIGHT MLS,MDBC462934,N,Y,39.2460247,-76.6384688
PAST SALE,January-5-2021,Townhouse,2767 Norfen Rd,Baltimore,MD,21227,92000,3,1.5,LANDSDOWNE,1024,8400,1957,334,90,,Sold,,,https://www.redfin.com/MD/Halethorpe/2767-Norfen-Rd-21227/home/9359050,BRIGHT MLS,MDBC513616,N,Y,39.23268,-76.64348
PAST SALE,April-12-2019,Single Family Residential,3209 Clarinda Ave,Baltimore,MD,21230,205000,3,2.5,BALTIMORE CITY,1508,6996,1950,968,136,,Sold,,,https://www.redfin.com/MD/Baltimore/3209-Clarinda-Ave-21230/home/11034085,BRIGHT MLS,MDBA438018,N,Y,39.2631882,-76.6648014
PAST SALE,April-30-2019,Townhouse,427 Bigley Ave,Baltimore,MD,21227,125000,2,1.5,RIVERVIEW,1024,3255,1954,950,122,,Sold,,,https://www.redfin.com/MD/Halethorpe/427-Bigley-Ave-21227/home/9359108,BRIGHT MLS,MDBC436724,N,Y,39.2389291,-76.6547492
PAST SALE,February-7-2020,Townhouse,4157 Hollins Ferry Rd,Baltimore,MD,21227,138000,3,1.0,RIVERVIEW,1024,5250,1955,667,135,,Sold,,,https://www.redfin.com/MD/Halethorpe/4157-Hollins-Ferry-Rd-21227/home/9374006,BRIGHT MLS,MDBC479896,N,Y,39.2380428,-76.6524482
PAST SALE,June-19-2021,Single Family Residential,258 Clyde Ave,Baltimore,MD,21227,296000,3,2.0,JOSHUA,1864,5300,1965,169,159,,Sold,,,https://www.redfin.com/MD/Halethorpe/258-Clyde-Ave-21227/home/9370845,BRIGHT MLS,MDBC523010,N,Y,39.2453704,-76.6586333
PAST SALE,December-31-2018,Townhouse,2965 Freeway,Baltimore,MD,21227,51500,3,1.0,RIVERVIEW,1024,1664,1955,1070,50,,Sold,,,https://www.redfin.com/MD/Halethorpe/2965-Freeway-21227/home/9367315,BRIGHT MLS,1002136072,N,Y,39.2403321,-76.6498208
PAST SALE,June-30-2021,Single Family Residential,4316 Spencer St,Baltimore,MD,21227,438000,4,4.0,EAST HALETHORPE,1124,10200,1960,158,390,,Sold,,,https://www.redfin.com/MD/Halethorpe/4316-Spencer-St-21227/home/9359303,BRIGHT MLS,MDBC530232,N,Y,39.2362229,-76.6819153
PAST SALE,March-7-2019,Townhouse,3110 Aspen Ct,Baltimore,MD,21227,88000,4,1.5,RIVERVIEW,1280,2180,1956,1004,69,,Sold,,,https://www.redfin.com/MD/Halethorpe/3110-Aspen-Ct-21227/home/9371673,BRIGHT MLS,MDBC431332,N,Y,39.2377241,-76.6547335
PAST SALE,February-19-2020,Townhouse,1130 Ingate Rd,Baltimore,MD,21227,220000,3,2.0,RIVERCHASE,1611,,1990,655,137,200,Sold,,,https://www.redfin.com/MD/Halethorpe/1130-Ingate-Rd-21227/unit-1130/home/9387093,BRIGHT MLS,MDBC482272,N,Y,39.2386228,-76.7025027
PAST SALE,December-7-2018,Townhouse,2417 Hammonds Ferry Rd,Baltimore,MD,21227,152000,3,1.5,JOSHUA,1004,4015,1925,1094,151,,Sold,,,https://www.redfin.com/MD/Halethorpe/2417-Hammonds-Ferry-Rd-21227/home/9373804,BRIGHT MLS,1000482766,N,Y,39.2470973,-76.6641205
PAST SALE,July-26-2021,Townhouse,1266 Brewster St,Halethorpe,MD,21227,215000,3,2.5,HALETHORPE,1024,1872,1953,132,210,,Sold,,,https://www.redfin.com/MD/Halethorpe/1266-Brewster-St-21227/home/9357437,BRIGHT MLS,MDBC529392,N,Y,39.2456866,-76.6997919
PAST SALE,,Townhouse,1002 Fredonia Ct,Halethorpe,MD,21227,93500,,1.5,,1024,1680,1955,,91,,,,,https://www.redfin.com/MD/Halethorpe/1002-Fredonia-Ct-21227/home/9358347,,,N,Y,39.236713,-76.6509351
PAST SALE,,Single Family Residential,1921 Grant Rd,Halethorpe,MD,21227,265000,,1.5,,1600,7500,1979,,166,,,,,https://www.redfin.com/MD/Halethorpe/1921-Grant-Rd-21227/home/9358158,,,N,Y,39.2400121,-76.6786125
PAST SALE,,Single Family Residential,1540 Sulphur Spring Rd,Halethorpe,MD,21227,140000,,2.0,,1681,5687,1938,,83,,,,,https://www.redfin.com/MD/Halethorpe/1540-Sulphur-Spring-Rd-21227/home/9370060,,,N,Y,39.2499229,-76.6866253
PAST SALE,September-19-2019,Townhouse,972 Circle Dr,Baltimore,MD,21227,215000,3,1.5,MAIDEN CHOICE VILLAGE,1211,1962,1961,808,178,,Sold,,,https://www.redfin.com/MD/Halethorpe/972-Circle-Dr-21227/home/9360230,BRIGHT MLS,MDBC463944,N,Y,39.2591338,-76.7047444
PAST SALE,May-9-2019,Single Family Residential,1122 Plover Dr,Baltimore,MD,21227,299999,3,1.5,WYNNEWOOD,1632,9399,1955,941,184,,Sold,,,https://www.redfin.com/MD/Halethorpe/1122-Plover-Dr-21227/home/9361148,BRIGHT MLS,MDBC436072,N,Y,39.2343622,-76.6962695
PAST SALE,September-18-2019,Single Family Residential,4806 Leeds Ave,Baltimore,MD,21227,278000,3,2.0,HALETHORPE,2063,10080,1952,809,135,,Sold,,,https://www.redfin.com/MD/Halethorpe/4806-Leeds-Ave-21227/home/9377700,BRIGHT MLS,MDBC461908,N,Y,39.2570361,-76.6915306
PAST SALE,,Single Family Residential,5114 Arbutus Ave,Halethorpe,MD,21227,280000,,1.0,,1224,13485,1953,,229,,,,,https://www.redfin.com/MD/Halethorpe/5114-Arbutus-Ave-21227/home/9361212,,,N,Y,39.253133,-76.689776
PAST SALE,December-23-2020,Single Family Residential,10 Carling Cir,Lansdowne,MD,21227,45528,3,2.0,BELTWAY MOBILE PARK,1248,,1997,347,36,,Sold,,,https://www.redfin.com/MD/Lansdowne/10-Carling-Cir-21227/home/172686234,BRIGHT MLS,MDBC502530,N,Y,39.2379459,-76.6661107
PAST SALE,July-9-2021,Single Family Residential,1519 Marsha Rd,Baltimore,MD,21227,330000,3,2.0,ARBUTUS,1714,13764,1966,149,193,,Sold,,,https://www.redfin.com/MD/Halethorpe/1519-Marsha-Rd-21227/home/9364960,BRIGHT MLS,MDBC528202,N,Y,39.2513489,-76.6873426
PAST SALE,April-23-2019,Condo/Co-op,24 F Deer Run Ct #606,Baltimore,MD,21227,173800,2,1.0,RIVERCHASE,1059,,1988,957,164,200,Sold,,,https://www.redfin.com/MD/Halethorpe/24-Deer-Run-Ct-21227/unit-606/home/9386499,BRIGHT MLS,MDBC330932,N,Y,39.2355146,-76.70738
PAST SALE,March-18-2019,Townhouse,3214 Ryerson Cir,Baltimore,MD,21227,166000,4,2.0,PATAPSCO TERRACE,1386,4026,1963,993,120,,Sold,,,https://www.redfin.com/MD/Halethorpe/3214-Ryerson-Cir-21227/home/9369318,BRIGHT MLS,MDBC332566,N,Y,39.2348601,-76.6587829
PAST SALE,March-20-2020,Townhouse,5605 Selford Rd,Baltimore,MD,21227,242000,3,2.5,HUNTSMOOR VILLAGE NORTH,1320,2300,1974,625,183,,Sold,,,https://www.redfin.com/MD/Halethorpe/5605-Selford-Rd-21227/home/9383929,BRIGHT MLS,MDBC485344,N,Y,39.2401445,-76.710285
PAST SALE,February-23-2021,Single Family Residential,5706 Mineral Ave,Baltimore,MD,21227,305000,2,2.0,HALETHORPE,1600,26691,1954,285,191,,Sold,,,https://www.redfin.com/MD/Halethorpe/5706-Mineral-Ave-21227/home/9360809,BRIGHT MLS,MDBC517652,N,Y,39.237115,-76.6976339
PAST SALE,August-12-2019,Single Family Residential,2362 Research Ave,Baltimore,MD,21227,185000,3,1.0,HAMMONDS MANOR,1808,7085,1954,846,102,,Sold,,,https://www.redfin.com/MD/Halethorpe/2362-Research-Ave-21227/home/9360037,BRIGHT MLS,MDBC460698,N,Y,39.2364423,-76.6627654
PAST SALE,October-22-2021,Single Family Residential,209-H 1st Ave,Baltimore,MD,21227,215000,2,1.0,LANSDOWNE,1170,5000,1950,44,184,,Sold,,,https://www.redfin.com/MD/Halethorpe/209H-1st-Ave-21227/home/146961796,BRIGHT MLS,MDBC2005514,N,Y,39.2443486,-76.6599596
PAST SALE,September-7-2021,Single Family Residential,327 2nd Ave,Baltimore,MD,21227,268000,3,2.0,LANSDOWNE,1728,5000,1956,89,155,,Sold,,,https://www.redfin.com/MD/Lansdowne/327-2nd-Ave-21227/home/9369946,BRIGHT MLS,MDBC2004396,N,Y,39.243807,-76.6572217
PAST SALE,December-11-2020,Single Family Residential,1324 Poplar Ave,Baltimore,MD,21227,307000,4,2.5,LINDEN HEIGHTS,1860,5250,1940,359,165,,Sold,,,https://www.redfin.com/MD/Halethorpe/1324-Poplar-Ave-21227/home/9370661,BRIGHT MLS,MDBC509170,N,Y,39.2489409,-76.6953591
PAST SALE,November-15-2019,Townhouse,949 Circle Dr,Baltimore,MD,21227,195000,3,2.0,MAIDEN CHOICE VILLAGE,1652,1890,1961,751,118,,Sold,,,https://www.redfin.com/MD/Halethorpe/949-Circle-Dr-21227/home/9375579,BRIGHT MLS,MDBC462758,N,Y,39.2594458,-76.7056199
PAST SALE,January-11-2019,Townhouse,4920 Arborgate Cir,Halethorpe,MD,21227,316855,3,2.5,HIGHGATE VILLAGE,1693,1568,2019,1059,187,39,Sold,,,https://www.redfin.com/MD/Arbutus/4920-Arborgate-Cir-21227/home/9688397,BRIGHT MLS,1002149698,N,Y,39.2269989,-76.7000902
PAST SALE,May-29-2020,Condo/Co-op,10-D Fallen Tree Ct #204,Baltimore,MD,21227,125000,2,1.0,RIVERCHASE,1047,,1988,555,119,200,Sold,,,https://www.redfin.com/MD/Baltimore/10D-Fallen-Tree-Ct-21227/unit-204/home/147078009,BRIGHT MLS,MDBC470078,N,Y,39.2339826,-76.7064501
PAST SALE,May-14-2021,Single Family Residential,3205 Garden Ave,Baltimore,MD,21227,290000,4,3.0,HILLTOP,1932,6000,1947,205,150,,Sold,,,https://www.redfin.com/MD/Halethorpe/3205-Garden-Ave-21227/home/9357406,BRIGHT MLS,MDBC523672,N,Y,39.254646,-76.663317
PAST SALE,August-18-2021,Single Family Residential,2912 Delaware Ave,Halethorpe,MD,21227,265000,3,3.0,BALTIMORE HIGHLANDS,1150,6250,1949,109,230,,Sold,,,https://www.redfin.com/MD/Halethorpe/2912-Delaware-Ave-21227/home/9358000,BRIGHT MLS,MDBC2002106,N,Y,39.2316742,-76.6392335
PAST SALE,September-24-2020,Single Family Residential,2619 Tulip Ave,Baltimore,MD,21227,177975,5,3.0,ENGLISH CONSUL ESTATES,2389,20995,1913,437,74,,Sold,,,https://www.redfin.com/MD/Halethorpe/2619-Tulip-Ave-21227/home/9386451,BRIGHT MLS,MDBC500418,N,Y,39.2432856,-76.6470899
PAST SALE,January-17-2020,Townhouse,1128 Oakmoor Ct,Halethorpe,MD,21227,235000,2,2.5,RIVERCHASE,1524,,1992,688,154,200,Sold,,,https://www.redfin.com/MD/Halethorpe/1128-Oakmoor-Ct-21227/unit-1128/home/9387790,BRIGHT MLS,MDBC475970,N,Y,39.2371628,-76.7034238
PAST SALE,December-28-2018,Condo/Co-op,14-C Fallen Tree Ct #219,Baltimore,MD,21227,170000,2,1.0,RIVERCHASE,1053,,1988,1073,161,179,Sold,,,https://www.redfin.com/MD/Baltimore/14C-Fallen-Tree-Ct-21227/unit-219/home/147358261,BRIGHT MLS,MDBC100006,N,Y,39.2339826,-76.7064501
PAST SALE,June-7-2021,Single Family Residential,1240 Oakland Terrace Rd,Baltimore,MD,21227,325000,3,1.0,HALETHORPE,1416,6750,1952,181,230,,Sold,,,https://www.redfin.com/MD/Halethorpe/1240-Oakland-Terrace-Rd-21227/home/9373882,BRIGHT MLS,MDBC526380,N,Y,39.2421148,-76.6995115
PAST SALE,January-11-2020,Townhouse,1123 Ingate Rd,Baltimore,MD,21227,237900,3,3.0,RIVERCHASE,1786,,1990,694,133,200,Sold,,,https://www.redfin.com/MD/Halethorpe/1123-Ingate-Rd-21227/unit-1123/home/9387166,BRIGHT MLS,MDBC476118,N,Y,39.2382883,-76.7028253
PAST SALE,November-22-2019,Townhouse,21 W End Ct,Baltimore,MD,21227,214000,3,2.0,RICHARDSON MEWS,1540,1614,1985,744,139,89,Sold,,,https://www.redfin.com/MD/Halethorpe/21-W-End-Ct-21227/home/9384490,BRIGHT MLS,MDBC471742,N,Y,39.2320061,-76.7029376
PAST SALE,February-21-2019,Townhouse,4927 Arborgate Cir,Halethorpe,MD,21227,341358,3,2.5,HIGHGATE VILLAGE,2124,1568,2019,1018,161,39,Sold,,,https://www.redfin.com/MD/Arbutus/4927-Arborgate-Cir-21227/home/9688407,BRIGHT MLS,1002149728,N,Y,39.226596,-76.700298
PAST SALE,,Townhouse,1035 Downton Rd,Halethorpe,MD,21227,250000,,1.0,,1356,1926,1956,,184,,,,,https://www.redfin.com/MD/Halethorpe/1035-Downton-Rd-21227/home/9357791,,,N,Y,39.240573,-76.7045005
PAST SALE,,Single Family Residential,3200 Lorena Ave,Halethorpe,MD,21227,124000,,1.5,,1490,6000,1989,,83,,,,,https://www.redfin.com/MD/Halethorpe/3200-Lorena-Ave-21227/home/11041421,,,N,Y,39.2533309,-76.6544243
PAST SALE,,Single Family Residential,106 2nd Ave,Halethorpe,MD,21227,280000,,1.0,,1795,5000,1956,,156,,,,,https://www.redfin.com/MD/Halethorpe/106-2nd-Ave-21227/home/9374550,,,N,Y,39.2435724,-76.6627235
PAST SALE,November-30-2021,Townhouse,223 Oak Leaf Way,Baltimore,MD,21227,212000,2,2.5,WOODSHIRE VILLAGE,1774,1660,1993,5,120,,Sold,,,https://www.redfin.com/MD/Halethorpe/223-Oak-Leaf-Way-21227/home/9387322,BRIGHT MLS,MDBC2014712,N,Y,39.2509409,-76.6593358
PAST SALE,July-30-2021,Townhouse,5638 Chelwynd Rd,Halethorpe,MD,21227,273500,3,2.0,HUNTSMOOR VILLAGE NORTH,1704,2070,1967,128,161,,Sold,,,https://www.redfin.com/MD/Halethorpe/5638-Chelwynd-Rd-21227/home/9382314,BRIGHT MLS,MDBC532362,N,Y,39.2405527,-76.7073179
PAST SALE,August-6-2021,Townhouse,3811 W Patapsco Ave,Baltimore,MD,21229,200000,3,1.5,Ward 25,1322,2625,1989,121,151,,Sold,,,https://www.redfin.com/MD/Baltimore/3811-W-Patapsco-Ave-21229/home/11029338,BRIGHT MLS,MDBA554390,N,Y,39.2635287,-76.6777219
PAST SALE,September-18-2019,Single Family Residential,4601 Benson Ave,Baltimore,MD,21227,275000,3,1.0,HALETHORPE,1752,15000,1954,809,157,,Sold,,,https://www.redfin.com/MD/Halethorpe/4601-Benson-Ave-21227/home/166730819,BRIGHT MLS,MDBC458418,N,Y,39.257984,-76.68263
PAST SALE,January-22-2020,Townhouse,10 Gates Mill Ct,Halethorpe,MD,21227,331680,3,3.0,HIGHGATE VILLAGE,1888,1568,2020,683,176,39,Sold,,,https://www.redfin.com/MD/Baltimore/10-Gates-Mill-Ct-21227/home/9688439,BRIGHT MLS,MDBC465170,N,Y,39.2264342,-76.6992327
PAST SALE,,Townhouse,3614 Benson Ave,Halethorpe,MD,21227,148000,,1.0,,1088,2320,1966,,136,,,,,https://www.redfin.com/MD/Halethorpe/3614-Benson-Ave-21227/home/11030072,,,N,Y,39.2651828,-76.6745122
PAST SALE,July-12-2019,Condo/Co-op,26-B Deer Run Ct #610,Halethorpe,MD,21227,172000,2,1.0,RIVERCHASE,959,,1988,877,179,200,Sold,,,https://www.redfin.com/MD/Halethorpe/26B-Deer-Run-Ct-21227/unit-610/home/147397908,BRIGHT MLS,MDBC457084,N,Y,39.235561,-76.7072892
PAST SALE,November-30-2021,Townhouse,1045 Elm Rd,Baltimore,MD,21227,206000,3,1.0,ARBOUR MANOR,1280,1792,1953,5,161,,Sold,,,https://www.redfin.com/MD/Halethorpe/1045-Elm-Rd-21227/home/9371138,BRIGHT MLS,MDBC2011778,N,Y,39.2414663,-76.7046129
PAST SALE,October-29-2021,Single Family Residential,2619 Braun Ave,Baltimore,MD,21227,140000,2,1.0,WEST LANSDOWNE,1336,6800,1927,37,105,,Sold,,,https://www.redfin.com/MD/Halethorpe/2619-Braun-Ave-21227/home/9357615,BRIGHT MLS,MDBC2011758,N,Y,39.245911,-76.667962
PAST SALE,November-16-2020,Single Family Residential,1222 Leeds Ter,Baltimore,MD,21227,203000,4,1.5,LEEDS,1908,6760,1942,384,106,,Sold,,,https://www.redfin.com/MD/Halethorpe/1222-Leeds-Ter-21227/home/9357609,BRIGHT MLS,MDBC508038,N,Y,39.2588843,-76.69337
PAST SALE,February-28-2019,Single Family Residential,1809 Arbutus Ave,Halethorpe,MD,21227,251000,3,2.0,HALETHORPE,1404,6750,1943,1011,179,,Sold,,,https://www.redfin.com/MD/Halethorpe/1809-Arbutus-Ave-21227/home/9358752,BRIGHT MLS,MDBC101766,N,Y,39.236606,-76.686031
PAST SALE,July-19-2019,Townhouse,1122 Gloria Ave,Baltimore,MD,21227,220000,3,1.5,MAIDEN CHOICE VILLAGE,1408,2800,1959,870,156,,Sold,,,https://www.redfin.com/MD/Halethorpe/1122-Gloria-Ave-21227/home/9357607,BRIGHT MLS,MDBC455160,N,Y,39.2574391,-76.7018427
PAST SALE,June-22-2021,Single Family Residential,5566 Ashbourne Rd,Baltimore,MD,21227,347000,3,2.0,HALETHORPE HEIGHTS,1416,7000,1942,166,245,,Sold,,,https://www.redfin.com/MD/Halethorpe/5566-Ashbourne-Rd-21227/home/9361529,BRIGHT MLS,MDBC528654,N,Y,39.2421028,-76.6967871
PAST SALE,March-26-2021,Single Family Residential,1814 Palo Cir,Halethorpe,MD,21227,310000,3,1.0,WYNNEWOOD,1056,11726,1960,254,294,,Sold,,,https://www.redfin.com/MD/Halethorpe/1814-Palo-Cir-21227/home/9357622,BRIGHT MLS,MDBC520298,N,Y,39.228098,-76.694947
PAST SALE,April-28-2021,Townhouse,5426 Council St,Baltimore,MD,21227,255000,3,1.5,SULPHUR SPRINGS,1452,5320,1958,221,176,,Sold,,,https://www.redfin.com/MD/Halethorpe/5426-Council-St-21227/home/9357664,BRIGHT MLS,MDBC520128,N,Y,39.247821,-76.700918
PAST SALE,May-18-2021,Single Family Residential,1812 Mayfield Ave,Baltimore,MD,21227,265000,4,1.0,MAYFIELD TERRACE,984,9050,1926,201,269,,Sold,,,https://www.redfin.com/MD/Halethorpe/1812-Mayfield-Ave-21227/home/9357737,BRIGHT MLS,MDBC525116,N,Y,39.2339407,-76.6904246
PAST SALE,July-24-2020,Townhouse,5416 Highridge St,Baltimore,MD,21227,240000,3,2.0,SULPHUR SPRINGS,1392,3828,1958,499,172,,Sold,,,https://www.redfin.com/MD/Halethorpe/5416-Highridge-St-21227/home/9357651,BRIGHT MLS,MDBC494282,N,Y,39.2479217,-76.7021627
PAST SALE,June-8-2021,Townhouse,1084 Elm Rd,Baltimore,MD,21227,245000,3,1.5,ARBOUR MANOR,1424,1760,1953,180,172,,Sold,,,https://www.redfin.com/MD/Halethorpe/1084-Elm-Rd-21227/home/9357654,BRIGHT MLS,MDBC526148,N,Y,39.2414885,-76.7034048
PAST SALE,June-9-2021,Townhouse,4427 Scotia Rd,Baltimore,MD,21227,185000,3,1.5,FRIENDSHIP GARDENS,1024,1712,1958,179,181,,Sold,,,https://www.redfin.com/MD/Halethorpe/4427-Scotia-Rd-21227/home/9357772,BRIGHT MLS,MDBC531930,N,Y,39.23429,-76.644733
PAST SALE,,Townhouse,966 Circle Dr,Halethorpe,MD,21227,190000,,1.0,,1152,3161,1961,,165,,,,,https://www.redfin.com/MD/Halethorpe/966-Circle-Dr-21227/home/9357779,,,N,Y,39.259241,-76.7049164
PAST SALE,,Single Family Residential,1251 Locust Ave,Halethorpe,MD,21227,208000,,1.5,,1608,11169,1965,,129,,,,,https://www.redfin.com/MD/Halethorpe/1251-Locust-Ave-21227/home/9357785,,,N,Y,39.2493595,-76.6985688
PAST SALE,October-29-2020,Single Family Residential,3007 Pennsylvania Ave,Baltimore,MD,21227,290000,4,2.0,ROSEMONT,1698,7500,1928,402,171,,Sold,,,https://www.redfin.com/MD/Halethorpe/3007-Pennsylvania-Ave-21227/home/9357564,BRIGHT MLS,MDBC508136,N,Y,39.2381001,-76.6342478
PAST SALE,December-20-2019,Townhouse,2739 Yarnall Rd,Baltimore,MD,21227,144000,3,1.0,FRIENDSHIP GARDENS,1024,1760,1958,716,141,,Sold,,,https://www.redfin.com/MD/Halethorpe/2739-Yarnall-Rd-21227/home/9357857,BRIGHT MLS,MDBC476114,N,Y,39.231967,-76.64418
PAST SALE,June-3-2020,Single Family Residential,2003 Smith Ave,Halethorpe,MD,21227,210500,3,1.5,HALETHORPE,1228,3900,1927,550,171,,Sold,,,https://www.redfin.com/MD/Halethorpe/2003-Smith-Ave-21227/home/9357840,BRIGHT MLS,MDBC490778,N,Y,39.2528467,-76.6621053
PAST SALE,November-6-2020,Townhouse,1141 Gloria Ave,Baltimore,MD,21227,215000,4,2.0,MAIDEN CHOICE VILLAGE,1728,1953,1959,394,124,,Sold,,,https://www.redfin.com/MD/Halethorpe/1141-Gloria-Ave-21227/home/9357867,BRIGHT MLS,MDBC507988,N,Y,39.2565222,-76.7007426
PAST SALE,June-3-2021,Townhouse,5519 Highridge St,Baltimore,MD,21227,220000,3,1.5,GAYLORD MANOR,1399,2112,1953,185,157,,Sold,,,https://www.redfin.com/MD/Halethorpe/5519-Highridge-St-21227/home/9357886,BRIGHT MLS,MDBC529488,N,Y,39.2467928,-76.7015346
PAST SALE,July-20-2021,Condo/Co-op,1917 Lincoln Ave,Baltimore,MD,21227,155000,2,1.0,OAK PARK,1742,15000,1901,138,89,,Sold,,,https://www.redfin.com/MD/Halethorpe/1917-Lincoln-Ave-21227/home/9357902,BRIGHT MLS,MDBC529550,N,Y,39.2401772,-76.6774432
PAST SALE,May-18-2020,Single Family Residential,5539 Oakland Rd,Halethorpe,MD,21227,181750,3,1.0,OAKLAND TERRACE,1272,6900,1948,566,143,,Sold,,,https://www.redfin.com/MD/Halethorpe/5539-Oakland-Rd-21227/home/9381652,BRIGHT MLS,MDBC488234,N,Y,39.2437449,-76.698104
PAST SALE,June-28-2019,Single Family Residential,1242 Greystone Rd,Baltimore,MD,21227,268000,3,2.5,HALETHORPE,1890,7500,1938,891,142,,Sold,,,https://www.redfin.com/MD/Halethorpe/1242-Greystone-Rd-21227/home/9357911,BRIGHT MLS,MDBC456598,N,Y,39.2551321,-76.6936042
PAST SALE,May-27-2021,Single Family Residential,208 2nd Ave,Baltimore,MD,21227,169500,3,1.0,LANSDOWNE,1215,5000,1943,192,140,,Sold,,,https://www.redfin.com/MD/Halethorpe/208-2nd-Ave-21227/home/9357915,BRIGHT MLS,MDBC524138,N,Y,39.2438008,-76.6600206
PAST SALE,July-22-2020,Townhouse,3103 Ryerson Cir,Baltimore,MD,21227,157500,3,1.0,PATAPSCO TERRACE,1116,2088,1963,501,141,,Sold,,,https://www.redfin.com/MD/Halethorpe/3103-Ryerson-Cir-21227/home/9358021,BRIGHT MLS,MDBC488958,N,Y,39.237583,-76.658783
PAST SALE,July-2-2020,Townhouse,3229 Ryerson Cir,Halethorpe,MD,21227,90000,3,1.0,PATAPSCO TERRACE,1386,2538,1964,521,65,,Sold,,,https://www.redfin.com/MD/Halethorpe/3229-Ryerson-Cir-21227/home/9357460,BRIGHT MLS,MDBC493904,N,Y,39.2349483,-76.6584166
PAST SALE,August-25-2021,Single Family Residential,1309 Birch Ave,Baltimore,MD,21227,282000,4,2.0,LINDEN HEIGHTS,1904,5600,1939,102,148,,Sold,,,https://www.redfin.com/MD/Arbutus/1309-Birch-Ave-21227/home/9358005,BRIGHT MLS,MDBC2004034,N,Y,39.2486523,-76.6969199
PAST SALE,October-27-2021,Single Family Residential,4303 Arline Ave,Baltimore,MD,21227,480000,4,3.5,HALETHORPE TERRACE,3111,12196,1975,39,154,,Sold,,,https://www.redfin.com/MD/Halethorpe/4303-Arline-Ave-21227/home/9358030,BRIGHT MLS,MDBC2011482,N,Y,39.233422,-76.681425
PAST SALE,November-12-2021,Townhouse,944 Circle Dr,Arbutus,MD,21227,230000,3,1.5,MAIDEN CHOICE VILLAGE,1408,1890,1961,23,163,,Sold,,,https://www.redfin.com/MD/Halethorpe/944-Circle-Dr-21227/home/9357962,BRIGHT MLS,MDBC2011176,N,Y,39.2596372,-76.7052885
PAST SALE,August-23-2019,Single Family Residential,5509 Heatherwood Rd,Baltimore,MD,21227,300000,3,2.0,OAKLAND TERRACE,1336,6930,1957,835,225,,Sold,,,https://www.redfin.com/MD/Halethorpe/5509-Heatherwood-Rd-21227/home/9357969,BRIGHT MLS,MDBC463860,N,Y,39.244547,-76.7008929
PAST SALE,January-31-2019,Single Family Residential,1702 Arbutus Ave,Baltimore,MD,21227,170000,3,1.5,HALETHORPE,1628,4950,1938,1039,104,,Sold,,,https://www.redfin.com/MD/Halethorpe/1702-Arbutus-Ave-21227/home/9358036,BRIGHT MLS,MDBC134876,N,Y,39.2387172,-76.6883329
PAST SALE,July-19-2021,Single Family Residential,5508 Willys Ave,Baltimore,MD,21227,215000,3,2.0,SULPHUR SPRING TERRACE,1638,6250,1935,139,131,,Sold,,,https://www.redfin.com/MD/Halethorpe/5508-Willys-Ave-21227/home/9358126,BRIGHT MLS,MDBC526340,N,Y,39.2460485,-76.6964016
PAST SALE,March-4-2021,Single Family Residential,1812 Main St,Halethorpe,MD,21227,250000,2,1.0,SAINT DENNIS PARK,864,6250,1963,276,289,,Sold,,,https://www.redfin.com/MD/Halethorpe/1812-Main-St-21227/home/9358135,BRIGHT MLS,MDBC517152,N,Y,39.2219399,-76.7040134
PAST SALE,October-23-2020,Single Family Residential,1923 Grant Rd,Baltimore,MD,21227,265000,2,1.5,OAK PARK,1332,7500,1979,408,199,,Sold,,,https://www.redfin.com/MD/Halethorpe/1923-Grant-Rd-21227/home/9358159,BRIGHT MLS,MDBC504190,N,Y,39.2398786,-76.6786666
PAST SALE,January-8-2021,Single Family Residential,5502 Osage Ave,Baltimore,MD,21227,285000,4,2.0,TEIPEWOOD,1784,10750,1954,331,160,,Sold,,,https://www.redfin.com/MD/Halethorpe/5502-Osage-Ave-21227/home/9358263,BRIGHT MLS,MDBC514596,N,Y,39.2498732,-76.7000741
PAST SALE,,Single Family Residential,4104 Oak Rd,Halethorpe,MD,21227,375000,,2.5,,2394,61420,1975,,157,,,,,https://www.redfin.com/MD/Halethorpe/4104-Oak-Rd-21227/home/9358288,,,N,Y,39.2388401,-76.642756
PAST SALE,June-14-2019,Single Family Residential,1814 Mayfield Ave,Baltimore,MD,21227,279900,3,2.0,MAYFIELD TERRACE,1413,9050,1951,905,198,,Sold,,,https://www.redfin.com/MD/Halethorpe/1814-Mayfield-Ave-21227/home/9358235,BRIGHT MLS,MDBC436402,N,Y,39.2338452,-76.6902893
PAST SALE,June-7-2021,Single Family Residential,2807 Florida Ave,Halethorpe,MD,21227,280500,4,1.0,BALTIMORE HIGHLANDS,1652,5000,1956,181,170,,Sold,,,https://www.redfin.com/MD/Halethorpe/2807-Florida-Ave-21227/home/9358310,BRIGHT MLS,MDBC528442,N,Y,39.2379207,-76.6405756
PAST SALE,December-20-2019,Townhouse,1260 Brewster St,Baltimore,MD,21227,189000,3,1.5,GAYLORD MANOR,1234,1920,1953,716,153,,Sold,,,https://www.redfin.com/MD/Halethorpe/1260-Brewster-St-21227/home/9358250,BRIGHT MLS,MDBC478144,N,Y,39.2457599,-76.699935
PAST SALE,November-30-2020,Single Family Residential,119 Hazel Ave,Baltimore,MD,21227,255000,3,2.0,JOSHUA,1220,3200,1930,370,209,,Sold,,,https://www.redfin.com/MD/Lansdowne/119-Hazel-Ave-21227/home/9358402,BRIGHT MLS,MDBC509368,N,Y,39.2464614,-76.6629065
PAST SALE,July-12-2019,Single Family Residential,281 Elizabeth Ave,Halethorpe,MD,21227,260000,3,2.0,JOSHUA,1329,7500,1900,877,196,,Sold,,,https://www.redfin.com/MD/Halethorpe/281-Elizabeth-Ave-21227/home/9358475,BRIGHT MLS,MDBC456488,N,Y,39.2471214,-76.6588629
PAST SALE,December-15-2020,Single Family Residential,1709 Rittenhouse Ave,Baltimore,MD,21227,134000,3,1.0,BLOOMFIELD,816,5244,1930,355,164,,Sold,,,https://www.redfin.com/MD/Arbutus/1709-Rittenhouse-Ave-21227/home/9358478,BRIGHT MLS,MDBC510862,N,Y,39.2578369,-76.6660958
PAST SALE,,Townhouse,4410 Fenor Rd,Halethorpe,MD,21227,80000,,1.0,,1024,3348,1958,,78,,,,,https://www.redfin.com/MD/Halethorpe/4410-Fenor-Rd-21227/home/9358487,,,N,Y,39.2348389,-76.6438053
PAST SALE,November-8-2019,Townhouse,5650 Chelwynd Rd,Baltimore,MD,21227,240000,3,2.0,HUNTSMOOR VILLAGE NORTH,1672,2070,1967,758,144,,Sold,,,https://www.redfin.com/MD/Halethorpe/5650-Chelwynd-Rd-21227/home/9358559,BRIGHT MLS,MDBC471524,N,Y,39.2401719,-76.7072528
PAST SALE,February-14-2020,Townhouse,3110 Ryerson Cir,Halethorpe,MD,21227,154000,2,1.0,PATAPSCO TERRACE,1116,3894,1963,660,138,,Sold,,,https://www.redfin.com/MD/Halethorpe/3110-Ryerson-Cir-21227/home/9358428,BRIGHT MLS,MDBC483104,N,Y,39.237237,-76.65882
PAST SALE,February-22-2019,Townhouse,4135 Hollins Ferry Rd,Baltimore,MD,21227,90000,3,1.0,RIVERVIEW,1024,1680,1956,1017,88,,Sold,,,https://www.redfin.com/MD/Halethorpe/4135-Hollins-Ferry-Rd-21227/home/9358432,BRIGHT MLS,MDBC331406,N,Y,39.2383689,-76.6523019
PAST SALE,March-29-2021,Townhouse,424 Burbank Ct,Halethorpe,MD,21227,137000,3,1.0,RIVERVIEW,1024,5412,1957,251,134,,Sold,,,https://www.redfin.com/MD/Halethorpe/424-Burbank-Ct-21227/home/9358533,BRIGHT MLS,MDBC519516,N,Y,39.2343954,-76.6532566
PAST SALE,April-24-2020,Single Family Residential,5516 Selma Ave,Baltimore,MD,21227,259000,3,2.0,NORTH HALETHORPE,1422,8213,1925,590,182,,Sold,,,https://www.redfin.com/MD/Halethorpe/5516-Selma-Ave-21227/home/9357354,BRIGHT MLS,MDBC487394,N,Y,39.2465903,-76.6924509
PAST SALE,February-28-2019,Townhouse,2763 Norfen Rd,Baltimore,MD,21227,75000,3,1.0,FRIENDSHIP GARDENS,1024,3451,1957,1011,73,,Sold,,,https://www.redfin.com/MD/Halethorpe/2763-Norfen-Rd-21227/home/9358583,BRIGHT MLS,MDBC187512,N,Y,39.2325996,-76.6435566
PAST SALE,September-3-2021,Townhouse,3187 Bero Rd,Halethorpe,MD,21227,150000,3,1.0,RIVERVIEW,1024,3224,1955,93,146,,Sold,,,https://www.redfin.com/MD/Halethorpe/3187-Bero-Rd-21227/home/9368429,BRIGHT MLS,MDBC2010276,N,Y,39.236485,-76.6521511
PAST SALE,,Single Family Residential,3005 Georgia Ave,Halethorpe,MD,21227,275000,,2.0,,1075,9375,1957,,256,,,,,https://www.redfin.com/MD/Halethorpe/3005-Georgia-Ave-21227/home/9358727,,,N,Y,39.2347938,-76.6355249
PAST SALE,August-30-2021,Single Family Residential,4314 Baltimore St,Halethorpe,MD,21227,270000,4,1.0,BALTIMORE HIGHLANDS,1326,9375,1952,97,204,,Sold,,,https://www.redfin.com/MD/Halethorpe/4314-Baltimore-St-21227/home/9358731,BRIGHT MLS,MDBC2003304,N,Y,39.2325906,-76.6346646
PAST SALE,,Single Family Residential,242 3rd Ave,Halethorpe,MD,21227,270000,,1.0,,1578,7500,1989,,171,,,,,https://www.redfin.com/MD/Halethorpe/242-3rd-Ave-21227/home/9358790,,,N,Y,39.2431176,-76.6591959
PAST SALE,December-6-2019,Single Family Residential,4314 Leola Ave,Baltimore,MD,21227,175000,3,2.0,HALETHORPE TERRACE,1574,2200,1986,730,111,,Sold,,,https://www.redfin.com/MD/Halethorpe/4314-Leola-Ave-21227/home/9358637,BRIGHT MLS,MDBC475674,N,Y,39.2347322,-76.6815544
PAST SALE,,Single Family Residential,1262 Linden Ave,Halethorpe,MD,21227,275000,,2.0,,1744,7600,1925,,158,,,,,https://www.redfin.com/MD/Halethorpe/1262-Linden-Ave-21227/home/9358746,,,N,Y,39.2521382,-76.6953412
PAST SALE,June-17-2019,Single Family Residential,1706 Hall Ave,Halethorpe,MD,21227,175000,5,3.0,BLOOMFIELD,2104,6750,1952,902,83,,Sold,,,https://www.redfin.com/MD/Halethorpe/1706-Hall-Ave-21227/home/9357423,BRIGHT MLS,MDBC453376,N,Y,39.2572062,-76.6676516
PAST SALE,January-14-2019,Single Family Residential,2914 Illinois Ave,Baltimore,MD,21227,285000,4,3.0,BALTIMORE HIGHLANDS,2094,9375,1951,1056,136,,Sold,,,https://www.redfin.com/MD/Halethorpe/2914-Illinois-Ave-21227/home/9358865,BRIGHT MLS,MDBC102270,N,Y,39.2348305,-76.6373909
PAST SALE,November-20-2020,Single Family Residential,1228 Circle Dr,Baltimore,MD,21227,302000,3,1.5,SHELBOURNE RIDGE,1844,7750,1940,380,164,,Sold,,,https://www.redfin.com/MD/Halethorpe/1228-Circle-Dr-21227/home/9361455,BRIGHT MLS,MDBC508358,N,Y,39.2552,-76.6970049
PAST SALE,May-18-2021,Townhouse,5839 Richardson Mews Sq,Baltimore,MD,21227,301500,3,2.5,RICHARDSON MEWS,2000,4973,1979,201,151,96,Sold,,,https://www.redfin.com/MD/Halethorpe/5839-Richardson-Mews-Sq-21227/home/9384215,BRIGHT MLS,MDBC523908,N,Y,39.2300427,-76.7010866
PAST SALE,May-15-2020,Single Family Residential,5161 Viaduct Ave,Halethorpe,MD,21227,425000,3,3.5,HISTORIC RELAY,2588,60984,2000,569,164,,Sold,,,https://www.redfin.com/MD/Halethorpe/5161-Viaduct-Ave-21227/home/9358834,BRIGHT MLS,MDBC490954,N,Y,39.226394,-76.7114671
PAST SALE,,Townhouse,319 Bigley Ave,Halethorpe,MD,21227,88000,,1.0,,1024,1680,1954,,86,,,,,https://www.redfin.com/MD/Halethorpe/319-Bigley-Ave-21227/home/9358917,,,N,Y,39.2389196,-76.6575172
PAST SALE,September-4-2020,Single Family Residential,2402 Zion Rd,Baltimore,MD,21227,218000,2,2.0,Baltimore,1574,5000,1953,457,139,,Sold,,,https://www.redfin.com/MD/Halethorpe/2402-Zion-Rd-21227/home/9359003,BRIGHT MLS,MDBC500184,N,Y,39.2479546,-76.6558444
PAST SALE,February-18-2020,Townhouse,3323 Bero Rd,Baltimore,MD,21227,78000,4,1.0,RIVERVIEW,1024,7888,1957,656,76,,Sold,,,https://www.redfin.com/MD/Halethorpe/3323-Bero-Rd-21227/home/9359014,BRIGHT MLS,MDBC483456,N,Y,39.2341982,-76.6527102
PAST SALE,April-10-2019,Single Family Residential,2219 Gaylawn Dr,Baltimore,MD,21227,257262,3,3.5,GAYLAWN,1008,6875,1955,970,255,,Sold,,,https://www.redfin.com/MD/Halethorpe/2219-Gaylawn-Dr-21227/home/9382618,BRIGHT MLS,MDBC333078,N,Y,39.2519946,-76.656919
PAST SALE,September-3-2021,Single Family Residential,1236 Oakland Terrace Rd,Baltimore,MD,21227,279200,4,1.0,OAKLAND TERRACE,1461,6413,1953,93,191,,Sold,,,https://www.redfin.com/MD/Halethorpe/1236-Oakland-Terrace-Rd-21227/home/9364349,BRIGHT MLS,MDBC2004370,N,Y,39.2421891,-76.6999421
PAST SALE,,Townhouse,1221 Brewster St,Halethorpe,MD,21227,188000,,1.0,,1234,2730,1953,,152,,,,,https://www.redfin.com/MD/Halethorpe/1221-Brewster-St-21227/home/9359051,,,N,Y,39.2455046,-76.7015614
PAST SALE,August-3-2021,Single Family Residential,202 Hillendale Ave,Baltimore,MD,21227,350000,5,3.5,HILLSIDE,2800,6000,1930,124,125,,Sold,,,https://www.redfin.com/MD/Halethorpe/202-Hillendale-Ave-21227/home/9376129,BRIGHT MLS,MDBC520978,N,Y,39.240522,-76.65965
PAST SALE,April-13-2020,Single Family Residential,320 2nd Ave,Baltimore,MD,21227,275000,5,3.0,LANSDOWNE,2240,5000,1951,601,123,,Sold,,,https://www.redfin.com/MD/Halethorpe/320-2nd-Ave-21227/home/9375535,BRIGHT MLS,MDBC482008,N,Y,39.2438907,-76.6567974
PAST SALE,December-23-2020,Single Family Residential,301 Fifth Ave,Halethorpe,MD,21227,240000,4,3.0,LANSDOWNE,1550,7650,1950,347,155,,Sold,,,https://www.redfin.com/MD/Halethorpe/301-Fifth-Ave-21227/home/9359144,BRIGHT MLS,MDBC505830,N,Y,39.24165996642876,-76.65824661479122
PAST SALE,June-12-2019,Single Family Residential,5833 Oakland Rd,Baltimore,MD,21227,345000,5,1.5,WYNNEWOOD,1632,16388,1959,907,211,2,Sold,,,https://www.redfin.com/MD/Halethorpe/5833-Oakland-Rd-21227/home/9359140,BRIGHT MLS,MDBC458678,N,Y,39.2313582,-76.6932663
PAST SALE,October-29-2019,Townhouse,909 Elm Rd,Halethorpe,MD,21227,230000,3,2.0,HUNTSMOOR VILLAGE NORTH,1776,2160,1968,768,130,,Sold,,,https://www.redfin.com/MD/Halethorpe/909-Elm-Rd-21227/home/9359172,BRIGHT MLS,MDBC472920,N,Y,39.2404239,-76.7102987
PAST SALE,,Townhouse,2901 Freeway,Halethorpe,MD,21227,80000,,1.0,,1024,4264,1955,,78,,,,,https://www.redfin.com/MD/Halethorpe/2901-Freeway-21227/home/9359295,,,N,Y,39.2411815,-76.6502546
PAST SALE,July-2-2020,Single Family Residential,202 5th Ave,Baltimore,MD,21227,212000,3,2.5,LANSDOWNE,1430,5000,1952,521,148,,Sold,,,https://www.redfin.com/MD/Halethorpe/202-Fifth-Ave-21227/home/9359235,BRIGHT MLS,MDBC492930,N,Y,39.2417724,-76.6601964
PAST SALE,October-29-2019,Single Family Residential,5520 Carville Ave,Baltimore,MD,21227,275000,3,2.0,NORTH HALETHORPE,2109,6860,1925,768,130,,Sold,,,https://www.redfin.com/MD/Halethorpe/5520-Carville-Ave-21227/home/9359241,BRIGHT MLS,MDBC469376,N,Y,39.2456893,-76.6940848
PAST SALE,March-12-2021,Single Family Residential,1929 Bell Ave,Baltimore,MD,21227,335000,3,2.0,OAK PARK,1556,12800,1953,268,215,,Sold,,,https://www.redfin.com/MD/Halethorpe/1929-Bell-Ave-21227/home/9359309,BRIGHT MLS,MDBC518792,N,Y,39.2398855,-76.6763578
PAST SALE,,Single Family Residential,110 1st Ave,Halethorpe,MD,21227,220000,,1.0,,1050,8540,1962,,210,,,,,https://www.redfin.com/MD/Halethorpe/110-1st-Ave-21227/home/9379580,,,N,Y,39.2443842,-76.6619443
PAST SALE,June-20-2019,Single Family Residential,4403 Ridge Ave,Baltimore,MD,21227,289900,3,2.0,HALETHORPE,1708,6441,1955,899,170,,Sold,,,https://www.redfin.com/MD/Halethorpe/4403-Ridge-Ave-21227/home/9359352,BRIGHT MLS,MDBC455866,N,Y,39.2387785,-76.6846219
PAST SALE,July-16-2021,Single Family Residential,5106 Benson Ave,Arbutus,MD,21227,213150,3,2.0,ARBUTUS,1870,9936,1949,142,114,,Sold,,,https://www.redfin.com/MD/Halethorpe/5106-Benson-Ave-21227/home/9359501,BRIGHT MLS,MDBC510484,N,Y,39.2536184,-76.688948
PAST SALE,July-2-2021,Single Family Residential,5518 Willys Ave,Arbutus,MD,21227,310000,3,1.0,SULPHUR SPRING TERRACE,1314,6250,1942,156,236,,Sold,,,https://www.redfin.com/MD/Halethorpe/5518-Willys-Ave-21227/home/9359317,BRIGHT MLS,MDBC529358,N,Y,39.2453886,-76.6963817
PAST SALE,October-8-2021,Single Family Residential,5535 Link Ave,Halethorpe,MD,21227,263000,3,2.0,NORTH HALETHORPE,1478,6750,1925,58,178,,Sold,,,https://www.redfin.com/MD/Halethorpe/5535-Link-Ave-21227/home/9359434,BRIGHT MLS,MDBC2002426,N,Y,39.2446273,-76.6949537
PAST SALE,August-24-2021,Single Family Residential,1221 Seven Oaks Rd,Halethorpe,MD,21227,260000,3,1.0,LEEDS,1152,6000,1950,103,226,,Sold,,,https://www.redfin.com/MD/Arbutus/1221-Seven-Oaks-Rd-21227/home/9359321,BRIGHT MLS,MDBC531914,N,Y,39.2556201,-76.6965703
PAST SALE,February-3-2021,Multi-Family (2-4 Unit),3320 Washington Blvd,Baltimore,MD,21227,180000,,,Baltimore,3197,7254,1925,305,56,,Sold,,,https://www.redfin.com/MD/Halethorpe/3320-Washington-Blvd-21227/home/12536360,BRIGHT MLS,MDBC516268,N,Y,39.2562902,-76.6659917
PAST SALE,November-15-2019,Single Family Residential,1962 Bell Ave,Baltimore,MD,21227,200000,3,2.0,OAK PARK,1968,47916,1960,751,102,,Sold,,,https://www.redfin.com/MD/Halethorpe/1962-Bell-Ave-21227/home/9359530,BRIGHT MLS,MDBC473280,N,Y,39.23803,-76.6765917
PAST SALE,October-15-2021,Single Family Residential,5813 Oakland Rd,Baltimore,MD,21227,325000,3,2.5,WYNNEWOOD,1640,10631,1958,51,198,,Sold,,,https://www.redfin.com/MD/Halethorpe/5813-Oakland-Rd-21227/home/9374223,BRIGHT MLS,MDBC2009150,N,Y,39.2332877,-76.6937346
PAST SALE,,Single Family Residential,2815 Ohio Ave,Halethorpe,MD,21227,375000,,2.5,,2586,9375,2004,,145,,,,,https://www.redfin.com/MD/Halethorpe/2815-Ohio-Ave-21227/home/9359603,,,N,Y,39.2332897,-76.6400296
PAST SALE,December-27-2019,Single Family Residential,1718 Arlington Ave,Baltimore,MD,21227,320000,5,3.5,RELAY,2343,24068,1914,709,137,,Sold,,,https://www.redfin.com/MD/Halethorpe/1718-Arlington-Ave-21227/home/9359624,BRIGHT MLS,MDBC475832,N,Y,39.2256001,-76.7056187
PAST SALE,,Single Family Residential,2902 Pennsylvania Ave,Halethorpe,MD,21227,205000,,1.0,,1254,6250,1959,,163,,,,,https://www.redfin.com/MD/Halethorpe/2902-Pennsylvania-Ave-21227/home/9359634,,,N,Y,39.2391183,-76.6368854
PAST SALE,December-7-2018,Single Family Residential,3012 Georgia Ave,Baltimore,MD,21227,249900,4,2.0,BALTIMORE HIGHLANDS,1832,9375,1958,1094,136,,Sold,,,https://www.redfin.com/MD/Lansdowne/3012-Georgia-Ave-21227/home/9359637,BRIGHT MLS,1009957746,N,Y,39.2350838,-76.6350213
PAST SALE,October-26-2020,Single Family Residential,3207 Hilltop Ave,Baltimore,MD,21227,271100,3,1.5,HILLTOP,1314,7750,1940,405,206,,Sold,,,https://www.redfin.com/MD/Arbutus/3207-Hilltop-Ave-21227/home/9359775,BRIGHT MLS,MDBC504762,N,Y,39.2551832,-76.6628163
PAST SALE,June-14-2019,Single Family Residential,3610 Lilac Ave,Halethorpe,MD,21227,230000,3,1.0,ENGLISH CONSUL ESTATES,1040,9675,1966,905,221,,Sold,,,https://www.redfin.com/MD/Halethorpe/3610-Lilac-Ave-21227/home/9359708,BRIGHT MLS,MDBC451470,N,Y,39.2451718,-76.6399025
PAST SALE,October-4-2021,Single Family Residential,2940 Charleston Ave,Baltimore,MD,21227,265000,3,2.0,HILLSIDE,2532,21600,1924,62,105,,Sold,,,https://www.redfin.com/MD/Halethorpe/2940-Charleston-Ave-21227/home/9359717,BRIGHT MLS,MDBC2008308,N,Y,39.2386508,-76.6588444
PAST SALE,April-20-2021,Multi-Family (2-4 Unit),1234 Linden Ave,Halethorpe,MD,21227,250000,,,Halethorpe,1992,6254,1919,229,126,,Sold,,,https://www.redfin.com/MD/Halethorpe/1234-Linden-Ave-21227/home/9359722,BRIGHT MLS,MDBC498968,N,Y,39.2528914,-76.6967106
PAST SALE,August-5-2019,Townhouse,5654 Braxfield Rd,Baltimore,MD,21227,232000,3,2.0,HUNTSMOOR VILLAGE NORTH,1846,4176,1966,853,126,,Sold,,,https://www.redfin.com/MD/Halethorpe/5654-Braxfield-Rd-21227/home/9359693,BRIGHT MLS,MDBC463410,N,Y,39.2404481,-76.7060683
PAST SALE,December-11-2018,Townhouse,1008 Circle Dr,Baltimore,MD,21227,225000,4,2.0,MAIDEN CHOICE VILLAGE,1408,1890,1962,1090,160,,Sold,,,https://www.redfin.com/MD/Halethorpe/1008-Circle-Dr-21227/home/9359694,BRIGHT MLS,MDBC100510,N,Y,39.25878,-76.7034967
PAST SALE,July-15-2019,Single Family Residential,1237 Maple Ave,Baltimore,MD,21227,280000,4,2.0,ARBUTUS TERRACE,1824,5100,1930,874,154,,Sold,,,https://www.redfin.com/MD/Halethorpe/1237-Maple-Ave-21227/home/9359821,BRIGHT MLS,MDBC454860,N,Y,39.2521805,-76.6989952
PAST SALE,,Single Family Residential,1213 Weddell Ave,Halethorpe,MD,21227,336000,,2.5,,2028,7552,1993,,166,,,,,https://www.redfin.com/MD/Halethorpe/1213-Weddell-Ave-21227/home/9385406,,,N,Y,39.2634358,-76.6792404
PAST SALE,May-14-2019,Single Family Residential,310 Fifth Ave,Halethorpe,MD,21227,210000,3,2.0,LANSDOWNE,832,5000,1927,936,252,,Sold,,,https://www.redfin.com/MD/Halethorpe/310-Fifth-Ave-21227/home/9366030,BRIGHT MLS,MDBC116106,N,Y,39.2417793,-76.6577692
PAST SALE,October-11-2021,Townhouse,5 Mayton Ct #1703,Baltimore,MD,21227,263000,3,2.5,RIVERCHASE,1224,,1990,55,215,200,Sold,,,https://www.redfin.com/MD/Halethorpe/5-Mayton-Ct-21227/unit-1703/home/9386784,BRIGHT MLS,MDBC2010516,N,Y,39.2369269,-76.7063361
PAST SALE,,Condo/Co-op,3 Tollington Ct #3,Halethorpe,MD,21227,240000,,2.5,,1534,,1993,,156,,,,,https://www.redfin.com/MD/Halethorpe/3-Tollington-Ct-21227/unit-3/home/9388003,,,N,Y,39.2377384,-76.7050957
PAST SALE,November-16-2020,Single Family Residential,4416 Walnut Rd,Halethorpe,MD,21227,300000,4,2.0,HALETHORPE,1630,13111,2010,384,184,,Sold,,,https://www.redfin.com/MD/Halethorpe/4416-Walnut-Rd-21227/home/12534778,BRIGHT MLS,MDBC508092,N,Y,39.23412,-76.647305
PAST SALE,June-21-2021,Townhouse,4912 Gateway Ter,Baltimore,MD,21227,260000,3,2.0,MAIDEN CHOICE VILLAGE,1408,2800,1955,167,185,,Sold,,,https://www.redfin.com/MD/Halethorpe/4912-Gateway-Ter-21227/home/9383572,BRIGHT MLS,MDBC524732,N,Y,39.2610642,-76.7031302
PAST SALE,April-14-2021,Single Family Residential,2425 Brunswick Rd,Baltimore,MD,21227,265000,3,2.5,HIGHLAND,1444,5000,1953,235,184,,Sold,,,https://www.redfin.com/MD/Lansdowne/2425-Brunswick-Rd-21227/home/9376590,BRIGHT MLS,MDBC521804,N,Y,39.2463101,-76.6570669
PAST SALE,February-13-2020,Townhouse,18 Gates Mill Ct,Halethorpe,MD,21227,342880,3,2.5,HIGHGATE VILLAGE,1904,1568,2020,661,180,39,Sold,,,https://www.redfin.com/MD/Baltimore/18-Gates-Mill-Ct-21227/home/9688444,BRIGHT MLS,MDBC474916,N,Y,39.2261262,-76.6990706
PAST SALE,October-17-2019,Townhouse,1840 Wind Gate Rd,Halethorpe,MD,21227,351545,3,3.0,HIGHGATE VILLAGE,2141,1568,2019,780,164,39,Sold,,,https://www.redfin.com/MD/Baltimore/1840-Wind-Gate-Rd-21227/home/9688471,BRIGHT MLS,MDBC463488,N,Y,39.2266596,-76.6984196
PAST SALE,,Townhouse,805 Regis Ct,Halethorpe,MD,21227,150000,,1.0,,1024,5665,1957,,146,,,,,https://www.redfin.com/MD/Halethorpe/805-Regis-Ct-21227/home/9377979,,,N,Y,39.2387921,-76.6525496
PAST SALE,May-30-2019,Townhouse,4901 Arborgate Cir,Halethorpe,MD,21227,349502,3,2.5,HIGHGATE VILLAGE,1918,1568,2019,920,182,39,Sold,,,https://www.redfin.com/MD/Baltimore/4901-Arborgate-Cir-21227/home/9688469,BRIGHT MLS,MDBC431866,N,Y,39.226815,-76.698458
PAST SALE,November-23-2020,Townhouse,237 Green Fern Way,Baltimore,MD,21227,229000,3,2.0,WOODSHIRE VILLAGE,1722,1660,1993,377,133,,Sold,,,https://www.redfin.com/MD/Halethorpe/237-Green-Fern-Way-21227/home/9387367,BRIGHT MLS,MDBC507366,N,Y,39.2511421,-76.6608261
PAST SALE,,Townhouse,810 Rambo Ct,Halethorpe,MD,21227,148000,,1.0,,1024,3255,1955,,145,,,,,https://www.redfin.com/MD/Halethorpe/810-Rambo-Ct-21227/home/9372474,,,N,Y,39.2407062,-76.651811
PAST SALE,July-11-2019,Single Family Residential,5205 Leeds Ave,Baltimore,MD,21227,200000,4,2.0,LINDEN HEIGHTS,4000,8020,1925,878,50,,Sold,,,https://www.redfin.com/MD/Baltimore/5205-Leeds-Ave-21227/home/167051593,BRIGHT MLS,MDBC460958,N,Y,39.2516174,-76.6939659
PAST SALE,November-19-2019,Townhouse,5 W End Ct,Halethorpe,MD,21227,239900,3,2.5,RICHARDSON MEWS,1640,1614,1985,747,146,89,Sold,,,https://www.redfin.com/MD/Halethorpe/5-W-End-Ct-21227/home/9384465,BRIGHT MLS,MDBC472618,N,Y,39.2321515,-76.7027843
PAST SALE,April-27-2020,Single Family Residential,2808A New York Ave,Baltimore,MD,21227,325000,3,2.5,BALTIMORE HIGHLANDS,2550,6250,2020,587,127,,Sold,,,https://www.redfin.com/MD/Lansdowne/2808-New-York-Ave-21227/home/161386180,BRIGHT MLS,MDBC487834,N,Y,39.2329809,-76.6407927
PAST SALE,December-20-2019,Single Family Residential,1245 Elm Rd,Baltimore,MD,21227,250000,4,2.0,ARBUTUS,1758,6300,1952,716,142,,Sold,,,https://www.redfin.com/MD/Halethorpe/1245-Elm-Rd-21227/home/9358881,BRIGHT MLS,MDBC477938,N,Y,39.2412751,-76.6978252
PAST SALE,,Single Family Residential,1267 Maple Ave,Halethorpe,MD,21227,300000,,1.0,,1326,4080,1959,,226,,,,,https://www.redfin.com/MD/Halethorpe/1267-Maple-Ave-21227/home/9369751,,,N,Y,39.2513812,-76.6976822
PAST SALE,November-26-2019,Townhouse,4847 Carmella Dr,Baltimore,MD,21227,154000,3,1.0,MAIDEN CHOICE VILLAGE,1408,1800,1955,740,109,,Sold,,,https://www.redfin.com/MD/Halethorpe/4847-Carmella-Dr-21227/home/9383464,BRIGHT MLS,MDBC475480,N,Y,39.260416,-76.701523
PAST SALE,March-20-2020,Townhouse,341 Bigley Ave,Halethorpe,MD,21227,120000,3,1.0,RIVERVIEW,1024,1680,1954,625,117,,Sold,,,https://www.redfin.com/MD/Halethorpe/341-Bigley-Ave-21227/home/9381926,BRIGHT MLS,MDBC479330,N,Y,39.2388895,-76.6565258
PAST SALE,August-12-2021,Single Family Residential,5559 Oakland Rd,Baltimore,MD,21227,260000,3,1.0,HALETHORPE/ARBUTUS,1486,7550,1952,115,175,,Sold,,,https://www.redfin.com/MD/Halethorpe/5559-Oakland-Rd-21227/home/9366802,BRIGHT MLS,MDBC530782,N,Y,39.2424139,-76.6975676
PAST SALE,October-22-2020,Single Family Residential,247 First Ave,Baltimore,MD,21227,249900,3,2.0,LANSDOWNE,1440,5000,1953,409,174,,Sold,,,https://www.redfin.com/MD/Lansdowne/247-1st-Ave-21227/home/9374312,BRIGHT MLS,MDBC505646,N,Y,39.2444401,-76.6588478
PAST SALE,January-14-2019,Townhouse,447 Bigley Ave,Halethorpe,MD,21227,67000,3,1.0,RIVERVIEW,1024,1680,1954,1056,65,,Sold,,,https://www.redfin.com/MD/Halethorpe/447-Bigley-Ave-21227/home/9381673,BRIGHT MLS,MDBC194354,N,Y,39.238894,-76.65514
PAST SALE,January-29-2021,Single Family Residential,1710 Hall Ave,Halethorpe,MD,21227,238000,4,2.0,BLOOMFIELD,1596,7500,1929,310,149,,Sold,,,https://www.redfin.com/MD/Halethorpe/1710-Hall-Ave-21227/home/9380948,BRIGHT MLS,MDBC511220,N,Y,39.257178,-76.6675695
PAST SALE,September-20-2021,Townhouse,919 Imperial Ct,Baltimore,MD,21227,125000,3,1.0,RIVERVIEW,1024,4859,1955,76,122,,Sold,,,https://www.redfin.com/MD/Halethorpe/919-Imperial-Ct-21227/home/9363781,BRIGHT MLS,MDBC2006524,N,Y,39.237917,-76.6516715
PAST SALE,August-13-2021,Townhouse,919 Regina Dr,Baltimore,MD,21227,245000,3,1.5,MAIDEN CHOICE VILLAGE,1544,1800,1962,114,159,,Sold,,,https://www.redfin.com/MD/Halethorpe/919-Regina-Dr-21227/home/9379814,BRIGHT MLS,MDBC532530,N,Y,39.2603441,-76.7054409
PAST SALE,,Single Family Residential,2904 Pennsylvania Ave,Lansdowne,MD,21227,160000,,1.0,,1206,6250,1959,,133,,,,,https://www.redfin.com/MD/Lansdowne/2904-Pennsylvania-Ave-21227/home/9360619,,,N,Y,39.2391118,-76.6367361
PAST SALE,November-20-2020,Single Family Residential,1209 Birch Ave,Baltimore,MD,21227,300000,3,2.0,TEIPEWOOD,1496,7119,1951,380,201,,Sold,,,https://www.redfin.com/MD/Halethorpe/1209-Birch-Ave-21227/home/9378768,BRIGHT MLS,MDBC510244,N,Y,39.2504841,-76.7024692
PAST SALE,January-15-2020,Single Family Residential,102 Baltimore Ave,Halethorpe,MD,21227,157500,2,1.0,JOSHUA,900,5200,1905,690,175,,Sold,,,https://www.redfin.com/MD/Halethorpe/102-Baltimore-Ave-21227/home/9362644,BRIGHT MLS,MDBC474494,N,Y,39.2481727,-76.6635891
PAST SALE,October-29-2021,Single Family Residential,104 4th Ave,Baltimore,MD,21227,255000,4,3.0,LANSDOWNE,1356,5000,1917,37,188,,Sold,,,https://www.redfin.com/MD/Halethorpe/104-4th-Ave-21227/home/9371410,BRIGHT MLS,MDBC2003356,N,Y,39.2422092,-76.6625288
PAST SALE,July-30-2021,Single Family Residential,1921 Brady Ave,Baltimore,MD,21227,155501,4,2.0,OAK PARK,1066,6350,1955,128,146,,Sold,,,https://www.redfin.com/MD/Halethorpe/1921-Brady-Ave-21227/home/9361111,BRIGHT MLS,MDBC2002636,N,Y,39.2412755,-76.6754618
PAST SALE,January-29-2019,Townhouse,1154 Oakmoor Ct,Baltimore,MD,21227,248000,3,2.5,RIVER CHASE,1542,,1992,1041,161,179,Sold,,,https://www.redfin.com/MD/Halethorpe/1154-Oakmoor-Ct-21227/unit-1154/home/9387859,BRIGHT MLS,MDBC188676,N,Y,39.2370109,-76.7025356
PAST SALE,December-13-2019,Single Family Residential,1234 Leeds Ter,Baltimore,MD,21227,275000,5,2.0,LEEDS,2010,6630,1938,723,137,,Sold,,,https://www.redfin.com/MD/Halethorpe/1234-Leeds-Ter-21227/home/9360609,BRIGHT MLS,MDBC476436,N,Y,39.2583031,-76.6924544
PAST SALE,June-26-2019,Townhouse,1217 Sulphur Spring Rd,Arbutus,MD,21227,144000,3,2.0,GAYLORD MANOR,1344,2176,1953,893,107,,Sold,,,https://www.redfin.com/MD/Halethorpe/1217-Sulphur-Spring-Rd-21227/home/9360790,BRIGHT MLS,MDBC136842,N,Y,39.247062,-76.701076
PAST SALE,May-29-2020,Single Family Residential,230 Hazel Ave,Halethorpe,MD,21227,255000,4,2.5,JOSHUA,1372,6400,1947,555,186,,Sold,,,https://www.redfin.com/MD/Halethorpe/230-Hazel-Ave-21227/home/9360723,BRIGHT MLS,MDBC488618,N,Y,39.2468131,-76.6594768
PAST SALE,October-27-2020,Single Family Residential,1256 Birch Ave,Baltimore,MD,21227,299900,3,2.0,LINDEN HEIGHTS,1560,6900,1951,404,192,,Sold,,,https://www.redfin.com/MD/Arbutus/1256-Birch-Ave-21227/home/9360728,BRIGHT MLS,MDBC505180,N,Y,39.2492411,-76.6989044
PAST SALE,January-10-2020,Single Family Residential,1250 Oakland Terrace Rd,Arbutus,MD,21227,249900,4,1.0,OAKLAND TERRACE,1116,5280,1952,695,224,,Sold,,,https://www.redfin.com/MD/Halethorpe/1250-Oakland-Terrace-Rd-21227/home/9360735,BRIGHT MLS,MDBC474830,N,Y,39.2421129,-76.6986977
PAST SALE,January-31-2019,Single Family Residential,2017 Flower Ln,Baltimore,MD,21227,160000,3,1.0,HILLTOP,1008,9500,1920,1039,159,,Sold,,,https://www.redfin.com/MD/Halethorpe/2017-Flower-Ln-21227/home/9360747,BRIGHT MLS,1002063830,N,Y,39.2544475,-76.6631817
PAST SALE,February-12-2019,Single Family Residential,1814 Woodside Ave,Halethorpe,MD,21227,345000,5,3.0,HALETHORPE,2701,6750,1920,1027,128,,Sold,,,https://www.redfin.com/MD/Halethorpe/1814-Woodside-Ave-21227/home/9360773,BRIGHT MLS,MDBC330528,N,Y,39.2376173,-76.6862081
PAST SALE,June-29-2020,Single Family Residential,1812 Woodside Ave,Baltimore,MD,21227,280000,3,1.5,HALETHORPE,1580,6750,2004,524,177,,Sold,,,https://www.redfin.com/MD/Halethorpe/1812-Woodside-Ave-21227/home/9360777,BRIGHT MLS,MDBC495182,N,Y,39.2373718,-76.685959
PAST SALE,August-28-2020,Single Family Residential,216 Clyde Ave,Baltimore,MD,21227,229000,4,2.0,JOSHUA,1523,6400,1920,464,150,,Sold,,,https://www.redfin.com/MD/Halethorpe/216-Clyde-Ave-21227/home/9360930,BRIGHT MLS,MDBC496590,N,Y,39.2452078,-76.6603335
PAST SALE,June-7-2021,Single Family Residential,102 4th Ave,Baltimore,MD,21227,299000,3,2.0,LANSDOWNE,1408,5000,1915,181,212,,Sold,,,https://www.redfin.com/MD/Lansdowne/102-4th-Ave-21227/home/9360881,BRIGHT MLS,MDBC523228,N,Y,39.2424939,-76.6626885
PAST SALE,,Townhouse,2819 Georgia Ave,Halethorpe,MD,21227,179000,,2.0,,1232,6250,1918,,145,,,,,https://www.redfin.com/MD/Halethorpe/2819-Georgia-Ave-21227/home/9360893,,,N,Y,39.2358465,-76.6395885
PAST SALE,April-4-2019,Single Family Residential,1121 Meadowlark Dr,Baltimore,MD,21227,253500,4,1.5,WYNNEWOOD,1644,7994,1956,976,154,2,Sold,,,https://www.redfin.com/MD/Halethorpe/1121-Meadow-Lark-Dr-21227/home/9360901,BRIGHT MLS,1002260054,N,Y,39.2313409,-76.69587
PAST SALE,September-1-2020,Townhouse,3257 Ryerson Cir,Baltimore,MD,21227,177000,3,2.0,PATAPSCO TERRACE,1386,2070,1963,460,128,,Sold,,,https://www.redfin.com/MD/Halethorpe/3257-Ryerson-Cir-21227/home/9360933,BRIGHT MLS,MDBC496880,N,Y,39.2353998,-76.6583366
PAST SALE,February-28-2020,Single Family Residential,242 Clyde Ave,Baltimore,MD,21227,227000,4,2.0,JOSHUA,2600,6400,1930,646,87,,Sold,,,https://www.redfin.com/MD/Halethorpe/242-Clyde-Ave-21227/home/9360937,BRIGHT MLS,MDBC467046,N,Y,39.245275,-76.659889
PAST SALE,June-3-2021,Townhouse,1060 Elm Rd,Halethorpe,MD,21227,230000,3,2.0,ARBOUR MANOR,1234,1760,1953,185,186,,Sold,,,https://www.redfin.com/MD/Halethorpe/1060-Elm-Rd-21227/home/9360940,BRIGHT MLS,MDBC523030,N,Y,39.2414459,-76.7038969
PAST SALE,January-8-2020,Single Family Residential,111 Laverne Ave,Halethorpe,MD,21227,264900,4,3.0,HALETHORPE,2118,6400,1920,697,125,,Sold,,,https://www.redfin.com/MD/Halethorpe/111-Lavern-Ave-21227/home/9360918,BRIGHT MLS,MDBC479306,N,Y,39.2457342,-76.6627174
PAST SALE,March-15-2021,Townhouse,5110 Westland Blvd,Baltimore,MD,21227,213000,3,2.0,MAIDEN CHOICE VILLAGE,1615,1890,1964,265,132,,Sold,,,https://www.redfin.com/MD/Halethorpe/5110-Westland-Blvd-21227/home/9361055,BRIGHT MLS,MDBC517046,N,Y,39.2567402,-76.6999207
PAST SALE,,Single Family Residential,204 Hazel Ave,Halethorpe,MD,21227,165000,,1.0,,1786,6400,1953,,92,,,,,https://www.redfin.com/MD/Halethorpe/204-Hazel-Ave-21227/home/9361059,,,N,Y,39.246698,-76.660875
PAST SALE,March-5-2021,Condo/Co-op,12-C Fallen Tree Ct #211,Halethorpe,MD,21227,180000,2,1.0,RIVERCHASE,1060,,1988,275,170,210,Sold,,,https://www.redfin.com/MD/Halethorpe/12-Fallen-Tree-Ct-21227/unit-211/home/9386321,BRIGHT MLS,MDBC517216,N,Y,39.2340008,-76.7063073
PAST SALE,May-14-2019,Townhouse,1108 Linden Ave,Baltimore,MD,21227,208000,3,1.5,MAIDEN CHOICE VILLAGE,,1908,1959,936,,,Sold,,,https://www.redfin.com/MD/Halethorpe/1108-Linden-Ave-21227/home/9360978,BRIGHT MLS,MDBC432964,N,Y,39.257281,-76.702554
PAST SALE,July-23-2020,Townhouse,963 Regina Dr,Baltimore,MD,21227,235000,3,2.0,MAIDEN CHOICE VILLAGE,1376,1800,1962,500,171,,Sold,,,https://www.redfin.com/MD/Halethorpe/963-Regina-Dr-21227/home/9361132,BRIGHT MLS,MDBC496172,N,Y,39.2603727,-76.7053034
PAST SALE,October-30-2019,Single Family Residential,2925 Florida Ave,Baltimore,MD,21227,210000,3,1.0,BALTIMORE HIGHLANDS,1542,6250,1958,767,136,,Sold,,,https://www.redfin.com/MD/Halethorpe/2925-Florida-Ave-21227/home/9361200,BRIGHT MLS,MDBC470970,N,Y,39.2367279,-76.6359845
PAST SALE,August-22-2019,Townhouse,3213 Ryerson Cir,Arbutus,MD,21227,160000,3,1.0,PATAPSCO TERRACE,1116,4488,1964,836,143,,Sold,,,https://www.redfin.com/MD/Halethorpe/3213-Ryerson-Cir-21227/home/9361187,BRIGHT MLS,MDBC459896,N,Y,39.2347177,-76.658832
PAST SALE,September-6-2021,Townhouse,808 Regis Ct,Baltimore,MD,21227,175000,4,2.0,RIVERVIEW,1204,3441,1955,90,145,,Sold,,,https://www.redfin.com/MD/Halethorpe/808-Regis-Ct-21227/home/9361113,BRIGHT MLS,MDBC2004952,N,Y,39.2389868,-76.6524493
PAST SALE,November-30-2020,Townhouse,313 Wisewell Ct,Baltimore,MD,21227,181000,3,1.0,PATAPSCO TERRACE,1116,4488,1964,370,162,,Sold,,,https://www.redfin.com/MD/Halethorpe/313-Wisewell-Ct-21227/unit-313/home/9361300,BRIGHT MLS,MDBC501022,N,Y,39.2346518,-76.6586084
PAST SALE,,Townhouse,5417 Dolores Ave,Halethorpe,MD,21227,260000,4,2.5,,1728,3828,1958,,150,,,,,https://www.redfin.com/MD/Halethorpe/5417-Dolores-Ave-21227/home/9361388,,,N,Y,39.2477708,-76.7028508
PAST SALE,,Townhouse,3173 Kessler Rd,Halethorpe,MD,21227,135000,,1.0,,1024,3255,1956,,132,,,,,https://www.redfin.com/MD/Halethorpe/3173-Kessler-Rd-21227/home/9361389,,,N,Y,39.2371772,-76.6545507
PAST SALE,December-19-2019,Single Family Residential,3017 Illinois Ave,Baltimore,MD,21227,295000,3,3.0,BALTIMORE HIGHLANDS,2143,9375,1927,717,138,,Sold,,,https://www.redfin.com/MD/Halethorpe/3017-Illinois-Ave-21227/home/9361399,BRIGHT MLS,MDBC475386,N,Y,39.233869,-76.6353291
PAST SALE,September-23-2019,Townhouse,1135 Circle Dr,Baltimore,MD,21227,222000,4,1.5,MAIDEN CHOICE VILLAGE,1408,2907,1959,804,158,,Sold,,,https://www.redfin.com/MD/Halethorpe/1135-Circle-Dr-21227/home/9361418,BRIGHT MLS,MDBC469108,N,Y,39.2575431,-76.7008229
PAST SALE,August-3-2021,Single Family Residential,4415 Maple Ave,Baltimore,MD,21227,345000,3,1.5,HALETHORPE,1400,6250,1951,124,246,,Sold,,,https://www.redfin.com/MD/Halethorpe/4415-Maple-Ave-21227/home/9361420,BRIGHT MLS,MDBC2001560,N,Y,39.240205,-76.686565
PAST SALE,January-4-2019,Single Family Residential,1256 Sulphur Spring Rd,Baltimore,MD,21227,259900,3,2.0,ARBUTUS,2236,7442,1910,1066,116,,Sold,,,https://www.redfin.com/MD/Arbutus/1256-Sulphur-Spring-Rd-21227/home/9361445,BRIGHT MLS,1002016424,N,Y,39.2474974,-76.6973838
PAST SALE,June-17-2021,Single Family Residential,1254 Vogt Ave,Baltimore,MD,21227,300000,3,1.5,ARBUTUS TERRACE,1216,8400,1929,171,247,,Sold,,,https://www.redfin.com/MD/Halethorpe/1254-Vogt-Ave-21227/home/9361330,BRIGHT MLS,MDBC528642,N,Y,39.2512938,-76.6984647
PAST SALE,February-15-2019,Single Family Residential,2213 Gaylawn Dr,Baltimore,MD,21227,212000,3,1.5,GAYLAWN,1475,7182,1955,1024,144,,Sold,,,https://www.redfin.com/MD/Halethorpe/2213-Gaylawn-Dr-21227/home/9360605,BRIGHT MLS,MDBC330276,N,Y,39.2514866,-76.657089
PAST SALE,December-9-2019,Townhouse,5500 Dolores Ave,Halethorpe,MD,21227,144375,3,1.0,ARBOUR MANOR,1224,4173,1953,727,118,,Sold,,,https://www.redfin.com/MD/Halethorpe/5500-Dolores-Ave-21227/home/9361350,BRIGHT MLS,MDBC476486,N,Y,39.2468923,-76.7028727
PAST SALE,October-9-2020,Single Family Residential,3000 New York Ave,Baltimore,MD,21227,140000,3,2.0,BALTIMORE HIGHLANDS,1161,6250,1954,422,121,,Sold,,,https://www.redfin.com/MD/Halethorpe/3000-New-York-Ave-21227/home/9361485,BRIGHT MLS,MDBC507404,N,Y,39.2320725,-76.6372829
PAST SALE,May-4-2021,Single Family Residential,3000 Virginia Ave,Halethorpe,MD,21227,185000,2,1.0,BALTIMORE HIGHLANDS,930,12054,1953,215,199,,Sold,,,https://www.redfin.com/MD/Halethorpe/3000-Virginia-Ave-21227/home/9361548,BRIGHT MLS,MDBC520962,N,Y,39.2336768,-76.6365528
PAST SALE,May-28-2021,Single Family Residential,3019 Vermont Ave,Baltimore,MD,21227,255000,3,3.0,BALTIMORE HIGHLANDS,1824,6250,1963,191,140,,Sold,,,https://www.redfin.com/MD/Halethorpe/3019-Vermont-Ave-21227/home/9361549,BRIGHT MLS,MDBC527828,N,Y,39.2353811,-76.6341778
PAST SALE,August-6-2021,Single Family Residential,1217 Ten Oaks Rd,Baltimore,MD,21227,397000,8,3.0,LEEDS,2800,9960,1945,121,142,,Sold,,,https://www.redfin.com/MD/Arbutus/1217-Ten-Oaks-Rd-21227/home/9361513,BRIGHT MLS,MDBC2002348,N,Y,39.2586404,-76.693988
PAST SALE,,Single Family Residential,1214 Seven Oaks Rd,Halethorpe,MD,21227,289500,,2.5,,2138,6002,1950,,135,,,,,https://www.redfin.com/MD/Halethorpe/1214-Seven-Oaks-Rd-21227/home/9361553,,,N,Y,39.256232,-76.696506
PAST SALE,August-20-2021,Single Family Residential,5517 Ashbourne Rd,Halethorpe,MD,21227,350000,4,2.0,HALETHORPE HEIGHTS,1632,9555,1943,107,214,,Sold,,,https://www.redfin.com/MD/Halethorpe/5517-Ashbourne-Rd-21227/home/9361524,BRIGHT MLS,MDBC532790,N,Y,39.2452463,-76.6978266
PAST SALE,December-7-2020,Townhouse,5425 Highridge St,Baltimore,MD,21227,133350,3,1.5,SULPHUR SPRINGS,1392,2070,1958,363,96,,Sold,,,https://www.redfin.com/MD/Halethorpe/5425-Highridge-St-21227/home/9365517,BRIGHT MLS,MDBC504582,N,Y,39.2478973,-76.7016791
PAST SALE,July-31-2020,Single Family Residential,1722 S Rolling Rd,Baltimore,MD,21227,250000,4,3.0,RELAY,2520,7500,1853,492,99,,Sold,,,https://www.redfin.com/MD/Halethorpe/1722-S-Rolling-Rd-21227/home/9361533,BRIGHT MLS,MDBC495292,N,Y,39.2248105,-76.7066177
PAST SALE,June-26-2019,Townhouse,1105 Kelfield Dr,Baltimore,MD,21227,235000,3,2.5,RIVER CHASE,1636,,1992,893,144,200,Sold,,,https://www.redfin.com/MD/Halethorpe/1105-Kelfield-Dr-21227/unit-1105/home/9387905,BRIGHT MLS,MDBC453340,N,Y,39.2375364,-76.7038212
PAST SALE,August-31-2021,Single Family Residential,2813 Illinois Ave,Baltimore,MD,21227,240000,4,1.0,BALTIMORE HIGHLANDS,948,9375,1954,96,253,,Sold,,,https://www.redfin.com/MD/Halethorpe/2813-Illinois-Ave-21227/home/45483167,BRIGHT MLS,MDBC2002770,N,Y,39.2349409,-76.6395341
PAST SALE,March-12-2021,Single Family Residential,2107 Gaylawn Dr,Halethorpe,MD,21227,250000,4,2.0,GAYLAWN,1508,7315,1955,268,166,,Sold,,,https://www.redfin.com/MD/Halethorpe/2107-Gaylawn-Dr-21227/home/9361611,BRIGHT MLS,MDBC519070,N,Y,39.2521678,-76.6602339
PAST SALE,November-13-2020,Single Family Residential,3026 New York Ave,Baltimore,MD,21227,250000,3,2.0,BALTIMORE HIGHLANDS,2113,6250,1954,387,118,,Sold,,,https://www.redfin.com/MD/Halethorpe/3026-New-York-Ave-21227/home/9361601,BRIGHT MLS,MDBC509480,N,Y,39.2318556,-76.6364623
PAST SALE,February-4-2019,Single Family Residential,5209 Shelbourne Rd,Baltimore,MD,21227,282500,4,2.0,ARBUTUS TERRACE,1810,7020,1953,1035,156,,Sold,,,https://www.redfin.com/MD/Halethorpe/5209-Shelbourne-Rd-21227/home/9361561,BRIGHT MLS,1008623368,N,Y,39.2541757,-76.7003519
PAST SALE,April-23-2021,Townhouse,3007 Freeway,Baltimore,MD,21227,179900,4,2.0,RIVERVIEW,1174,1664,1955,226,153,,Sold,,,https://www.redfin.com/MD/Halethorpe/3007-Freeway-21227/home/9361624,BRIGHT MLS,MDBC522052,N,Y,39.2393971,-76.6499619
PAST SALE,November-26-2021,Townhouse,4905 Wilkens Ave,Baltimore,MD,21228,145000,3,1.0,MAIDEN CHOICE VILLAGE,1408,1800,1955,9,103,,Sold,,,https://www.redfin.com/MD/Catonsville/4905-Wilkens-Ave-21228/home/9383050,BRIGHT MLS,MDBC2015554,N,Y,39.2625349,-76.7022046
PAST SALE,April-30-2020,Single Family Residential,144 First Ave,Halethorpe,MD,21227,310000,4,2.0,LANSDOWNE,2228,13200,1947,584,139,,Sold,,,https://www.redfin.com/MD/Halethorpe/144-1st-Ave-21227/home/9361571,BRIGHT MLS,MDBC490128,N,Y,39.2443718,-76.6612293
PAST SALE,October-28-2019,Single Family Residential,1958 Brady Ave,Baltimore,MD,21227,240000,3,1.0,OAK PARK,1730,13500,1918,769,139,,Sold,,,https://www.redfin.com/MD/Halethorpe/1958-Brady-Ave-21227/home/9361581,BRIGHT MLS,MDBC471118,N,Y,39.238791,-76.675572
PAST SALE,September-27-2019,Townhouse,1224 Elm Rd,Baltimore,MD,21227,220500,3,2.0,ARBOUR MANOR,1408,6502,1953,800,157,,Sold,,,https://www.redfin.com/MD/Halethorpe/1224-Elm-Rd-21227/home/9361680,BRIGHT MLS,MDBC469642,N,Y,39.2412965,-76.7000845
PAST SALE,June-18-2021,Single Family Residential,2209 Hammonds Ferry Rd,Baltimore,MD,21227,300000,4,3.0,CATON HILLS,1852,7450,1958,170,162,,Sold,,,https://www.redfin.com/MD/Halethorpe/2209-Hammonds-Ferry-Rd-21227/home/9361632,BRIGHT MLS,MDBC523324,N,Y,39.2513409,-76.663486
PAST SALE,July-10-2020,Single Family Residential,614 Washington Ave,Baltimore,MD,21227,310500,4,2.5,HILLSIDE,2918,9000,1911,513,106,,Sold,,,https://www.redfin.com/MD/Lansdowne/614-Washington-Ave-21227/home/9361672,BRIGHT MLS,MDBC490510,N,Y,39.2406098,-76.6609172
PAST SALE,June-23-2021,Townhouse,4173 Hollins Ferry Rd,Baltimore,MD,21227,140000,3,1.0,RIVERVIEW,1024,1680,1955,165,137,,Sold,,,https://www.redfin.com/MD/Halethorpe/4173-Hollins-Ferry-Rd-21227/home/9361644,BRIGHT MLS,MDBC528360,N,Y,39.2378738,-76.6526909
PAST SALE,July-12-2019,Single Family Residential,2918 Michigan Ave,Baltimore,MD,21227,220000,3,2.0,BALTIMORE HIGHLANDS,1880,6250,1956,877,117,,Sold,,,https://www.redfin.com/MD/Lansdowne/2918-Michigan-Ave-21227/home/9361697,BRIGHT MLS,MDBC459370,N,Y,39.2379977,-76.6359013
PAST SALE,,Single Family Residential,2913 Michigan Ave,Halethorpe,MD,21227,150000,,1.0,,932,6250,1965,,161,,,,,https://www.redfin.com/MD/Halethorpe/2913-Michigan-Ave-21227/home/9361743,,,N,Y,39.2377754,-76.6365829
PAST SALE,June-25-2020,Single Family Residential,1201 Taylor Ave,Baltimore,MD,21227,200000,3,2.0,VIOLETVILLE,1452,6250,1941,528,138,,Sold,,,https://www.redfin.com/MD/Halethorpe/1201-Taylor-Ave-21227/home/9361706,BRIGHT MLS,MDBC490636,N,Y,39.263227,-76.680591
PAST SALE,December-20-2019,Townhouse,1164 Linden Ave,Baltimore,MD,21227,185000,3,2.0,MAIDEN CHOICE VILLAGE,1408,3599,1959,716,131,,Sold,,,https://www.redfin.com/MD/Halethorpe/1164-Linden-Ave-21227/home/9361719,BRIGHT MLS,MDBC479412,N,Y,39.2555317,-76.7008805
PAST SALE,May-7-2021,Townhouse,5103 Circle Pl,Baltimore,MD,21227,250000,3,1.5,MAIDEN CHOICE VILLAGE,1408,2160,1961,212,178,,Sold,,,https://www.redfin.com/MD/Halethorpe/5103-Circle-Pl-21227/home/9361763,BRIGHT MLS,MDBC523194,N,Y,39.2585885,-76.7038822
PAST SALE,,Townhouse,1002 Circle Dr,Halethorpe,MD,21227,160000,,1.0,,1408,1872,1962,,114,,,,,https://www.redfin.com/MD/Halethorpe/1002-Circle-Dr-21227/home/9361822,,,N,Y,39.2587973,-76.7038052
PAST SALE,February-14-2021,Townhouse,1050 Elm Rd,Baltimore,MD,21227,205000,3,1.0,ARBOUR MANOR,1424,2860,1953,294,144,,Sold,,,https://www.redfin.com/MD/Halethorpe/1050-Elm-Rd-21227/home/9361801,BRIGHT MLS,MDBC514700,N,Y,39.2416341,-76.7042991
PAST SALE,,Single Family Residential,4504 Rehbaum Ave,Halethorpe,MD,21227,120000,,1.5,,1818,10019,1900,,66,,,,,https://www.redfin.com/MD/Halethorpe/4504-Rehbaum-Ave-21227/home/9360722,,,N,Y,39.2420086,-76.6888008
PAST SALE,December-30-2019,Single Family Residential,1558 Sulphur Spring Rd,Baltimore,MD,21227,236500,3,2.0,SULPHUR SPRING HEIGHTS,1634,6250,1952,706,145,,Sold,,,https://www.redfin.com/MD/Halethorpe/1558-Sulphur-Spring-Rd-21227/home/9360683,BRIGHT MLS,MDBC477098,N,Y,39.2499933,-76.6850063
