SALE TYPE,SOLD DATE,PROPERTY TYPE,ADDRESS,CITY,STATE OR PROVINCE,ZIP OR POSTAL CODE,PRICE,BEDS,BATHS,LOCATION,SQUARE FEET,LOT SIZE,YEAR BUILT,DAYS ON MARKET,$/SQUARE FEET,HOA/MONTH,STATUS,NEXT OPEN HOUSE START TIME,NEXT OPEN HOUSE END TIME,URL (SEE https://www.redfin.com/buy-a-home/comparative-market-analysis FOR INFO ON PRICING),SOURCE,MLS#,FAVORITE,INTERESTED,LATITUDE,LONGITUDE
PAST SALE,July-19-2019,Single Family Residential,1 Circle Rd,Baltimore,MD,21226,247000,2,2.0,MATDALE SOLLEY,1344,9000,1959,870,184,,Sold,,,https://www.redfin.com/MD/Baltimore/1-Circle-Rd-21226/home/10263771,BRIGHT MLS,MDAA399176,N,Y,39.1846272,-76.5532747
PAST SALE,October-8-2021,Townhouse,1551 Stoney Beach Way,Stoney Beach,MD,21226,305000,3,2.5,STONEY BEACH,1704,,1992,58,179,155,Sold,,,https://www.redfin.com/MD/Curtis-Bay/1551-Stoney-Beach-Way-21226/home/10298121,BRIGHT MLS,MDAA2008030,N,Y,39.172203,-76.520265
PAST SALE,November-17-2020,Townhouse,1351 Stoneleigh Ct,Stoney Beach,MD,21226,315000,4,2.5,STONEY BEACH,1728,686,1997,383,182,155,Sold,,,https://www.redfin.com/MD/Curtis-Bay/1351-Stoneleigh-Ct-21226/home/10298483,BRIGHT MLS,MDAA448144,N,Y,39.1719055,-76.5195763
PAST SALE,December-31-2019,Single Family Residential,871 Chestnutview Ct,Chestnut Hill Cove,MD,21226,264900,3,3.0,CHESTNUT HILL COVE,1540,2000,1991,705,172,60,Sold,,,https://www.redfin.com/MD/Chestnut-Hill-Cove/871-Chestnutview-Ct-21226/home/10212730,BRIGHT MLS,MDAA419418,N,Y,39.1704955,-76.5401634
PAST SALE,September-30-2020,Townhouse,7791 Cox Point Ct,Stoney Beach,MD,21226,277000,3,2.5,STONEY BEACH,1614,,1990,431,172,155,Sold,,,https://www.redfin.com/MD/Curtis-Bay/7791-Cox-Point-Ct-21226/unit-455/home/10297940,BRIGHT MLS,MDAA442458,N,Y,39.17307,-76.524415
PAST SALE,June-6-2019,Townhouse,1330 Hollow Glen Ct,Chestnut Hill Cove,MD,21226,286000,2,2.5,CHESTNUT HILL COVE,1720,3800,1991,913,166,63,Sold,,,https://www.redfin.com/MD/Chestnut-Hill-Cove/1330-Hollow-Glen-Ct-21226/home/10212853,BRIGHT MLS,MDAA396960,N,Y,39.165435,-76.5408829
PAST SALE,April-23-2021,Townhouse,7036 Timberfield Pl,Chestnut Hill Cove,MD,21226,290000,3,2.5,CHESTNUT HILL COVE,1720,2000,1988,226,169,63,Sold,,,https://www.redfin.com/MD/Chestnut-Hill-Cove/7036-Timberfield-Pl-21226/home/10212444,BRIGHT MLS,MDAA2000170,N,Y,39.169828,-76.539056
PAST SALE,August-26-2019,Single Family Residential,8130 Edgewater Rd,Clearwater Beach,MD,21226,253900,3,2.0,CLEARWATER BEACH,1372,6200,1950,832,185,,Sold,,,https://www.redfin.com/MD/Orchard-Beach/8130-Edgewater-Rd-21226/home/10216339,BRIGHT MLS,MDAA405496,N,Y,39.167094,-76.52618
PAST SALE,August-21-2020,Single Family Residential,8104 Highpoint Rd,Clearwater Beach,MD,21226,235000,3,1.0,CLEARWATER BEACH,964,6413,1940,471,244,,Sold,,,https://www.redfin.com/MD/Orchard-Beach/8104-Highpoint-Rd-21226/home/10215803,BRIGHT MLS,MDAA440266,N,Y,39.169198,-76.527034
PAST SALE,October-27-2020,Single Family Residential,163 Carvel Beach Rd,Carvel Beach,MD,21226,610000,4,3.0,CARVEL BEACH,2770,20674,2016,404,220,,Sold,,,https://www.redfin.com/MD/Chestnut-Hill-Cove/163-Carvel-Beach-Rd-21226/home/10197567,BRIGHT MLS,MDAA444054,N,Y,39.166845,-76.535092
PAST SALE,December-7-2018,Townhouse,1230 Swanhill Ct,Chestnut Hill Cove,MD,21226,270000,3,3.5,CHESTNUT HILL COVE,1332,3800,1990,1094,203,63,Sold,,,https://www.redfin.com/MD/Chestnut-Hill-Cove/1230-Swanhill-Ct-21226/home/10212968,BRIGHT MLS,1009950528,N,Y,39.1656437,-76.5436297
PAST SALE,November-22-2021,Townhouse,1143 Double Chestnut Ct,Chestnut Hill Cove,MD,21226,320000,3,2.5,CHESTNUT HILL COVE,1710,2000,1993,13,187,63,Sold,,,https://www.redfin.com/MD/Chestnut-Hill-Cove/1143-Double-Chestnut-Ct-21226/home/10213345,BRIGHT MLS,MDAA2012938,N,Y,39.1681219,-76.540751
PAST SALE,August-4-2021,Townhouse,919 Chestnut Manor Ct,Chestnut Hill Cove,MD,21226,325000,2,2.5,CHESTNUT HILL COVE,1580,3800,1994,123,206,63,Sold,,,https://www.redfin.com/MD/Chestnut-Hill-Cove/919-Chestnut-Manor-Ct-21226/home/10213738,BRIGHT MLS,MDAA469756,N,Y,39.1692976,-76.5418334
PAST SALE,March-1-2021,Townhouse,916 Chestnut Wood Ct,Chestnut Hill Cove,MD,21226,286000,3,2.5,CHESTNUT HILL COVE,1606,2000,1996,279,178,63,Sold,,,https://www.redfin.com/MD/Chestnut-Hill-Cove/916-Chestnut-Woods-Ct-21226/home/10213908,BRIGHT MLS,MDAA457762,N,Y,39.1715022,-76.5385258
MLS Listing,,Townhouse,1611 Filbert St,Baltimore City,MD,21226,136300,2,1.5,Ward 25,1386,2100,1920,2,98,,Active,,,https://www.redfin.com/MD/Baltimore/1611-Filbert-St-21226/home/11056756,BRIGHT MLS,MDBA2020772,N,Y,39.2251266,-76.5876893
MLS Listing,,Single Family Residential,7809 Bridge Dr,Orchard Beach,MD,21226,277000,2,1.5,ORCHARD BEACH,750,6000,1940,2,369,,Active,December-5-2021 12:00 PM,December-5-2021 02:00 PM,https://www.redfin.com/MD/Orchard-Beach/7809-Bridge-Dr-21226/home/10269371,BRIGHT MLS,MDAA2014932,N,Y,39.1719354,-76.5266375
MLS Listing,,Townhouse,4214 Curtis,Baltimore City,MD,21226,119900,2,1.0,Ward 25,832,17424,1920,2,144,,Active,,,https://www.redfin.com/MD/Baltimore/4214-Curtis-Ave-21226/home/11057362,BRIGHT MLS,MDBA2020744,N,Y,39.2271801,-76.5871624
MLS Listing,,Townhouse,1354 Triwater Ct,Stoney Beach,MD,21226,330000,3,2.5,STONEY BEACH,1714,644,1994,3,193,155,Active,December-5-2021 12:00 PM,December-5-2021 03:00 PM,https://www.redfin.com/MD/Curtis-Bay/1354-Triwater-Ct-21226/home/10298249,BRIGHT MLS,MDAA2015190,N,Y,39.171899,-76.5183853
MLS Listing,,Multi-Family (2-4 Unit),1608 Elmtree St,Baltimore City,MD,21226,40000,,,Ward 25,2304,,1925,4,17,,Active,,,https://www.redfin.com/MD/Baltimore/1608-Elmtree-St-21226/home/11056800,BRIGHT MLS,MDBA2020156,N,Y,39.2246583,-76.5878028
MLS Listing,,Townhouse,1431 Locust,Baltimore City,MD,21226,149900,3,1.5,Ward 25,1388,1600,1956,10,108,,Active,,,https://www.redfin.com/MD/Baltimore/1431-Locust-St-21226/home/11058074,BRIGHT MLS,MDBA2018984,N,Y,39.226514,-76.590451
MLS Listing,,Townhouse,1615 Church,Baltimore City,MD,21226,89000,2,1.5,Ward 25,1302,1302,1920,12,68,,Active,,,https://www.redfin.com/MD/Baltimore/1615-Church-St-21226/home/11060556,BRIGHT MLS,MDBA2019358,N,Y,39.2228728,-76.5875056
MLS Listing,,Townhouse,1448 Stoney Point Way,Stoney Beach,MD,21226,265000,3,2.5,STONEY BEACH,1400,646,1994,18,189,135,Active,,,https://www.redfin.com/MD/Curtis-Bay/1448-Stoney-Point-Way-21226/home/10298451,BRIGHT MLS,MDAA2014734,N,Y,39.172704,-76.520177
MLS Listing,,Single Family Residential,1414 Elmtree,Baltimore City,MD,21226,134900,3,2.0,Ward 25,2206,5500,1954,21,61,,Active,,,https://www.redfin.com/MD/Baltimore/1414-Elmtree-St-21226/home/11056456,BRIGHT MLS,MDBA2018428,N,Y,39.2245826,-76.5907897
MLS Listing,,Townhouse,4811 Pennington,Baltimore City,MD,21226,119999,4,2.0,Ward 25,1304,1057,1920,30,92,,Active,,,https://www.redfin.com/MD/Baltimore/4811-Pennington-Ave-21226/home/11060528,BRIGHT MLS,MDBA2017616,N,Y,39.2227062,-76.587957
MLS Listing,,Townhouse,1519 Filbert,Baltimore City,MD,21226,50000,4,2.0,Ward 25,1428,,1944,32,35,,Active,,,https://www.redfin.com/MD/Baltimore/1519-Filbert-St-21226/home/11056883,BRIGHT MLS,MDBA2017390,N,Y,39.2250324,-76.5889959
MLS Listing,,Townhouse,4207 Grace Ct,Baltimore City,MD,21226,114900,2,1.0,Ward 25,832,,1920,45,138,,Active,,,https://www.redfin.com/MD/Baltimore/4207-Grace-Ct-21226/home/11057328,BRIGHT MLS,MDBA2015828,N,Y,39.2274287,-76.5874381
MLS Listing,,Single Family Residential,7804 Shelbourne Dr,Carvel Beach,MD,21226,355000,4,2.0,SHELBOURNE MANOR,1905,7350,1953,46,186,,Active,,,https://www.redfin.com/MD/CARVEL-BEACH/7804-SHELBOURNE-DR-21226/home/10288428,BRIGHT MLS,MDAA2011706,N,Y,39.170373,-76.536513
MLS Listing,,Townhouse,4123 Grace Ct,Baltimore City,MD,21226,130000,2,1.0,Ward 25,832,832,1920,80,156,,Active,,,https://www.redfin.com/MD/Baltimore/4123-Grace-Ct-21226/home/11057440,BRIGHT MLS,MDBA2010368,N,Y,39.2277307,-76.5879432
MLS Listing,,Single Family Residential,7121 Saint Lauren,Baltimore,MD,21226,389900,3,2.0,BROCKINGTON,2052,7692,1997,85,190,19,Active,,,https://www.redfin.com/MD/Baltimore/7121-St-Lauren-Ct-21226/home/10174189,BRIGHT MLS,MDAA2009240,N,Y,39.182712,-76.5520518
MLS Listing,,Single Family Residential,1503 Hazel St,Baltimore City,MD,21226,129950,2,1.0,Ward 25,1275,2178,1920,111,102,,Active,,,https://www.redfin.com/MD/Baltimore/1503-Hazel-St-21226/home/11056915,BRIGHT MLS,MDBA2008412,N,Y,39.2258711,-76.5897852
MLS Listing,,Townhouse,4114 Grace Ct,Baltimore City,MD,21226,95000,2,1.0,CURTIS BAY,832,832,1920,148,114,,Active,,,https://www.redfin.com/MD/Baltimore/4114-Grace-Ct-21226/home/11057449,BRIGHT MLS,MDBA2003382,N,Y,39.2279258,-76.5876111
MLS Listing,,Townhouse,4116 Curtis Ave,Baltimore City,MD,21226,79000,2,1.0,Ward 25,832,871,1920,214,95,,Active,,,https://www.redfin.com/MD/Baltimore/4116-Curtis-Ave-21226/home/11057382,BRIGHT MLS,MDBA549824,N,Y,39.2278935,-76.5872436
MLS Listing,,Single Family Residential,1512 Cypress St,Baltimore City,MD,21226,50000,4,2.0,Ward 25,1870,1999,1916,452,27,,Active,,,https://www.redfin.com/MD/Baltimore/1512-Cypress-St-21226/home/11056575,BRIGHT MLS,MDBA523560,N,Y,39.2239382,-76.5890291
PAST SALE,October-16-2019,Townhouse,1509 Sycamore St,Baltimore City,MD,21226,31000,3,1.0,CURTIS BAY,960,1742,1926,781,32,,Sold,,,https://www.redfin.com/MD/Baltimore/1509-Sycamore-St-21226/home/11059239,BRIGHT MLS,MDBA474960,N,Y,39.230378,-76.589815
PAST SALE,October-1-2019,Townhouse,1505 Sycamore St,Baltimore City,MD,21226,20000,3,1.0,BALTIMORE CITY,960,69696000,1926,796,21,,Sold,,,https://www.redfin.com/MD/Baltimore/1505-Sycamore-St-21226/home/11059248,BRIGHT MLS,MDBA483308,N,Y,39.230372,-76.589928
PAST SALE,September-5-2019,Townhouse,1510 Sycamore St,Baltimore City,MD,21226,13000,3,1.0,BALTIMORE CITY,960,1600,1926,822,14,,Sold,,,https://www.redfin.com/MD/Baltimore/1510-Sycamore-St-21226/home/11059340,BRIGHT MLS,MDBA467940,N,Y,39.2308187,-76.5898056
PAST SALE,November-15-2019,Multi-Family (2-4 Unit),3917 Pascal Ave,Baltimore City,MD,21226,135000,4,4.0,Baltimore City,2240,,1944,751,60,,Sold,,,https://www.redfin.com/MD/Baltimore/3917-Pascal-Ave-21226/home/11058628,BRIGHT MLS,MDBA481262,N,Y,39.2292903,-76.5911658
PAST SALE,February-27-2020,Multi-Family (2-4 Unit),3919 Pascal Ave,Baltimore City,MD,21226,145000,,,Baltimore City,2240,,1944,647,65,,Sold,,,https://www.redfin.com/MD/Baltimore/3919-Pascal-Ave-21226/home/11058633,BRIGHT MLS,MDBA481278,N,Y,39.2292038,-76.5912549
PAST SALE,August-8-2019,Townhouse,7134 Gardenview Ct,Chestnut Hill Cove,MD,21226,258000,2,3.5,CHESTNUT HILL COVE,1720,2000,1989,850,150,63,Sold,,,https://www.redfin.com/MD/Chestnut-Hill-Cove/7134-Gardenview-Ct-21226/home/10212598,BRIGHT MLS,MDAA403208,N,Y,39.166588,-76.539351
PAST SALE,August-15-2019,Townhouse,3714 Pennington Ave,Baltimore City,MD,21226,40000,3,1.0,BALTIMORE CITY,960,,1926,843,42,,Sold,,,https://www.redfin.com/MD/Baltimore/3714-Pennington-Ave-21226/home/11059296,BRIGHT MLS,MDBA474238,N,Y,39.2309497,-76.589221
PAST SALE,September-20-2019,Townhouse,893 Chestnutview Ct,Chestnut Hill Cove,MD,21226,270000,3,3.0,CHESTNUT HILL COVE,1600,2000,1992,807,169,61,Sold,,,https://www.redfin.com/MD/Chestnut-Hill-Cove/893-Chestnutview-Ct-21226/home/10212773,BRIGHT MLS,MDAA408454,N,Y,39.1701343,-76.5411008
PAST SALE,,Townhouse,7070 Timberfield Pl,Chestnut Hill Cove,MD,21226,120000,,1.5,,1720,2000,1988,,70,,,,,https://www.redfin.com/MD/Chestnut-Hill-Cove/7070-Timberfield-Pl-21226/home/10212510,,,N,Y,39.1690436,-76.53893
PAST SALE,May-28-2019,Single Family Residential,1128 Hilltop Rd,Orchard Beach,MD,21226,265000,2,2.0,ORCHARD BEACH,1176,6073,1940,922,225,,Sold,,,https://www.redfin.com/MD/Orchard-Beach/1128-Hilltop-Rd-21226/home/10269175,BRIGHT MLS,MDAA383486,N,Y,39.1720177,-76.5250703
PAST SALE,October-6-2021,Townhouse,1221 Tillerman,Chestnut Hill Cove,MD,21226,325000,3,2.5,CHESTNUT HILL COVE,1660,2000,1993,60,196,63,Sold,,,https://www.redfin.com/MD/Chestnut-Hill-Cove/1221-Tillerman-Pl-21226/home/10213469,BRIGHT MLS,MDAA2006974,N,Y,39.16698,-76.541548
PAST SALE,,Townhouse,3802 Pennington Ave,Baltimore,MD,21226,51000,,1.0,,960,1360,1926,,53,,,,,https://www.redfin.com/MD/Baltimore/3802-Pennington-Ave-21226/home/11059211,,,N,Y,39.2305005,-76.5891307
PAST SALE,August-26-2021,Townhouse,7831 Hidden Creek Way,Stoney Beach,MD,21226,315000,3,3.0,STONEY BEACH,1500,646,1989,101,210,155,Sold,,,https://www.redfin.com/MD/Curtis-Bay/7831-Hidden-Creek-Way-21226/home/10297792,BRIGHT MLS,MDAA2004584,N,Y,39.1719311,-76.5233411
PAST SALE,December-23-2019,Townhouse,1349 Riverwood Way,Stoney Beach,MD,21226,310000,3,2.5,STONEY BEACH,1540,606,1989,713,201,135,Sold,,,https://www.redfin.com/MD/Curtis-Bay/1349-Riverwood-Way-21226/unit-393/home/10297712,BRIGHT MLS,MDAA418978,N,Y,39.175247,-76.521
PAST SALE,July-9-2021,Townhouse,1205 Tillerman Pl,Chestnut Hill Cove,MD,21226,309900,3,2.5,CHESTNUT HILL COVE,1640,2000,1993,149,189,63,Sold,,,https://www.redfin.com/MD/Chestnut-Hill-Cove/1205-Tillerman-Pl-21226/home/10213437,BRIGHT MLS,MDAA468256,N,Y,39.167091,-76.5422789
PAST SALE,June-21-2019,Townhouse,7909 River Rock Way,Stoney Beach,MD,21226,309000,3,3.0,STONEY BEACH,2014,2052,2000,898,153,135,Sold,,,https://www.redfin.com/MD/Curtis-Bay/7909-River-Rock-Way-21226/unit-344/home/10472485,BRIGHT MLS,MDAA398188,N,Y,39.1737894,-76.5187209
PAST SALE,,Townhouse,1400 Olmstead St,Baltimore,MD,21226,120400,,2.0,,1116,5532,1996,,108,,,,,https://www.redfin.com/MD/Baltimore/1400-Olmstead-St-21226/home/11057848,,,N,Y,39.2275471,-76.5915007
PAST SALE,February-25-2019,Townhouse,1605 Church St,Baltimore City,MD,21226,13900,3,1.0,CURTIS BAY,850,,1920,1014,16,,Sold,,,https://www.redfin.com/MD/Baltimore/1605-Church-St-21226/home/11060544,BRIGHT MLS,1002482024,N,Y,39.2228594,-76.5877312
PAST SALE,April-29-2021,Townhouse,1218 Swanhill Ct,Chestnut Hill Cove,MD,21226,285000,2,2.5,CHESTNUT HILL COVE,1732,2000,1990,220,165,63,Sold,,,https://www.redfin.com/MD/Chestnut-Hill-Cove/1218-Swanhill-Ct-21226/home/10212997,BRIGHT MLS,MDAA462564,N,Y,39.166153,-76.543767
PAST SALE,March-4-2020,Townhouse,4103 Grace Ct,Baltimore City,MD,21226,30000,2,1.0,Ward 25,832,1306,1920,641,36,,Sold,,,https://www.redfin.com/MD/Baltimore/4103-Grace-Ct-21226/home/11057416,BRIGHT MLS,MDBA490944,N,Y,39.2282552,-76.5874505
PAST SALE,September-23-2019,Townhouse,4006 Pennington Ave,Baltimore City,MD,21226,15400,3,1.0,CURTIS BAY,1120,,1920,804,14,,Sold,,,https://www.redfin.com/MD/Baltimore/4006-Pennington-Ave-21226/home/11058778,BRIGHT MLS,MDBA474642,N,Y,39.2288895,-76.5889953
PAST SALE,April-20-2021,Single Family Residential,911 Lauren Way,Baltimore,MD,21226,381000,3,2.5,BROCKINGTON,1700,7015,1996,229,224,18,Sold,,,https://www.redfin.com/MD/Baltimore/911-Lauren-Way-21226/home/10173982,BRIGHT MLS,MDAA461394,N,Y,39.1824028,-76.5528195
PAST SALE,May-19-2021,Townhouse,1114 Veranda Ct,Chestnut Hill Cove,MD,21226,310000,3,2.5,CHESTNUT HILL COVE,1732,2000,1990,200,179,63,Sold,,,https://www.redfin.com/MD/Chestnut-Hill-Cove/1114-Veranda-Ct-21226/home/10213103,BRIGHT MLS,MDAA464934,N,Y,39.167252,-76.543481
PAST SALE,August-23-2019,Single Family Residential,218 Greenland Beach Rd,Greenland Beach,MD,21226,475000,5,4.0,GREENLAND BEACH,2633,24771,1900,835,180,,Sold,,,https://www.redfin.com/MD/Curtis-Bay/218-Greenland-Beach-Rd-21226/home/10246840,BRIGHT MLS,MDAA402124,N,Y,39.1646033,-76.5312549
PAST SALE,September-3-2021,Townhouse,3906 Pennington Ave,Baltimore City,MD,21226,65000,3,1.0,Ward 25,1131,,1920,93,57,,Sold,,,https://www.redfin.com/MD/Baltimore/3906-Pennington-Ave-21226/home/11059106,BRIGHT MLS,MDBA554812,N,Y,39.2296578,-76.5890855
PAST SALE,August-12-2021,Single Family Residential,8118 Edgewater Rd,Clearwater Beach,MD,21226,452000,5,3.0,CLEARWATER BEACH,2812,9375,1954,115,161,,Sold,,,https://www.redfin.com/MD/Orchard-Beach/8118-Edgewater-Rd-21226/home/10215811,BRIGHT MLS,MDAA470912,N,Y,39.167995,-76.527018
PAST SALE,May-21-2020,Townhouse,1348 Cox Cove Ct,Stoney Beach,MD,21226,279900,3,2.5,STONEY BEACH,1724,,1991,563,162,155,Sold,,,https://www.redfin.com/MD/Curtis-Bay/1348-Cox-Cove-Ct-21226/home/10298060,BRIGHT MLS,MDAA430658,N,Y,39.173677,-76.523656
PAST SALE,January-14-2020,Multi-Family (2-4 Unit),3814 Fairhaven,Baltimore City,MD,21226,43000,,,Baltimore City,1116,,1944,691,39,,Sold,,,https://www.redfin.com/MD/Baltimore/3814-Fairhaven-Ave-21226/home/11058695,BRIGHT MLS,MDBA489052,N,Y,39.2300925,-76.5906718
PAST SALE,November-20-2019,Single Family Residential,7814 Harbor Dr,Orchard Beach,MD,21226,269000,3,2.0,ORCHARD BEACH,1204,6000,1940,746,223,,Sold,,,https://www.redfin.com/MD/Orchard-Beach/7814-Harbor-Dr-21226/home/10269022,BRIGHT MLS,MDAA100259,N,Y,39.171994,-76.526221
PAST SALE,September-11-2020,Townhouse,1328 Cox Cove Ct,Stoney Beach,MD,21226,296105,2,2.5,STONEY BEACH,1780,,1991,450,166,155,Sold,,,https://www.redfin.com/MD/Curtis-Bay/1328-Cox-Cove-Ct-21226/unit-425/home/10298011,BRIGHT MLS,MDAA439624,N,Y,39.173929,-76.524144
PAST SALE,December-26-2019,Townhouse,4208 Prudence St,Baltimore City,MD,21226,127000,3,1.5,Baltimore City,1116,1742,1996,710,114,,Sold,,,https://www.redfin.com/MD/Baltimore/4208-Prudence-St-21226/home/11057600,BRIGHT MLS,MDBA488232,N,Y,39.2271953,-76.5916474
PAST SALE,July-2-2021,Townhouse,1350 Hollow Glen Ct,Chestnut Hill Cove,MD,21226,302000,2,3.0,CHESTNUT HILL COVE,1720,2000,1991,156,176,63,Sold,,,https://www.redfin.com/MD/Chestnut-Hill-Cove/1350-Hollow-Glen-Ct-21226/home/10212799,BRIGHT MLS,MDAA469394,N,Y,39.16613,-76.541061
PAST SALE,July-12-2021,Single Family Residential,1214 Beach Promenade,Orchard Beach,MD,21226,800000,4,2.5,ORCHARD BEACH,2719,6000,2002,146,294,,Sold,,,https://www.redfin.com/MD/Orchard-Beach/1214-Beach-Promenade-21226/home/10472461,BRIGHT MLS,MDAA462840,N,Y,39.1707942,-76.5227635
PAST SALE,,Single Family Residential,625 Fernhill Rd Unit A,Orchard Beach,MD,21226,425000,,2.5,,1226,6250,2011,,347,,,,,https://www.redfin.com/MD/Orchard-Beach/625-Fernhill-Rd-21226/unit-A/home/40015126,,,N,Y,39.1682739,-76.52904
PAST SALE,July-9-2019,Townhouse,1354 River Bank Ct,Curtis Bay,MD,21226,258575,3,2.5,STONEY BEACH,1742,1480,1999,880,148,135,Sold,,,https://www.redfin.com/MD/Curtis-Bay/1354-River-Bank-Ct-21226/home/10298781,BRIGHT MLS,MDAA396570,N,Y,39.1735789,-76.518561
PAST SALE,January-6-2020,Townhouse,1412 Cox Landing Ct,Stoney Beach,MD,21226,255500,3,2.0,STONEY BEACH,1414,560,1990,699,181,135,Sold,,,https://www.redfin.com/MD/Curtis-Bay/1412-Cox-Cove-Ct-21226/unit-310/home/10297914,BRIGHT MLS,MDAA418604,N,Y,39.17416,-76.5214979
PAST SALE,April-23-2020,Townhouse,969 Chestnut Manor Ct,Chestnut Hill Cove,MD,21226,255000,2,2.5,CHESTNUT HILL COVE,1907,2000,1995,591,134,65,Sold,,,https://www.redfin.com/MD/Chestnut-Hill-Cove/969-Chestnut-Manor-Ct-21226/home/10213616,BRIGHT MLS,MDAA427186,N,Y,39.169297,-76.540299
PAST SALE,March-5-2020,Townhouse,1216 Swanhill Ct,Chestnut Hill Cove,MD,21226,277500,3,3.5,CHESTNUT HILL COVE,1720,3800,1990,640,161,63,Sold,,,https://www.redfin.com/MD/Chestnut-Hill-Cove/1216-Swanhill-Ct-21226/home/10212992,BRIGHT MLS,MDAA422592,N,Y,39.166232,-76.54377
PAST SALE,October-14-2021,Single Family Residential,7914 Main St,Orchard Beach,MD,21226,329000,4,2.0,ORCHARD BEACH,1426,4000,1991,52,231,,Sold,,,https://www.redfin.com/MD/Orchard-Beach/7914-Main-St-21226/home/10269349,BRIGHT MLS,MDAA2004582,N,Y,39.170945,-76.525559
PAST SALE,October-21-2019,Townhouse,1555 Stoney Beach Way,Stoney Beach,MD,21226,235000,3,2.5,STONEY BEACH,1704,606,1992,776,138,135,Sold,,,https://www.redfin.com/MD/Curtis-Bay/1555-Stoney-Beach-Way-21226/unit-109/home/10298127,BRIGHT MLS,MDAA413290,N,Y,39.172203,-76.520265
PAST SALE,December-31-2019,Townhouse,1014 Arborwood Pl,Chestnut Hill Cove,MD,21226,272900,2,3.5,CHESTNUT HILL COVE,1720,2000,1991,705,159,63,Sold,,,https://www.redfin.com/MD/Chestnut-Hill-Cove/1014-Arborwood-Pl-21226/home/10213194,BRIGHT MLS,MDAA417938,N,Y,39.168371,-76.544049
PAST SALE,September-30-2021,Townhouse,873 Chestnutview Ct,Chestnut Hill Cove,MD,21226,290000,3,1.5,CHESTNUT HILL COVE,1540,3800,1991,66,188,,Sold,,,https://www.redfin.com/MD/Chestnut-Hill-Cove/873-Chestnutview-Ct-21226/home/10212735,BRIGHT MLS,MDAA2008082,N,Y,39.1704456,-76.5402333
PAST SALE,May-24-2019,Townhouse,7821 Hidden Creek Way,Stoney Beach,MD,21226,225000,3,2.5,STONEY BEACH,1594,650,1989,926,141,232,Sold,,,https://www.redfin.com/MD/Curtis-Bay/7821-Hidden-Creek-Way-21226/home/10297757,BRIGHT MLS,MDAA378818,N,Y,39.172109,-76.5234399
PAST SALE,April-19-2021,Townhouse,7110 Gardenview Ct,Chestnut Hill Cove,MD,21226,312000,3,2.5,CHESTNUT HILL COVE,1720,3800,1988,230,181,63,Sold,,,https://www.redfin.com/MD/Chestnut-Hill-Cove/7110-Gardenview-Ct-21226/home/10212547,BRIGHT MLS,MDAA455758,N,Y,39.16683,-76.538489
PAST SALE,,Townhouse,4028 Pennington Ave,Baltimore,MD,21226,68000,,1.0,,1120,1086,1920,,61,,,,,https://www.redfin.com/MD/Baltimore/4028-Pennington-Ave-21226/home/11058747,,,N,Y,39.2284836,-76.5889372
PAST SALE,,Townhouse,1424 Olmstead St,Baltimore,MD,21226,165000,,2.0,,1260,3892,1988,,131,,,,,https://www.redfin.com/MD/Baltimore/1424-Olmstead-St-21226/home/11057873,,,N,Y,39.2276689,-76.5906655
PAST SALE,October-19-2021,Townhouse,1422 Olmstead St,Baltimore City,MD,21226,145000,2,2.0,Ward 25,1260,2507,1988,47,115,,Sold,,,https://www.redfin.com/MD/Baltimore/1422-Olmstead-St-21226/home/11057870,BRIGHT MLS,MDBA2004622,N,Y,39.2276117,-76.5907194
PAST SALE,,Single Family Residential,225 Matfield Ct,Chestnut Hill Cove,MD,21226,460000,,3.5,,2262,8338,2011,,203,,,,,https://www.redfin.com/MD/Chestnut-Hill-Cove/225-Matfield-Ct-21226/home/39615616,,,N,Y,39.1659938,-76.5370786
PAST SALE,January-17-2020,Single Family Residential,1212 Riverside Dr,Stoney Beach,MD,21226,365000,3,2.5,ORCHARD BEACH,1436,2924,2006,688,254,,Sold,,,https://www.redfin.com/MD/Stoney-Beach/1212-Riverside-Dr-21226/home/10269398,BRIGHT MLS,MDAA412302,N,Y,39.173178,-76.525772
PAST SALE,May-7-2020,Townhouse,1112 Veranda Ct,Chestnut Hill Cove,MD,21226,270000,3,2.5,CHESTNUT HILL COVE,1720,2000,1990,577,157,,Sold,,,https://www.redfin.com/MD/Chestnut-Hill-Cove/1112-Veranda-Ct-21226/home/10213098,BRIGHT MLS,MDAA429574,N,Y,39.167295,-76.543437
PAST SALE,May-21-2021,Townhouse,1346 Cox Cove Ct,Stoney Beach,MD,21226,317000,3,2.5,STONEY BEACH,1554,,1991,198,204,155,Sold,,,https://www.redfin.com/MD/Curtis-Bay/1346-Cox-Cove-Ct-21226/home/10298058,BRIGHT MLS,MDAA464380,N,Y,39.173677,-76.523656
PAST SALE,January-24-2019,Single Family Residential,7916 Chesapeake Dr,Orchard Beach,MD,21226,120000,3,2.0,ORCHARD BEACH,1248,6500,1900,1046,96,,Sold,,,https://www.redfin.com/MD/Orchard-Beach/7916-Chesapeake-Dr-21226/home/10269058,BRIGHT MLS,1009946408,N,Y,39.1713493,-76.5248783
PAST SALE,November-13-2019,Townhouse,1309 Cox Cove Ct,Stoney Beach,MD,21226,250000,3,2.5,STONEY BEACH,1254,608,1991,753,199,135,Sold,,,https://www.redfin.com/MD/Curtis-Bay/1309-Cox-Cove-Ct-21226/home/10298040,BRIGHT MLS,MDAA411638,N,Y,39.173442,-76.524651
PAST SALE,April-26-2019,Single Family Residential,908 Lauren Way,Baltimore,MD,21226,255000,3,2.0,BROCKINGTON,1084,7375,1996,954,235,,Sold,,,https://www.redfin.com/MD/Baltimore/908-Lauren-Way-21226/home/10174054,BRIGHT MLS,MDAA374320,N,Y,39.1827725,-76.5529098
PAST SALE,,Parking,6310 Arundel Cove Ave,Baltimore,MD,21226,270000,,,,891,46609,1955,,303,,,,,https://www.redfin.com/MD/Baltimore/6310-Arundel-Cove-Ave-21226/home/166140265,,,N,Y,39.203972,-76.5673966
PAST SALE,July-12-2019,Single Family Residential,1006 Cliff Pl,Orchard Beach,MD,21226,289900,4,2.0,ORCHARD BEACH,1562,6000,1940,877,186,,Sold,,,https://www.redfin.com/MD/Orchard-Beach/1006-Cliff-Pl-21226/home/10269259,BRIGHT MLS,MDAA375702,N,Y,39.167893,-76.52455
PAST SALE,October-9-2019,Townhouse,7829 Creek Shore Way,Stoney Beach,MD,21226,260000,3,2.5,STONEY BEACH,1974,648,1996,788,132,135,Sold,,,https://www.redfin.com/MD/Curtis-Bay/7829-Creek-Shore-Way-21226/home/10298626,BRIGHT MLS,MDAA410156,N,Y,39.171543,-76.5210929
PAST SALE,April-23-2021,Townhouse,7847 Hidden Creek Way,Stoney Beach,MD,21226,283000,3,2.5,STONEY BEACH,1554,,1989,226,182,155,Sold,,,https://www.redfin.com/MD/Curtis-Bay/7847-Hidden-Creek-Way-21226/unit-25/home/10297813,BRIGHT MLS,MDAA461668,N,Y,39.1714399,-76.52279
PAST SALE,June-21-2019,Townhouse,1322 Cox Cove Ct,Stoney Beach,MD,21226,223000,2,1.5,STONEY BEACH,1454,,1991,898,153,135,Sold,,,https://www.redfin.com/MD/Curtis-Bay/1322-Cox-Cove-Ct-21226/unit-422/home/10298002,BRIGHT MLS,MDAA378830,N,Y,39.173929,-76.524144
PAST SALE,September-30-2019,Single Family Residential,204 Carvel Beach Rd,Carvel Beach,MD,21226,275000,3,2.0,CARVEL BEACH,1146,20908,1935,797,240,,Sold,,,https://www.redfin.com/MD/Curtis-Bay/204-Carvel-Beach-Rd-21226/home/10197355,BRIGHT MLS,MDAA410184,N,Y,39.1657985,-76.5361108
PAST SALE,February-12-2021,Single Family Residential,418 Carvel Beach Rd,Carvel Beach,MD,21226,582500,3,3.0,CARVEL BEACH,2000,9475,1969,296,291,,Sold,,,https://www.redfin.com/MD/Chestnut-Hill-Cove/418-Carvel-Beach-Rd-21226/home/10197449,BRIGHT MLS,MDAA451910,N,Y,39.1641095,-76.5351172
PAST SALE,July-2-2021,Single Family Residential,434 Carvel Beach Rd,Carvel Beach,MD,21226,635000,4,2.0,CARVEL BEACH,1628,6063,1935,156,390,,Sold,,,https://www.redfin.com/MD/Chestnut-Hill-Cove/434-Carvel-Beach-Rd-21226/home/10197485,BRIGHT MLS,MDAA469114,N,Y,39.163946,-76.533908
PAST SALE,,Other,428 Carvel Beach Rd,Chestnut Hill Cove,MD,21226,72990,,,,,5570,,,,,,,,https://www.redfin.com/MD/Chestnut-Hill-Cove/428-Carvel-Beach-Rd-21226/home/10197506,,,N,Y,39.163839,-76.534312
PAST SALE,February-19-2021,Single Family Residential,109 Carvel Beach Rd,Carvel Beach,MD,21226,325000,3,2.0,CARVEL BEACH,1080,30927,1951,289,301,,Sold,,,https://www.redfin.com/MD/Curtis-Bay/109-Carvel-Beach-Rd-21226/home/10197524,BRIGHT MLS,MDAA452364,N,Y,39.169354,-76.534445
PAST SALE,January-18-2019,Single Family Residential,126 Carvel Beach Rd,Carvel Beach,MD,21226,260000,4,1.0,CARVEL BEACH,1539,14374,1900,1052,169,,Sold,,,https://www.redfin.com/MD/Curtis-Bay/126-Carvel-Beach-Rd-21226/home/10197431,BRIGHT MLS,1009993874,N,Y,39.1696064,-76.5355689
PAST SALE,August-17-2020,Single Family Residential,7926 Chesapeake Dr,Orchard Beach,MD,21226,269300,3,2.0,ORCHARD BEACH,1278,6000,1940,475,211,,Sold,,,https://www.redfin.com/MD/Orchard-Beach/7926-Chesapeake-Dr-21226/home/10268997,BRIGHT MLS,MDAA432308,N,Y,39.1708529,-76.5243345
PAST SALE,June-27-2019,Single Family Residential,1509 Olmstead St,Baltimore City,MD,21226,60000,2,3.0,CURTIS BAY,2342,4996,1925,892,26,,Sold,,,https://www.redfin.com/MD/Baltimore/1509-Olmstead-St-21226/home/11057185,BRIGHT MLS,MDBA305430,N,Y,39.2273222,-76.5896611
PAST SALE,,Parking,4600 Pennington Ave,Baltimore,MD,21226,100000,,,,1305,8200,1950,,77,,,,,https://www.redfin.com/MD/Baltimore/4600-Pennington-Ave-21226/home/166349421,,,N,Y,39.224255,-76.588668
PAST SALE,October-28-2021,Townhouse,7826 Creek Shr #74,Stoney Beach,MD,21226,396000,3,2.5,STONEY BEACH,2082,686,1997,38,190,,Sold,,,https://www.redfin.com/MD/Curtis-Bay/7826-Creek-Shore-Way-21226/unit-74/home/22023758,BRIGHT MLS,MDAA2009116,N,Y,39.1712149,-76.521209
PAST SALE,,Multi-Family (5+ Unit),4115 Fairhaven Ave,Baltimore,MD,21226,110000,,2.0,,2214,2100,1920,,50,,,,,https://www.redfin.com/MD/Baltimore/4115-Fairhaven-Ave-21226/home/11057565,,,N,Y,39.2277327,-76.5899583
PAST SALE,August-30-2021,Townhouse,4219 Pascal Ave,Baltimore City,MD,21226,169000,4,2.5,Ward 25,1656,1742,1997,97,102,,Sold,,,https://www.redfin.com/MD/Baltimore/4219-Pascal-Ave-21226/home/11057807,BRIGHT MLS,MDBA2004806,N,Y,39.2270433,-76.5920536
PAST SALE,,Parking,3100 Sun St,Baltimore,MD,21226,1518013,,,,7500,193406,1981,,202,,,,,https://www.redfin.com/MD/Baltimore/3100-Sun-St-21226/home/166423991,,,N,Y,39.2394418,-76.5832727
PAST SALE,April-1-2020,Single Family Residential,207 Matfield Ct,Carvel Beach,MD,21226,426500,3,3.5,CARVEL BEACH,2460,6506,2011,613,173,21,Sold,,,https://www.redfin.com/MD/Chestnut-Hill-Cove/207-Matfield-Ct-21226/home/40015134,BRIGHT MLS,MDAA421862,N,Y,39.1679586,-76.5368334
PAST SALE,June-9-2021,Townhouse,1396 River Mist Ct,Stoney Beach,MD,21226,355000,3,3.0,STONEY BEACH,1742,,1992,179,204,155,Sold,,,https://www.redfin.com/MD/Stoney-Beach/1396-River-Mist-Ct-21226/home/10297989,BRIGHT MLS,MDAA468656,N,Y,39.1724854,-76.5175131
PAST SALE,February-7-2020,Townhouse,7102 Springhouse Ln,Chestnut Hill Cove,MD,21226,265000,3,2.5,CHESTNUT HILL COVE,1720,2000,1988,667,154,63,Sold,,,https://www.redfin.com/MD/Chestnut-Hill-Cove/7102-Springhouse-Ln-21226/home/10212530,BRIGHT MLS,MDAA421740,N,Y,39.167209,-76.5387793
PAST SALE,December-14-2018,Single Family Residential,4602 Prudence St,Baltimore,MD,21226,159900,3,1.0,Baltimore,1639,5750,1987,1087,98,,Sold,,,https://www.redfin.com/MD/Baltimore/4602-Prudence-St-21226/home/11056515,BRIGHT MLS,1007929396,N,Y,39.2241695,-76.5916925
PAST SALE,October-29-2020,Townhouse,1009 Chestnut Haven Ct,Chestnut Hill Cove,MD,21226,280000,2,3.0,CHESTNUT HILL COVE,1720,2000,1989,402,163,63,Sold,,,https://www.redfin.com/MD/Chestnut-Hill-Cove/1009-Chestnut-Haven-Ct-21226/home/10212339,BRIGHT MLS,MDAA446754,N,Y,39.1711279,-76.5390651
PAST SALE,May-15-2020,Townhouse,1003 Chestnut Haven Ct,Chestnut Hill Cove,MD,21226,239900,3,1.5,CHESTNUT HILL COVE,1320,2000,1989,569,182,63,Sold,,,https://www.redfin.com/MD/Chestnut-Hill-Cove/1003-Chestnut-Haven-Ct-21226/home/10212346,BRIGHT MLS,MDAA429758,N,Y,39.1712325,-76.5388989
PAST SALE,June-11-2021,Townhouse,1010 Chestnut Haven Ct,Chestnut Hill Cove,MD,21226,310000,4,2.5,CHESTNUT HILL COVE,1840,2000,1989,177,168,62,Sold,,,https://www.redfin.com/MD/Chestnut-Hill-Cove/1010-Chestnut-Haven-Ct-21226/home/10212365,BRIGHT MLS,MDAA465368,N,Y,39.171482,-76.539418
PAST SALE,October-15-2019,Townhouse,7012 Chestnut Brook Rd,Chestnut Hill Cove,MD,21226,270000,3,2.5,CHESTNUT HILL COVE,1732,3800,1988,782,156,63,Sold,,,https://www.redfin.com/MD/Chestnut-Hill-Cove/7012-Chestnut-Brook-Ct-21226/home/10212416,BRIGHT MLS,MDAA410824,N,Y,39.170304,-76.539326
PAST SALE,April-30-2021,Townhouse,7042 Timberfield Pl,Chestnut Hill Cove,MD,21226,280000,2,3.0,CHESTNUT HILL COVE,1632,3526,1989,219,172,62,Sold,,,https://www.redfin.com/MD/Chestnut-Hill-Cove/7042-Timberfield-Pl-21226/home/10212455,BRIGHT MLS,MDAA459848,N,Y,39.1697154,-76.5394516
PAST SALE,September-24-2020,Single Family Residential,7072 Timberfield Pl,Chestnut Hill Cove,MD,21226,275000,3,2.5,CHESTNUT HILL COVE,1320,2000,1988,437,208,47,Sold,,,https://www.redfin.com/MD/Chestnut-Hill-Cove/7072-Timberfield-Pl-21226/home/10212513,BRIGHT MLS,MDAA442732,N,Y,39.1690556,-76.5388596
PAST SALE,February-27-2019,Townhouse,7074 Timberfield Pl,Chestnut Hill Cove,MD,21226,238000,3,2.5,CHESTNUT HILL COVE,1800,2000,1988,1012,132,63,Sold,,,https://www.redfin.com/MD/Chestnut-Hill-Cove/7074-Timberfield-Pl-21226/home/10212515,BRIGHT MLS,1002055244,N,Y,39.1690469,-76.5387885
PAST SALE,March-29-2019,Townhouse,1208 Swanhill Ct,Chestnut Hill Cove,MD,21226,260000,3,3.5,CHESTNUT HILL COVE,1920,2000,1990,982,135,63,Sold,,,https://www.redfin.com/MD/Chestnut-Hill-Cove/1208-Swanhill-Ct-21226/home/10213035,BRIGHT MLS,MDAA374206,N,Y,39.166316,-76.543245
PAST SALE,September-29-2020,Townhouse,1302 Hollow Glen Ct,Chestnut Hill Cove,MD,21226,270000,4,3.5,CHESTNUT HILL COVE,1720,2000,1991,432,157,63,Sold,,,https://www.redfin.com/MD/Chestnut-Hill-Cove/1302-Hollow-Glen-Ct-21226/home/10212893,BRIGHT MLS,MDAA441500,N,Y,39.1655714,-76.5418844
PAST SALE,November-7-2019,Townhouse,1126 Veranda Ct,Chestnut Hill Cove,MD,21226,249000,3,1.5,CHESTNUT HILL COVE,1720,2000,1990,759,145,63,Sold,,,https://www.redfin.com/MD/Chestnut-Hill-Cove/1126-Veranda-Ct-21226/home/10213068,BRIGHT MLS,MDAA410720,N,Y,39.1668316,-76.5437082
PAST SALE,April-29-2021,Townhouse,877 Chestnutview Ct,Chestnut Hill Cove,MD,21226,312500,3,2.5,CHESTNUT HILL COVE,1720,2000,1992,220,182,63,Sold,,,https://www.redfin.com/MD/Chestnut-Hill-Cove/877-Chestnutview-Ct-21226/home/10212740,BRIGHT MLS,MDAA460438,N,Y,39.170232,-76.5404225
PAST SALE,December-30-2020,Townhouse,891 Chestnutview Ct,Chestnut Hill Cove,MD,21226,280000,3,1.5,CHESTNUT HILL COVE,1540,2000,1992,340,182,63,Sold,,,https://www.redfin.com/MD/Chestnut-Hill-Cove/891-Chestnutview-Ct-21226/home/10212769,BRIGHT MLS,MDAA450954,N,Y,39.1700937,-76.5410537
PAST SALE,January-20-2021,Townhouse,1362 Hollow Glen Ct,Chestnut Hill Cove,MD,21226,305000,3,2.5,CHESTNUT HILL COVE,1736,3800,1991,319,176,10,Sold,,,https://www.redfin.com/MD/Chestnut-Hill-Cove/1362-Hollow-Glen-Ct-21226/home/10212830,BRIGHT MLS,MDAA454588,N,Y,39.166096,-76.541514
PAST SALE,,Townhouse,1032 Arborwood Pl,Chestnut Hill Cove,MD,21226,280000,,3.5,,1540,3800,1991,,182,,,,,https://www.redfin.com/MD/Chestnut-Hill-Cove/1032-Arborwood-Pl-21226/home/10213181,,,N,Y,39.16772,-76.543938
PAST SALE,March-29-2021,Townhouse,1163 Double Chestnut Ct,Chestnut Hill Cove,MD,21226,312500,3,2.0,CHESTNUT HILL COVE,1710,2000,1993,251,183,63,Sold,,,https://www.redfin.com/MD/Chestnut-Hill-Cove/1163-Double-Chestnut-Ct-21226/home/10213301,BRIGHT MLS,MDAA458638,N,Y,39.1685019,-76.541811
PAST SALE,February-8-2019,Townhouse,1159 Double Chestnut Ct,Chestnut Hill Cove,MD,21226,257000,2,1.5,CHESTNUT HILL COVE,1710,3800,1993,1031,150,63,Sold,,,https://www.redfin.com/MD/Chestnut-Hill-Cove/1159-Double-Chestnut-Ct-21226/home/10213309,BRIGHT MLS,MDAA303158,N,Y,39.168496,-76.541641
PAST SALE,January-10-2020,Townhouse,1155 Double Chestnut Ct,Chestnut Hill Cove,MD,21226,245000,2,2.5,CHESTNUT HILL COVE,1710,2000,1993,695,143,62,Sold,,,https://www.redfin.com/MD/Chestnut-Hill-Cove/1155-Double-Chestnut-Ct-21226/home/10213319,BRIGHT MLS,MDAA418172,N,Y,39.168463,-76.541338
PAST SALE,,Townhouse,1153 Double Chestnut Ct,Chestnut Hill Cove,MD,21226,260000,,2.5,,1690,2000,1993,,154,,,,,https://www.redfin.com/MD/Chestnut-Hill-Cove/1153-Double-Chestnut-Ct-21226/home/10213322,,,N,Y,39.168444,-76.541272
PAST SALE,March-15-2021,Townhouse,1144 Veranda Ct,Chestnut Hill Cove,MD,21226,285000,3,2.5,CHESTNUT HILL COVE,1782,2000,1990,265,160,63,Sold,,,https://www.redfin.com/MD/Chestnut-Hill-Cove/1144-Veranda-Ct-21226/home/10213421,BRIGHT MLS,MDAA457694,N,Y,39.166908,-76.543072
PAST SALE,June-19-2020,Townhouse,1235 Tillerman Pl,Chestnut Hill Cove,MD,21226,284000,3,2.5,CHESTNUT HILL COVE,1740,2000,1993,534,163,63,Sold,,,https://www.redfin.com/MD/Chestnut-Hill-Cove/1235-Tillerman-Pl-21226/home/10213502,BRIGHT MLS,MDAA433624,N,Y,39.166557,-76.54152
PAST SALE,December-4-2020,Townhouse,1241 Tillerman Pl,Chestnut Hill Cove,MD,21226,285000,2,2.5,CHESTNUT HILL COVE,1672,2000,1993,366,170,63,Sold,,,https://www.redfin.com/MD/Chestnut-Hill-Cove/1241-Tillerman-Pl-21226/home/10213513,BRIGHT MLS,MDAA448884,N,Y,39.16643,-76.541655
PAST SALE,May-18-2020,Townhouse,900 Chestnut Wood Ct,Chestnut Hill Cove,MD,21226,277000,3,2.5,CHESTNUT HILL COVE,1666,3500,1997,566,166,125,Sold,,,https://www.redfin.com/MD/Curtis-Bay/900-Chestnut-Woods-Ct-21226/home/10213943,BRIGHT MLS,MDAA428116,N,Y,39.171835,-76.538308
PAST SALE,,Townhouse,953 Chestnut Manor Ct,Chestnut Hill Cove,MD,21226,265000,,2.5,,1712,2000,1994,,155,,,,,https://www.redfin.com/MD/Chestnut-Hill-Cove/953-Chestnut-Manor-Ct-21226/home/10213653,,,N,Y,39.1687812,-76.5405621
PAST SALE,July-24-2019,Townhouse,933 Chestnut Manor Ct,Chestnut Hill Cove,MD,21226,261000,2,2.5,CHESTNUT HILL COVE,1533,3800,1995,865,170,63,Sold,,,https://www.redfin.com/MD/Chestnut-Hill-Cove/933-Chestnut-Manor-Ct-21226/home/10213703,BRIGHT MLS,MDAA401558,N,Y,39.1692259,-76.5410818
PAST SALE,July-21-2021,Townhouse,1518 Elmtree St,Baltimore City,MD,21226,33000,3,1.0,Ward 25,1688,1688,1905,137,20,,Sold,,,https://www.redfin.com/MD/Baltimore/1518-Elmtree-St-21226/home/11056821,BRIGHT MLS,MDBA549256,N,Y,39.2246491,-76.5891266
PAST SALE,November-6-2019,Townhouse,1602 Elmtree St,Baltimore City,MD,21226,35000,2,2.0,CURTIS BAY,1232,,1920,760,28,,Sold,,,https://www.redfin.com/MD/Baltimore/1602-Elmtree-St-21226/home/11056791,BRIGHT MLS,MDBA484302,N,Y,39.2247245,-76.587934
PAST SALE,,Single Family Residential,8102 Holly Rd Unit A,Orchard Beach,MD,21226,245000,,1.0,,1288,6250,1978,,190,,,,,https://www.redfin.com/MD/Orchard-Beach/8102-Holly-Rd-21226/unit-A/home/10215863,,,N,Y,39.1681359,-76.52853
PAST SALE,,Single Family Residential,8126 Edgewater Rd,Orchard Beach,MD,21226,215000,,1.0,,900,7711,1966,,239,,,,,https://www.redfin.com/MD/Orchard-Beach/8126-Edgewater-Rd-21226/home/10215912,,,N,Y,39.167321,-76.526383
PAST SALE,December-2-2019,Single Family Residential,8206 Holly Rd,Clearwater Beach,MD,21226,170000,2,1.0,CLEARWATER BEACH,842,14898,1955,734,202,,Sold,,,https://www.redfin.com/MD/Orchard-Beach/8206-Holly-Rd-21226/home/10216278,BRIGHT MLS,MDAA416106,N,Y,39.167139,-76.527626
PAST SALE,October-7-2019,Single Family Residential,604 Waterview Dr,Orchard Beach,MD,21226,282000,3,3.0,CLEARWATER BEACH,1518,6250,1997,790,186,,Sold,,,https://www.redfin.com/MD/Orchard-Beach/604-Waterview-Dr-21226/home/10216513,BRIGHT MLS,MDAA410468,N,Y,39.169987,-76.531411
PAST SALE,September-19-2019,Single Family Residential,674 Parkway Dr,Clearwater Beach,MD,21226,299900,3,1.5,CLEARWATER BEACH,1520,9672,2000,808,197,,Sold,,,https://www.redfin.com/MD/Clearwater-Beach/674-Parkway-Dr-21226/home/10216577,BRIGHT MLS,MDAA398142,N,Y,39.1693387,-76.5304065
PAST SALE,March-15-2019,Single Family Residential,8047 Highpoint Rd,Clearwater Beach,MD,21226,227500,2,1.5,CLEARWATER BEACH,1000,5878,1950,996,228,,Sold,,,https://www.redfin.com/MD/Orchard-Beach/8047-Highpoint-Rd-21226/home/10216326,BRIGHT MLS,1002351326,N,Y,39.169821,-76.526708
PAST SALE,July-2-2020,Single Family Residential,8043 Highpoint Rd,Clearwater Beach,MD,21226,300000,3,2.5,CLEARWATER BEACH,2191,9037,1950,521,137,,Sold,,,https://www.redfin.com/MD/Orchard-Beach/8043-Highpoint-Rd-21226/home/10216461,BRIGHT MLS,MDAA433934,N,Y,39.1701276,-76.5269586
PAST SALE,March-31-2020,Townhouse,7022 Chestnut Brook Rd,Chestnut Hill Cove,MD,21226,255000,3,3.5,CHESTNUT HILL COVE,1732,2000,1988,614,147,63,Sold,,,https://www.redfin.com/MD/Chestnut-Hill-Cove/7022-Chestnut-Brook-Ct-21226/home/10212428,BRIGHT MLS,MDAA425594,N,Y,39.170214,-76.538962
PAST SALE,October-27-2020,Townhouse,1239 Tillerman Pl,Chestnut Hill Cove,MD,21226,285000,3,2.5,CHESTNUT HILL COVE,1680,2000,1993,404,170,63,Sold,,,https://www.redfin.com/MD/Chestnut-Hill-Cove/1239-Tillerman-Pl-21226/home/10213509,BRIGHT MLS,MDAA446798,N,Y,39.1664847,-76.541671
PAST SALE,July-9-2019,Single Family Residential,915 Lauren Way,Baltimore,MD,21226,265000,3,2.0,BROCKINGTON,1752,7015,1996,880,151,17,Sold,,,https://www.redfin.com/MD/Baltimore/915-Lauren-Way-21226/home/10173974,BRIGHT MLS,MDAA403166,N,Y,39.1823499,-76.5523679
PAST SALE,December-3-2020,Single Family Residential,1422 Elmtree St,Baltimore City,MD,21226,27000,3,1.0,Ward 25,1048,,1923,367,26,,Sold,,,https://www.redfin.com/MD/Baltimore/1422-Elmtree-St-21226/home/11056472,BRIGHT MLS,MDBA523024,N,Y,39.2245961,-76.5901671
PAST SALE,June-28-2019,Townhouse,1423 Stoney Point Way,Stoney Beach,MD,21226,219900,2,2.5,STONEY BEACH,1254,621,1993,891,175,135,Sold,,,https://www.redfin.com/MD/Curtis-Bay/1423-Stoney-Point-Way-21226/unit-267/home/143729820,BRIGHT MLS,MDAA401162,N,Y,39.173435,-76.5202709
PAST SALE,August-31-2021,Townhouse,7835 Hidden Creek Way,Stoney Beach,MD,21226,291200,3,2.5,STONEY BEACH,1254,,1989,96,232,155,Sold,,,https://www.redfin.com/MD/Curtis-Bay/7835-Hidden-Creek-Way-21226/home/10297789,BRIGHT MLS,MDAA2001990,N,Y,39.1718418,-76.5232377
PAST SALE,February-28-2019,Townhouse,7854 Oyster Shell Ct,Stoney Beach,MD,21226,230000,3,3.0,STONEY BEACH,1540,595,1994,1011,149,135,Sold,,,https://www.redfin.com/MD/Riviera-Beach/7854-Oyster-Shell-Ct-21226/home/10298463,BRIGHT MLS,MDAA147636,N,Y,39.1730624,-76.5192399
PAST SALE,December-27-2019,Townhouse,7811 Hidden Creek Way,Stoney Beach,MD,21226,230000,3,2.5,STONEY BEACH,1554,,1988,709,148,135,Sold,,,https://www.redfin.com/MD/Curtis-Bay/7811-Hidden-Creek-Way-21226/unit-2/home/10297738,BRIGHT MLS,MDAA417880,N,Y,39.1723853,-76.5238388
PAST SALE,December-23-2019,Townhouse,1440 Stoney Point Way,Stoney Beach,MD,21226,258500,3,2.5,STONEY BEACH,1724,,1994,713,150,135,Sold,,,https://www.redfin.com/MD/Curtis-Bay/1440-Stoney-Point-Way-21226/home/10298436,BRIGHT MLS,MDAA419210,N,Y,39.172704,-76.520177
PAST SALE,September-16-2021,Townhouse,1351 Riverwood Way,Curtis Bay,MD,21226,347000,3,2.5,STONEY BEACH,1675,,1989,80,207,155,Sold,,,https://www.redfin.com/MD/Curtis-Bay/1351-Riverwood-Way-21226/home/10297710,BRIGHT MLS,MDAA2005068,N,Y,39.175247,-76.521
PAST SALE,,Townhouse,1522 Cherry St,Baltimore,MD,21226,128000,,1.0,,1290,1699,1865,,99,,,,,https://www.redfin.com/MD/Baltimore/1522-Cherry-St-21226/home/11060428,,,N,Y,39.2223459,-76.5887131
PAST SALE,November-23-2020,Townhouse,881 Chestnutview Ct,Chestnut Hill Cove,MD,21226,283000,2,2.5,CHESTNUT HILL COVE,1732,2000,1992,377,163,62,Sold,,,https://www.redfin.com/MD/Chestnut-Hill-Cove/881-Chestnutview-Ct-21226/home/10212750,BRIGHT MLS,MDAA448430,N,Y,39.170173,-76.5405391
PAST SALE,August-30-2019,Townhouse,863 Chestnut View Ct,Chestnut Hill Cove,MD,21226,268500,3,3.5,CHESTNUT HILL COVE,1300,2178,1991,828,207,63,Sold,,,https://www.redfin.com/MD/Chestnut-Hill-Cove/863-Chestnutview-Ct-21226/home/10212718,BRIGHT MLS,MDAA402522,N,Y,39.1707106,-76.5400166
PAST SALE,September-25-2020,Townhouse,1179 Double Chestnut Ct,Chestnut Hill Cove,MD,21226,279000,3,3.5,CHESTNUT HILL COVE,1820,2000,1993,436,153,63,Sold,,,https://www.redfin.com/MD/Chestnut-Hill-Cove/1179-Double-Chestnut-Ct-21226/home/10213275,BRIGHT MLS,MDAA443512,N,Y,39.1685171,-76.5425349
PAST SALE,December-13-2019,Multi-Family (2-4 Unit),1400 Elmtree St,Baltimore City,MD,21226,169900,,,Baltimore City,2460,2460,1940,723,69,,Sold,,,https://www.redfin.com/MD/Baltimore/1400-Elmtree-St-21226/home/11056452,BRIGHT MLS,MDBA477136,N,Y,39.2245608,-76.5912862
PAST SALE,,Other,237 GREEN RIDGE LN,GLEN BURNIE,MD,21060,142000,,,,,4500,,,,,,,,https://www.redfin.com/MD/GLEN-BURNIE/237-GREEN-RIDGE-LN-21060/home/166069819,,,N,Y,39.182683,-76.554111
PAST SALE,,Single Family Residential,220 Greenland Beach Rd,Chestnut Hill Cove,MD,21226,510000,,2.0,,1836,11420,1987,,278,,,,,https://www.redfin.com/MD/Chestnut-Hill-Cove/220-Greenland-Beach-Rd-21226/home/10246804,,,N,Y,39.164373,-76.531383
PAST SALE,April-26-2019,Single Family Residential,114 Greenland Beach Rd,Greenland Beach,MD,21226,260000,2,1.0,GREENLAND BEACH,1200,14475,1930,954,217,,Sold,,,https://www.redfin.com/MD/Orchard-Beach/114-Greenland-Beach-Rd-21226/home/10246771,BRIGHT MLS,1002265340,N,Y,39.167153,-76.531473
PAST SALE,May-3-2019,Single Family Residential,411 Greenland Beach Rd,Greenland Beach,MD,21226,220000,2,1.0,GREENLAND BEACH,798,11850,1900,947,276,,Sold,,,https://www.redfin.com/MD/Chestnut-Hill-Cove/411-Greenland-Beach-Rd-21226/home/10246773,BRIGHT MLS,MDAA378232,N,Y,39.164246,-76.5288473
PAST SALE,September-15-2021,Townhouse,1432 Stoney Point Way,Stoney Beach,MD,21226,235000,3,1.5,STONEY BEACH,1240,,1993,81,190,155,Sold,,,https://www.redfin.com/MD/Curtis-Bay/1432-Stoney-Point-Way-21226/home/10298385,BRIGHT MLS,MDAA2001552,N,Y,39.173077,-76.520581
PAST SALE,May-22-2020,Single Family Residential,224 Greenland Beach Rd,Greenland Beach,MD,21226,532650,3,2.0,GREENLAND BEACH,1724,9390,1977,562,309,,Sold,,,https://www.redfin.com/MD/Chestnut-Hill-Cove/224-Greenland-Beach-Rd-21226/home/10246822,BRIGHT MLS,MDAA427192,N,Y,39.164002,-76.531696
PAST SALE,,Other,8202 Fort Smallwood Rd,Baltimore,MD,21226,260000,,,,2250,7500,1956,,116,,,,,https://www.redfin.com/MD/Baltimore/8202-Fort-Smallwood-Rd-21226/home/44628461,,,N,Y,39.1657095,-76.5288848
PAST SALE,January-15-2021,Single Family Residential,8028 Fort Smallwood Rd,Baltimore,MD,21226,320000,2,1.5,GREENLAND BEACH,675,14462,1900,324,474,,Sold,,,https://www.redfin.com/MD/Baltimore/8028-Fort-Smallwood-Rd-21226/home/10246875,BRIGHT MLS,MDAA451484,N,Y,39.1682433,-76.5324527
PAST SALE,,Single Family Residential,226 Greenland Beach Rd,Chestnut Hill Cove,MD,21226,312000,2,2.0,,960,9200,1961,,325,,,,,https://www.redfin.com/MD/Chestnut-Hill-Cove/226-Greenland-Beach-Rd-21226/home/10246876,,,N,Y,39.16395,-76.531438
PAST SALE,May-24-2021,Single Family Residential,8234 Fort Smallwood Rd,Baltimore,MD,21226,200000,1,1.0,GREENLAND BEACH,1004,7900,1934,195,199,,Sold,,,https://www.redfin.com/MD/Baltimore/8234-Fort-Smallwood-Rd-21226/home/10246924,BRIGHT MLS,MDAA462076,N,Y,39.1641776,-76.5273944
PAST SALE,July-31-2020,Single Family Residential,203 Greenland Beach Rd,Greenland Beach,MD,21226,389000,3,3.0,GREENLAND BEACH,2490,8500,2003,492,156,,Sold,,,https://www.redfin.com/MD/Chestnut-Hill-Cove/203-Greenland-Beach-Rd-21226/home/10246928,BRIGHT MLS,MDAA435582,N,Y,39.1654599,-76.5301477
PAST SALE,May-10-2019,Townhouse,7024 Chestnut Brook Ct,Chestnut Hill Cove,MD,21226,268000,3,2.0,CHESTNUT HILL COVE,1720,3800,1988,940,156,63,Sold,,,https://www.redfin.com/MD/Chestnut-Hill-Cove/7024-Chestnut-Brook-Ct-21226/home/10212435,BRIGHT MLS,MDAA303122,N,Y,39.170188,-76.538863
PAST SALE,January-29-2021,Single Family Residential,464 Carvel Beach Rd,Carvel Beach,MD,21226,350000,2,1.5,CARVEL BEACH,1140,15250,1930,310,307,,Sold,,,https://www.redfin.com/MD/Chestnut-Hill-Cove/464-Carvel-Beach-Rd-21226/home/10197408,BRIGHT MLS,MDAA426654,N,Y,39.1657052,-76.5342147
PAST SALE,September-1-2021,Townhouse,1250 Swanhill Ct,Chestnut Hill Cove,MD,21226,315000,3,3.5,CHESTNUT HILL COVE,1720,2000,1990,95,183,63,Sold,,,https://www.redfin.com/MD/Chestnut-Hill-Cove/1250-Swanhill-Ct-21226/home/10212952,BRIGHT MLS,MDAA2005412,N,Y,39.1655407,-76.5426122
PAST SALE,August-12-2020,Townhouse,1556 Stoney Beach Way,Stoney Beach,MD,21226,245000,3,3.0,STONEY BEACH,1554,,1992,480,158,155,Sold,,,https://www.redfin.com/MD/Curtis-Bay/1556-Stoney-Beach-Way-21226/unit-99/home/10298110,BRIGHT MLS,MDAA437186,N,Y,39.172173,-76.520796
PAST SALE,September-16-2019,Single Family Residential,7901 Main St,Orchard Beach,MD,21226,175500,2,1.5,ORCHARD BEACH,952,6218,1940,811,184,,Sold,,,https://www.redfin.com/MD/Orchard-Beach/7901-Main-St-21226/home/10269250,BRIGHT MLS,MDAA402800,N,Y,39.171593,-76.525634
PAST SALE,,Other,8202 Holly Rd,Curtis Bay,MD,21226,50000,,,,,4477,,,,,,,,https://www.redfin.com/MD/Curtis-Bay/8202-Holly-Rd-21226/home/171060510,,,N,Y,39.1672071,-76.5277956
PAST SALE,February-28-2019,Townhouse,1344 Riverwood Way,Stoney Beach,MD,21226,270000,3,3.0,STONEY BEACH,1552,645,1990,1011,174,135,Sold,,,https://www.redfin.com/MD/Curtis-Bay/1344-Riverwood-Way-21226/home/10297700,BRIGHT MLS,MDAA302290,N,Y,39.1748,-76.5210309
PAST SALE,,Single Family Residential,7317 Green Acres Dr,Glen Burnie,MD,21060,282000,,3.0,,1910,9798,1955,,148,,,,,https://www.redfin.com/MD/Glen-Burnie/7317-Green-Acres-Dr-21060/home/10263720,,,N,Y,39.1848831,-76.5545042
PAST SALE,February-26-2021,Townhouse,7855 Hidden Creek Way,Stoney Beach,MD,21226,280000,3,2.5,STONEY BEACH,1454,,1988,282,193,155,Sold,,,https://www.redfin.com/MD/Curtis-Bay/7855-Hidden-Creek-Way-21226/unit-21/home/10297797,BRIGHT MLS,MDAA458054,N,Y,39.1714399,-76.52279
PAST SALE,July-21-2021,Single Family Residential,625-A Fernhill Rd,Clearwater Beach,MD,21226,425000,3,2.5,CLEARWATER BEACH,2226,6250,2011,137,191,,Sold,,,https://www.redfin.com/MD/Clearwater-Beach/625A-Fernhill-Rd-21226/home/146985653,BRIGHT MLS,MDAA467046,N,Y,39.1681291,-76.5294798
PAST SALE,,Single Family Residential,7816 Waterview Dr,Orchard Beach,MD,21226,118000,,1.0,,616,4000,1940,,192,,,,,https://www.redfin.com/MD/Orchard-Beach/7816-Waterview-Dr-21226/home/10269123,,,N,Y,39.172371,-76.525513
PAST SALE,,Single Family Residential,7916 W End Dr,Orchard Beach,MD,21226,340000,,2.0,,1442,6000,1956,,236,,,,,https://www.redfin.com/MD/Orchard-Beach/7916-W-End-Dr-21226/home/10269131,,,N,Y,39.169851,-76.526436
PAST SALE,August-20-2021,Single Family Residential,8221 Box Dr,Baltimore,MD,21226,220000,2,2.0,ORCHARD BEACH,1440,11379,1940,107,153,,Sold,,,https://www.redfin.com/MD/Orchard-Beach/8221-Box-Dr-21226/home/10269145,BRIGHT MLS,MDAA469476,N,Y,39.1671961,-76.5242333
PAST SALE,December-23-2020,Single Family Residential,8208 W End Dr,Orchard Beach,MD,21226,315000,3,2.5,ORCHARD BEACH,1240,4000,2005,347,254,,Sold,,,https://www.redfin.com/MD/Orchard-Beach/8208-W-End-Dr-21226/home/10269108,BRIGHT MLS,MDAA451952,N,Y,39.167678,-76.52535
PAST SALE,,Single Family Residential,1010 Siske Rd,Orchard Beach,MD,21226,260000,,1.0,,652,17990,1940,,399,,,,,https://www.redfin.com/MD/Orchard-Beach/1010-Siske-Rd-21226/home/10269178,,,N,Y,39.1669207,-76.5237278
PAST SALE,September-2-2020,Single Family Residential,1104 Beach Promenade,Orchard Beach,MD,21226,418000,2,2.5,ORCHARD BEACH,2022,6730,1932,459,207,,Sold,,,https://www.redfin.com/MD/Orchard-Beach/1104-Beach-Promenade-21226/home/10269179,BRIGHT MLS,MDAA438822,N,Y,39.1703099,-76.5239995
PAST SALE,,Single Family Residential,1014 Belvedere Pl,Orchard Beach,MD,21226,246000,,1.0,,1920,4020,1940,,128,,,,,https://www.redfin.com/MD/Orchard-Beach/1014-Belvedere-Pl-21226/home/10269206,,,N,Y,39.169097,-76.524661
PAST SALE,April-15-2019,Single Family Residential,7918 Chesapeake Dr,Orchard Beach,MD,21226,267000,2,1.5,ORCHARD BEACH,2052,16117,1944,965,130,,Sold,,,https://www.redfin.com/MD/Orchard-Beach/7918-Chesapeake-Dr-21226/home/10269186,BRIGHT MLS,MDAA366076,N,Y,39.1711429,-76.5247206
PAST SALE,January-15-2021,Single Family Residential,7902 Waterview Dr,Orchard Beach,MD,21226,280000,3,2.0,ORCHARD BEACH,1500,6221,1940,324,187,,Sold,,,https://www.redfin.com/MD/Orchard-Beach/7902-Waterview-Dr-21226/home/10269158,BRIGHT MLS,MDAA453222,N,Y,39.171894,-76.524934
PAST SALE,August-9-2019,Single Family Residential,8008 W End Dr,Orchard Beach,MD,21226,175000,3,2.0,ORCHARD BEACH,896,4000,1940,849,195,,Sold,,,https://www.redfin.com/MD/Orchard-Beach/8008-W-End-Dr-21226/home/10269323,BRIGHT MLS,MDAA395508,N,Y,39.1689072,-76.525964
PAST SALE,,Single Family Residential,1005 Cliff Pl,Orchard Beach,MD,21226,170000,,1.0,,720,4000,1940,,236,,,,,https://www.redfin.com/MD/Orchard-Beach/1005-Cliff-Pl-21226/home/10269326,,,N,Y,39.16746,-76.5246253
PAST SALE,August-25-2020,Single Family Residential,1207 Hilltop Rd,Orchard Beach,MD,21226,288000,3,2.0,ORCHARD BEACH,1680,9525,1991,467,171,,Sold,,,https://www.redfin.com/MD/Orchard-Beach/1207-Hilltop-Rd-21226/home/10269463,BRIGHT MLS,MDAA439388,N,Y,39.1728718,-76.5249452
PAST SALE,June-26-2020,Townhouse,1446 Stoney Point Way,Stoney Beach,MD,21226,270000,3,2.5,STONEY BEACH,1554,,1994,527,174,155,Sold,,,https://www.redfin.com/MD/Curtis-Bay/1446-Stoney-Point-Way-21226/home/10298446,BRIGHT MLS,MDAA430820,N,Y,39.172704,-76.520177
PAST SALE,September-13-2019,Single Family Residential,7922 Sea Breeze Dr,Orchard Beach,MD,21226,230000,3,2.5,ORCHARD BEACH,1120,4280,1993,814,205,,Sold,,,https://www.redfin.com/MD/Orchard-Beach/7922-Seabreeze-Dr-21226/home/10269482,BRIGHT MLS,1006324898,N,Y,39.1699377,-76.525515
PAST SALE,August-31-2021,Townhouse,1327 Riverwood Way,Stoney Beach,MD,21226,375000,3,3.0,STONEY BEACH,1614,,1989,96,232,155,Sold,,,https://www.redfin.com/MD/Curtis-Bay/1327-Riverwood-Way-21226/home/10297729,BRIGHT MLS,MDAA2001760,N,Y,39.175014,-76.520455
PAST SALE,August-27-2021,Single Family Residential,204 Matfield Ct,Carvel Beach,MD,21226,500000,4,3.5,CARVEL BEACH,2254,7243,2012,100,222,21,Sold,,,https://www.redfin.com/MD/Chestnut-Hill-Cove/204-Matfield-Ct-21226/home/40013945,BRIGHT MLS,MDAA2001302,N,Y,39.1683525,-76.5367883
PAST SALE,April-4-2019,Townhouse,1620 Church St,Baltimore City,MD,21226,31000,3,1.0,CURTIS BAY,1134,1400,1920,976,27,,Sold,,,https://www.redfin.com/MD/Baltimore/1620-Church-St-21226/home/11056052,BRIGHT MLS,1006062162,N,Y,39.2231795,-76.5873138
PAST SALE,,Townhouse,4211 Grace Ct,Baltimore,MD,21226,115000,,1.0,,832,672,1920,,138,,,,,https://www.redfin.com/MD/Baltimore/4211-Grace-Ct-21226/home/11057324,,,N,Y,39.2273238,-76.587381
PAST SALE,August-1-2019,Townhouse,1192 Swanhill Ct,Chestnut Hill Cove,MD,21226,265000,3,2.5,CHESTNUT HILL COVE,1540,2000,1991,857,172,68,Sold,,,https://www.redfin.com/MD/Chestnut-Hill-Cove/1192-Swanhill-Ct-21226/home/10213050,BRIGHT MLS,MDAA404018,N,Y,39.166626,-76.542847
PAST SALE,July-31-2019,Townhouse,1365 River Bank Ct,Stoney Beach,MD,21226,335000,4,3.5,STONEY BEACH,1742,684,1999,858,192,135,Sold,,,https://www.redfin.com/MD/Curtis-Bay/1365-River-Bank-Ct-21226/home/10298747,BRIGHT MLS,MDAA402140,N,Y,39.173221,-76.5183349
PAST SALE,January-31-2020,Single Family Residential,8109 Highpoint Rd,Clearwater Beach,MD,21226,229000,2,2.0,CLEARWATER BEACH,938,5616,1952,674,244,,Sold,,,https://www.redfin.com/MD/Orchard-Beach/8109-Highpoint-Rd-21226/home/10215846,BRIGHT MLS,MDAA419436,N,Y,39.169292,-76.526443
PAST SALE,September-10-2020,Single Family Residential,203 Sycamore Rd,Baltimore,MD,21226,295000,3,2.0,MATDALE SOLLEY,1368,7500,1950,451,216,,Sold,,,https://www.redfin.com/MD/Baltimore/203-Sycamore-Rd-21226/home/10263721,BRIGHT MLS,MDAA442470,N,Y,39.184073,-76.5534517
PAST SALE,,Single Family Residential,8001 W End Dr,Orchard Beach,MD,21226,190000,,1.0,,1440,6000,1940,,132,,,,,https://www.redfin.com/MD/Orchard-Beach/8001-W-End-Dr-21226/home/10269298,,,N,Y,39.169256,-76.525687
PAST SALE,August-17-2020,Townhouse,1526 Stoney Beach Way,Stoney Beach,MD,21226,243000,3,2.5,STONEY BEACH,1614,,1992,475,151,155,Sold,,,https://www.redfin.com/MD/Curtis-Bay/1526-Stoney-Beach-Way-21226/unit-93/home/10298021,BRIGHT MLS,MDAA438250,N,Y,39.1726934,-76.5212636
PAST SALE,June-24-2019,Townhouse,1432 Locust St,Baltimore City,MD,21226,87000,3,1.0,Baltimore City,992,,1956,895,88,,Sold,,,https://www.redfin.com/MD/Baltimore/1432-Locust-St-21226/home/11058016,BRIGHT MLS,MDBA263396,N,Y,39.2269088,-76.5903044
PAST SALE,July-26-2021,Townhouse,1260 Swanhill Ct,Chestnut Hill Cove,MD,21226,302000,3,2.5,CHESTNUT HILL COVE,1800,2000,1990,132,168,58,Sold,,,https://www.redfin.com/MD/Chestnut-Hill-Cove/1260-Swanhill-Ct-21226/home/10212929,BRIGHT MLS,MDAA470662,N,Y,39.1659083,-76.5422414
PAST SALE,,Single Family Residential,117 Sycamore Rd,Baltimore,MD,21226,378000,,3.0,,1839,9000,2013,,206,,,,,https://www.redfin.com/MD/Baltimore/117-Sycamore-Rd-21226/home/10263758,,,N,Y,39.184383,-76.5550772
PAST SALE,August-6-2021,Townhouse,922 Chestnut Wood Ct,Chestnut Hill Cove,MD,21226,295000,3,2.0,CHESTNUT HILL COVE,1580,2000,1996,121,187,70,Sold,,,https://www.redfin.com/MD/Chestnut-Hill-Cove/922-Chestnut-Woods-Ct-21226/home/10213899,BRIGHT MLS,MDAA471644,N,Y,39.1713738,-76.5383949
PAST SALE,August-11-2021,Townhouse,1344 Waterway Ct,Stoney Beach,MD,21226,290000,3,3.5,STONEY BEACH,1742,,1994,116,166,155,Sold,,,https://www.redfin.com/MD/Curtis-Bay/1344-Waterway-Ct-21226/home/10298425,BRIGHT MLS,MDAA2000264,N,Y,39.1716031,-76.5190577
PAST SALE,July-20-2021,Single Family Residential,8103 Holly Rd,Clearwater Beach,MD,21226,292500,3,1.0,CLEARWATER BEACH,1073,6250,1955,138,273,6,Sold,,,https://www.redfin.com/MD/Orchard-Beach/8103-Holly-Rd-21226/home/10216183,BRIGHT MLS,MDAA470486,N,Y,39.168332,-76.5279915
PAST SALE,December-3-2021,Single Family Residential,8012 W End Dr,Orchard Beach,MD,21226,297000,3,2.0,ORCHARD BEACH,1360,4000,1940,2,218,,Sold,,,https://www.redfin.com/MD/Orchard-Beach/8012-W-End-Dr-21226/home/10269347,BRIGHT MLS,MDAA471948,N,Y,39.1686989,-76.525861
PAST SALE,October-20-2021,Townhouse,7795 Cox Point Ct,Stoney Beach,MD,21226,310000,3,2.0,STONEY BEACH,1594,,1990,46,194,155,Sold,,,https://www.redfin.com/MD/Curtis-Bay/7795-Cox-Point-Ct-21226/unit-451/home/10297936,BRIGHT MLS,MDAA2009574,N,Y,39.17307,-76.524415
PAST SALE,September-2-2020,Single Family Residential,800 Waterview Dr,Orchard Beach,MD,21226,385000,4,2.5,CLEARWATER BEACH,1528,5577,1977,459,252,,Sold,,,https://www.redfin.com/MD/Orchard-Beach/800-Waterview-Dr-21226/home/10216406,BRIGHT MLS,MDAA440064,N,Y,39.17097,-76.5292503
PAST SALE,May-19-2021,Single Family Residential,628 Fernhill Rd,Clearwater Beach,MD,21226,276000,3,1.0,CLEARWATER BEACH,756,6250,1950,200,365,,Sold,,,https://www.redfin.com/MD/Orchard-Beach/628-Fernhill-Rd-21226/home/10216089,BRIGHT MLS,MDAA463520,N,Y,39.1687323,-76.529341
PAST SALE,December-23-2020,Condo/Co-op,7796 Cox Point Ct,Stoney Beach,MD,21226,300000,3,2.5,STONEY BEACH,1614,,1993,347,186,155,Sold,,,https://www.redfin.com/MD/Curtis-Bay/7796-Cox-Point-Ct-21226/unit-449/home/10298360,BRIGHT MLS,MDAA451944,N,Y,39.1730259,-76.5240026
PAST SALE,April-13-2021,Single Family Residential,4716 Curtis Ave,Baltimore City,MD,21226,23000,2,1.0,Ward 25,936,1566,1920,236,25,,Sold,,,https://www.redfin.com/MD/Baltimore/4716-Curtis-Ave-21226/home/11056174,BRIGHT MLS,MDBA544010,N,Y,39.2232125,-76.5868284
PAST SALE,December-13-2019,Single Family Residential,7918 West End Dr,Orchard Beach,MD,21226,286000,3,2.0,ORCHARD BEACH,1536,4000,1992,723,186,,Sold,,,https://www.redfin.com/MD/Orchard-Beach/7918-W-End-Dr-21226/home/10269147,BRIGHT MLS,MDAA417474,N,Y,39.169724,-76.526372
PAST SALE,October-29-2020,Townhouse,1558 Stoney Beach Way,Stoney Beach,MD,21226,292000,3,3.0,STONEY BEACH,1614,646,1992,402,181,155,Sold,,,https://www.redfin.com/MD/Curtis-Bay/1558-Stoney-Beach-Way-21226/home/10298113,BRIGHT MLS,MDAA445560,N,Y,39.1720762,-76.5209288
PAST SALE,May-26-2021,Townhouse,4108 Grace Ct,Baltimore City,MD,21226,41500,3,1.0,Ward 25,832,832,1920,193,50,,Sold,,,https://www.redfin.com/MD/Baltimore/4108-Grace-Ct-21226/home/11057458,BRIGHT MLS,MDBA546002,N,Y,39.2281183,-76.587698
PAST SALE,,Single Family Residential,1008 Siske Rd,Orchard Beach,MD,21226,350000,,1.0,,816,8581,1955,,429,,,,,https://www.redfin.com/MD/Orchard-Beach/1008-Siske-Rd-21226/home/10269295,,,N,Y,39.1667282,-76.5237882
PAST SALE,September-10-2019,Single Family Residential,7802 Shelbourne Dr,Baltimore,MD,21226,244000,2,1.0,SHELBOURNE MANOR,888,7850,1953,817,275,,Sold,,,https://www.redfin.com/MD/CARVEL-BEACH/7802-SHELBOURNE-DR-21226/home/10288426,BRIGHT MLS,MDAA404200,N,Y,39.170355,-76.536246
PAST SALE,,Condo/Co-op,7826 Creek Shore Way,Curtis Bay,MD,21226,396000,,3.0,,2082,,1997,,190,,,,,https://www.redfin.com/MD/Curtis-Bay/7826-Creek-Shore-Way-21226/home/10298653,,,N,Y,39.1712149,-76.521209
PAST SALE,November-23-2021,Single Family Residential,151 Carvel Bch,Carvel Beach,MD,21226,579000,3,3.0,CARVEL BEACH,2205,27425,1987,12,263,,Sold,,,https://www.redfin.com/MD/Chestnut-Hill-Cove/151-Carvel-Beach-Rd-21226/home/10197565,BRIGHT MLS,MDAA2012014,N,Y,39.167763,-76.535279
PAST SALE,March-21-2019,Townhouse,934 Chestnut Wood Ct,Chestnut Hill Cove,MD,21226,233000,3,2.0,CHESTNUT HILL COVE,1592,2000,1997,990,146,63,Sold,,,https://www.redfin.com/MD/Chestnut-Hill-Cove/934-Chestnut-Woods-Ct-21226/home/10213874,BRIGHT MLS,1009954478,N,Y,39.1715772,-76.5378181
PAST SALE,July-19-2019,Townhouse,1340 Riverwood Way,Stoney Beach,MD,21226,260000,3,3.0,STONEY BEACH,1594,662,1990,870,163,115,Sold,,,https://www.redfin.com/MD/Curtis-Bay/1340-Riverwood-Way-21226/home/10297697,BRIGHT MLS,MDAA400232,N,Y,39.1748,-76.5210309
PAST SALE,,Condo/Co-op,1325 Riverwood Way,Curtis Bay,MD,21226,315000,,2.5,,1540,,1989,,205,,,,,https://www.redfin.com/MD/Curtis-Bay/1325-Riverwood-Way-21226/home/10297730,,,N,Y,39.1750633,-76.520783
PAST SALE,December-3-2020,Townhouse,7813 Hidden Creek Way,Stoney Beach,MD,21226,239000,2,3.5,STONEY BEACH,1434,,1988,367,167,155,Sold,,,https://www.redfin.com/MD/Curtis-Bay/7813-Hidden-Creek-Way-21226/home/10297736,BRIGHT MLS,MDAA449420,N,Y,39.172492,-76.523902
PAST SALE,July-31-2020,Townhouse,7810 Hidden Creek Way,Stoney Beach,MD,21226,260000,3,2.5,STONEY BEACH,1594,,1988,492,163,155,Sold,,,https://www.redfin.com/MD/Curtis-Bay/7810-Hidden-Creek-Way-21226/home/10297775,BRIGHT MLS,MDAA437124,N,Y,39.1726224,-76.5235698
PAST SALE,January-22-2021,Townhouse,7805 Hidden Creek Way,Stoney Beach,MD,21226,289900,3,2.5,STONEY BEACH,1691,,1988,317,171,155,Sold,,,https://www.redfin.com/MD/Curtis-Bay/7805-Hidden-Creek-Way-21226/home/10297742,BRIGHT MLS,MDAA453562,N,Y,39.172492,-76.523902
PAST SALE,,Condo/Co-op,7849 Hidden Creek Way,Curtis Bay,MD,21226,285000,,1.5,,1624,,1989,,175,,,,,https://www.redfin.com/MD/Curtis-Bay/7849-Hidden-Creek-Way-21226/home/10297812,,,N,Y,39.1714399,-76.52279
PAST SALE,August-31-2021,Townhouse,7812 Hidden Creek Way,Stoney Beach,MD,21226,315000,3,3.0,STONEY BEACH,1830,648,1988,96,172,155,Sold,,,https://www.redfin.com/MD/Curtis-Bay/7812-Hidden-Creek-Way-21226/home/10297776,BRIGHT MLS,MDAA2005884,N,Y,39.17261,-76.523425
PAST SALE,January-23-2020,Townhouse,7857 Hidden Creek Way,Stoney Beach,MD,21226,251000,3,2.5,STONEY BEACH,1554,,1989,682,162,135,Sold,,,https://www.redfin.com/MD/Curtis-Bay/7857-Hidden-Creek-Way-21226/home/10297794,BRIGHT MLS,MDAA419608,N,Y,39.1714399,-76.52279
PAST SALE,July-3-2020,Townhouse,7869 Hidden Creek Way,Stoney Beach,MD,21226,271000,3,2.5,STONEY BEACH,1554,,1989,520,174,155,Sold,,,https://www.redfin.com/MD/Curtis-Bay/7869-Hidden-Creek-Way-21226/home/10297839,BRIGHT MLS,MDAA436350,N,Y,39.171634,-76.522143
PAST SALE,October-21-2020,Townhouse,1301 Creekland Ct,Stoney Beach,MD,21226,305000,3,2.5,STONEY BEACH,1554,606,1990,410,196,155,Sold,,,https://www.redfin.com/MD/Curtis-Bay/1301-Creekland-Ct-21226/home/10297874,BRIGHT MLS,MDAA441022,N,Y,39.1720845,-76.5230452
PAST SALE,December-30-2020,Townhouse,1306 Creekland Ct,Stoney Beach,MD,21226,260000,3,2.5,STONEY BEACH,1594,599,1990,340,163,155,Sold,,,https://www.redfin.com/MD/Curtis-Bay/1306-Creekland-Ct-21226/home/10297886,BRIGHT MLS,MDAA451722,N,Y,39.172357,-76.522994
PAST SALE,January-26-2021,Single Family Residential,923 Lauren Way,Baltimore,MD,21226,310000,3,2.0,BROCKINGTON,1526,11652,1995,313,203,19,Sold,,,https://www.redfin.com/MD/Baltimore/923-Lauren-Way-21226/home/10173929,BRIGHT MLS,MDAA453162,N,Y,39.1824091,-76.55151
PAST SALE,August-19-2020,Townhouse,1503 Lighthouse Ct,Stoney Beach,MD,21226,259900,3,2.5,STONEY BEACH,1594,595,1991,473,163,155,Sold,,,https://www.redfin.com/MD/Curtis-Bay/1503-Lighthouse-Ct-21226/unit-85/home/10297900,BRIGHT MLS,MDAA437592,N,Y,39.172142,-76.521244
PAST SALE,December-17-2020,Townhouse,1507 Lighthouse Ct,Stoney Beach,MD,21226,282000,3,2.5,STONEY BEACH,1594,608,1991,353,177,155,Sold,,,https://www.redfin.com/MD/Curtis-Bay/1507-Lighthouse-Ct-21226/home/10297903,BRIGHT MLS,MDAA451994,N,Y,39.172142,-76.521244
PAST SALE,August-27-2019,Townhouse,1509 Lighthouse Ct,Stoney Beach,MD,21226,263000,3,2.5,STONEY BEACH,1792,648,1991,831,147,133,Sold,,,https://www.redfin.com/MD/Curtis-Bay/1509-Lighthouse-Ct-21226/home/10297906,BRIGHT MLS,MDAA402016,N,Y,39.172142,-76.521244
PAST SALE,August-30-2019,Townhouse,1410 Cox Landing Ct,Stoney Beach,MD,21226,179900,3,2.5,STONEY BEACH,1554,618,1990,828,116,135,Sold,,,https://www.redfin.com/MD/Curtis-Bay/1410-Cox-Cove-Ct-21226/home/10297917,BRIGHT MLS,MDAA407044,N,Y,39.17416,-76.5214979
PAST SALE,February-23-2021,Townhouse,1402 Cox Landing Ct,Stoney Beach,MD,21226,236000,3,3.0,STONEY BEACH,1614,,1990,285,146,155,Sold,,,https://www.redfin.com/MD/Curtis-Bay/1402-Cox-Cove-Ct-21226/home/10297926,BRIGHT MLS,MDAA454710,N,Y,39.17416,-76.5214979
PAST SALE,April-14-2020,Townhouse,1557 Stoney Beach Way,Stoney Beach,MD,21226,260000,3,3.0,STONEY BEACH,1704,,1992,600,153,155,Sold,,,https://www.redfin.com/MD/Curtis-Bay/1557-Stoney-Beach-Way-21226/home/10298129,BRIGHT MLS,MDAA426458,N,Y,39.172203,-76.520265
PAST SALE,September-8-2020,Townhouse,1311 Cox Cove Ct,Stoney Beach,MD,21226,284000,3,2.5,STONEY BEACH,1554,612,1991,453,183,155,Sold,,,https://www.redfin.com/MD/Curtis-Bay/1311-Cox-Cove-Ct-21226/home/10298044,BRIGHT MLS,MDAA443012,N,Y,39.173442,-76.524651
PAST SALE,June-8-2021,Townhouse,1315 Cox Cove Ct,Stoney Beach,MD,21226,301000,3,2.5,STONEY BEACH,1774,652,1991,180,170,155,Sold,,,https://www.redfin.com/MD/Curtis-Bay/1315-Cox-Cove-Ct-21226/home/10298050,BRIGHT MLS,MDAA464948,N,Y,39.173442,-76.524651
PAST SALE,October-19-2020,Townhouse,1350 Cox Cove Ct,Stoney Beach,MD,21226,300000,3,2.5,STONEY BEACH,1560,,1991,412,192,135,Sold,,,https://www.redfin.com/MD/Curtis-Bay/1350-Cox-Cove-Ct-21226/unit-441/home/10298062,BRIGHT MLS,MDAA445594,N,Y,39.173677,-76.523656
PAST SALE,October-7-2019,Townhouse,1329 Waterway Ct,Stoney Beach,MD,21226,236000,2,2.5,STONEY BEACH,1912,688,1993,790,123,135,Sold,,,https://www.redfin.com/MD/Curtis-Bay/1329-Waterway-Ct-21226/home/10298235,BRIGHT MLS,MDAA413636,N,Y,39.171127,-76.519446
PAST SALE,,Condo/Co-op,1317 Waterway Ct,Curtis Bay,MD,21226,330000,,2.5,,1714,,1994,,193,,,,,https://www.redfin.com/MD/Curtis-Bay/1317-Waterway-Ct-21226/home/10298370,,,N,Y,39.17121,-76.520005
PAST SALE,May-27-2020,Townhouse,1408 Stoney Point Way,Stoney Beach,MD,21226,225000,3,1.5,STONEY BEACH,1254,,1993,557,179,155,Sold,,,https://www.redfin.com/MD/Curtis-Bay/1408-Stoney-Point-Way-21226/home/10298271,BRIGHT MLS,MDAA430362,N,Y,39.173633,-76.520829
PAST SALE,December-3-2020,Townhouse,1415 Stoney Point Way,Stoney Beach,MD,21226,237000,3,1.5,STONEY BEACH,1254,619,1993,367,189,159,Sold,,,https://www.redfin.com/MD/Curtis-Bay/1415-Stoney-Point-Way-21226/home/10298282,BRIGHT MLS,MDAA448828,N,Y,39.173435,-76.5202709
PAST SALE,July-31-2020,Townhouse,1537 Stoney Beach Way,Stoney Beach,MD,21226,252000,3,2.5,STONEY BEACH,1680,,1992,492,150,155,Sold,,,https://www.redfin.com/MD/Curtis-Bay/1537-Stoney-Beach-Way-21226/home/10298150,BRIGHT MLS,MDAA435926,N,Y,39.172641,-76.520541
PAST SALE,July-30-2020,Townhouse,1354 River Mist Ct,Stoney Beach,MD,21226,315000,4,3.5,STONEY BEACH,1906,,1993,493,165,155,Sold,,,https://www.redfin.com/MD/Stoney-Beach/1354-River-Mist-Ct-21226/home/10298177,BRIGHT MLS,MDAA435496,N,Y,39.1726562,-76.51838
PAST SALE,,Condo/Co-op,1423 Stoney Point Way,Curtis Bay,MD,21226,212000,,2.5,,1254,,1993,,169,,,,,https://www.redfin.com/MD/Curtis-Bay/1423-Stoney-Point-Way-21226/home/10298294,,,N,Y,39.173435,-76.5202709
PAST SALE,December-22-2020,Townhouse,1449 Stoney Point Way,Stoney Beach,MD,21226,242000,3,1.5,STONEY BEACH,1256,649,1993,348,193,155,Sold,,,https://www.redfin.com/MD/Curtis-Bay/1449-Stoney-Point-Way-21226/home/10298322,BRIGHT MLS,MDAA453154,N,Y,39.1728962,-76.5198841
PAST SALE,January-31-2020,Townhouse,1365 Stoneleigh Ct,Stoney Beach,MD,21226,246000,3,2.5,STONEY BEACH,1740,,1997,674,141,155,Sold,,,https://www.redfin.com/MD/Curtis-Bay/1365-Stoneleigh-Ct-21226/home/10298507,BRIGHT MLS,MDAA421052,N,Y,39.171808,-76.519218
PAST SALE,,Condo/Co-op,7836 Creek Shore Way,Curtis Bay,MD,21226,360000,,3.5,,1756,,1995,,205,,,,,https://www.redfin.com/MD/Curtis-Bay/7836-Creek-Shore-Way-21226/home/10298565,,,N,Y,39.171278,-76.52061
PAST SALE,,Condo/Co-op,1307 Sea Shell Ct,Curtis Bay,MD,21226,320000,,2.5,,2082,,1996,,154,,,,,https://www.redfin.com/MD/Curtis-Bay/1307-Sea-Shell-Ct-21226/home/10298614,,,N,Y,39.17111,-76.52167
PAST SALE,April-28-2021,Townhouse,1305 Sea Shell Ct,Stoney Beach,MD,21226,360000,4,2.5,STONEY BEACH,2082,,1996,221,173,155,Sold,,,https://www.redfin.com/MD/Curtis-Bay/1305-Sea-Shell-Ct-21226/home/10298618,BRIGHT MLS,MDAA466582,N,Y,39.17111,-76.52167
PAST SALE,April-30-2020,Townhouse,1310 Waterway Ct,Stoney Beach,MD,21226,262500,4,3.5,STONEY BEACH,1912,,1995,584,137,155,Sold,,,https://www.redfin.com/MD/Curtis-Bay/1310-Waterway-Ct-21226/home/10298517,BRIGHT MLS,MDAA430044,N,Y,39.171581,-76.51971
PAST SALE,April-16-2021,Townhouse,7895 Seaside Ct,Stoney Beach,MD,21226,276500,3,1.5,STONEY BEACH,1574,,1995,233,176,155,Sold,,,https://www.redfin.com/MD/Curtis-Bay/7895-Seaside-Ct-21226/home/10298536,BRIGHT MLS,MDAA460148,N,Y,39.173357,-76.519501
PAST SALE,April-23-2020,Townhouse,1434 Stoney Point Way,Stoney Beach,MD,21226,230000,3,1.5,STONEY BEACH,1240,,1993,591,185,155,Sold,,,https://www.redfin.com/MD/Curtis-Bay/1434-Stoney-Point-Way-21226/home/10298384,BRIGHT MLS,MDAA427704,N,Y,39.173077,-76.520581
PAST SALE,August-27-2020,Townhouse,1430 Stoney Point Way,Stoney Beach,MD,21226,230000,3,1.5,STONEY BEACH,1254,,1993,465,183,152,Sold,,,https://www.redfin.com/MD/Curtis-Bay/1430-Stoney-Point-Way-21226/home/10298387,BRIGHT MLS,MDAA440208,N,Y,39.173077,-76.520581
PAST SALE,August-31-2020,Townhouse,1424 Stoney Point Way,Stoney Beach,MD,21226,228000,3,1.5,STONEY BEACH,1254,,1993,461,182,155,Sold,,,https://www.redfin.com/MD/Curtis-Bay/1424-Stoney-Point-Way-21226/home/10298394,BRIGHT MLS,MDAA439698,N,Y,39.173077,-76.520581
PAST SALE,June-16-2020,Townhouse,7844 Creek Shore Way,Stoney Beach,MD,21226,313000,4,2.5,STONEY BEACH,1742,686,1995,537,180,155,Sold,,,https://www.redfin.com/MD/Curtis-Bay/7844-Creek-Shore-Way-21226/home/10298555,BRIGHT MLS,MDAA400978,N,Y,39.171278,-76.52061
PAST SALE,February-15-2021,Townhouse,7856 Oyster Shell Ct,Stoney Beach,MD,21226,290000,3,3.0,STONEY BEACH,1806,,1994,293,161,150,Sold,,,https://www.redfin.com/MD/Stoney-Beach/7856-Oyster-Shell-Ct-21226/unit-T/home/10298467,BRIGHT MLS,MDAA455616,N,Y,39.1727741,-76.5191968
PAST SALE,March-27-2020,Single Family Residential,312 Carvel Beach Rd,Carvel Beach,MD,21226,465000,3,1.5,CARVEL BEACH,1162,17972,1940,618,400,,Sold,,,https://www.redfin.com/MD/Chestnut-Hill-Cove/312-Carvel-Beach-Rd-21226/home/10197348,BRIGHT MLS,MDAA425222,N,Y,39.164993,-76.5375704
PAST SALE,July-16-2021,Townhouse,7896 Seaside Ct,Stoney Beach,MD,21226,306000,3,2.5,STONEY BEACH,1554,606,1996,142,197,155,Sold,,,https://www.redfin.com/MD/Curtis-Bay/7896-Seaside-Ct-21226/home/10298607,BRIGHT MLS,MDAA465212,N,Y,39.1737126,-76.51949
PAST SALE,October-5-2020,Townhouse,1363 Stoneleigh Ct,Stoney Beach,MD,21226,305000,4,3.5,STONEY BEACH,1742,,1997,426,175,155,Sold,,,https://www.redfin.com/MD/Curtis-Bay/1363-Stoneleigh-Ct-21226/home/10298505,BRIGHT MLS,MDAA443554,N,Y,39.171808,-76.519218
PAST SALE,June-2-2021,Townhouse,1355 Waterway Ct,Stoney Beach,MD,21226,385000,4,3.5,AA COUNTY,2082,,1997,186,185,155,Sold,,,https://www.redfin.com/MD/Curtis-Bay/1355-Waterway-Ct-21226/home/10298672,BRIGHT MLS,MDAA457234,N,Y,39.171227,-76.518702
PAST SALE,May-20-2019,Townhouse,1383 Stoneleigh Ct #207,Stoney Beach,MD,21226,260000,4,3.0,STONEY BEACH,1800,634,1998,930,144,135,Sold,,,https://www.redfin.com/MD/Curtis-Bay/1383-Stoneleigh-Ct-21226/unit-207/home/10298692,BRIGHT MLS,MDAA377210,N,Y,39.172215,-76.518604
PAST SALE,October-27-2020,Townhouse,1377 Stoneleigh Ct #210,Stoney Beach,MD,21226,300000,4,3.5,STONEY BEACH,1800,,1998,404,167,155,Sold,,,https://www.redfin.com/MD/Curtis-Bay/1377-Stoneleigh-Ct-21226/unit-210/home/10298701,BRIGHT MLS,MDAA441202,N,Y,39.1722434,-76.5188989
PAST SALE,July-28-2020,Townhouse,7953 River Rock Way,Stoney Beach,MD,21226,350000,3,2.5,STONEY BEACH,2014,,2000,495,174,155,Sold,,,https://www.redfin.com/MD/Curtis-Bay/7953-River-Rock-Way-21226/home/10298789,BRIGHT MLS,MDAA437196,N,Y,39.174767,-76.519773
PAST SALE,August-19-2020,Townhouse,7901 River Rock Way,Stoney Beach,MD,21226,330000,3,3.5,STONEY BEACH,1934,1280,2000,473,171,155,Sold,,,https://www.redfin.com/MD/Curtis-Bay/7901-River-Rock-Way-21226/home/10472481,BRIGHT MLS,MDAA439510,N,Y,39.1737894,-76.5187209
PAST SALE,,Condo/Co-op,7939 River Rock Way,Curtis Bay,MD,21226,330000,,2.5,,1822,,1998,,181,,,,,https://www.redfin.com/MD/Curtis-Bay/7939-River-Rock-Way-21226/home/10298736,,,N,Y,39.174403,-76.5193819
PAST SALE,,Single Family Residential,7919 W End Dr,Orchard Beach,MD,21226,375000,,2.5,,1584,5152,2016,,237,,,,,https://www.redfin.com/MD/Orchard-Beach/7919-W-End-Dr-21226/home/10269014,,,N,Y,39.169827,-76.52589
PAST SALE,February-28-2020,Townhouse,7977 River Rock Way,Stoney Beach,MD,21226,280000,4,2.5,STONEY BEACH,2002,,2000,646,140,155,Sold,,,https://www.redfin.com/MD/Curtis-Bay/7977-River-Rock-Way-21226/home/10470663,BRIGHT MLS,MDAA420236,N,Y,39.174414,-76.5200151
PAST SALE,July-27-2021,Townhouse,1104 Veranda Ct,Chestnut Hill Cove,MD,21226,268000,3,3.5,CHESTNUT HILL COVE,1750,2000,1990,131,153,65,Sold,,,https://www.redfin.com/MD/Chestnut-Hill-Cove/1104-Veranda-Ct-21226/home/10213126,BRIGHT MLS,MDAA2002240,N,Y,39.1675759,-76.5431459
PAST SALE,September-17-2021,Townhouse,1444 Stoney Point Way,Stoney Beach,MD,21226,300000,3,2.5,STONEY BEACH,1594,,1994,79,188,155,Sold,,,https://www.redfin.com/MD/Curtis-Bay/1444-Stoney-Point-Way-21226/home/10298443,BRIGHT MLS,MDAA2006650,N,Y,39.172704,-76.520177
PAST SALE,June-12-2019,Vacant Land,1381 Hilltop Rd,Baltimore,MD,21226,105000,,,Baltimore,,60113,,907,,,Sold,,,https://www.redfin.com/MD/Baltimore/1381-Hilltop-Rd-21226/home/10481760,BRIGHT MLS,MDAA303512,N,Y,39.1716018,-76.5172274
PAST SALE,,Townhouse,1600 Popland St,Baltimore,MD,21226,62500,,2.0,,1286,2372,1943,,49,,,,,https://www.redfin.com/MD/Baltimore/1600-Popland-St-21226/home/11059030,,,N,Y,39.229361,-76.588335
PAST SALE,March-19-2021,Single Family Residential,141 Greenland Beach Rd,Greenland Beach,MD,21226,370000,4,3.5,GREENLAND BEACH,2016,10790,1994,261,184,,Sold,,,https://www.redfin.com/MD/Orchard-Beach/141-Greenland-Beach-Rd-21226/home/10246816,BRIGHT MLS,MDAA458442,N,Y,39.1662135,-76.530379
PAST SALE,February-19-2021,Single Family Residential,8112 Edgewater Rd,Clearwater Beach,MD,21226,320000,3,2.0,CLEARWATER BEACH,1128,6250,1964,289,284,,Sold,,,https://www.redfin.com/MD/Orchard-Beach/8112-Edgewater-Rd-21226/home/10216107,BRIGHT MLS,MDAA457790,N,Y,39.1684089,-76.5274869
PAST SALE,March-31-2020,Single Family Residential,1506 Cypress St,Baltimore City,MD,21226,134000,3,1.5,Ward 25,1312,2200,1920,614,102,,Sold,,,https://www.redfin.com/MD/Baltimore/1506-Cypress-St-21226/home/12107210,BRIGHT MLS,MDBA493674,N,Y,39.2238344,-76.5893502
PAST SALE,April-9-2021,Vacant Land,7928 Chesapeake Dr,Baltimore,MD,21226,75000,,,ORCHARD BEACH,,4000,,240,,,Sold,,,https://www.redfin.com/MD/Orchard-Beach/7928-Chesapeake-Dr-21226/home/10268999,BRIGHT MLS,MDAA444640,N,Y,39.170752,-76.524214
PAST SALE,September-16-2021,Single Family Residential,7929 Chesapeake Dr,Orchard Beach,MD,21226,230000,2,1.0,ORCHARD BEACH,640,4000,1980,80,359,,Sold,,,https://www.redfin.com/MD/Orchard-Beach/7929-Chesapeake-Dr-21226/home/10269197,BRIGHT MLS,MDAA2003944,N,Y,39.170853,-76.52372
PAST SALE,July-23-2019,Townhouse,1210 Swanhill Ct,Chestnut Hill Cove,MD,21226,240000,3,2.0,CHESTNUT HILL COVE,1720,2000,1990,866,140,63,Sold,,,https://www.redfin.com/MD/Chestnut-Hill-Cove/1210-Swanhill-Ct-21226/home/10213039,BRIGHT MLS,MDAA405024,N,Y,39.166298,-76.543311
PAST SALE,September-30-2021,Townhouse,1313 Creekland Ct,Stoney Beach,MD,21226,260000,2,1.5,STONEY BEACH,1426,551,1989,66,182,11,Sold,,,https://www.redfin.com/MD/Curtis-Bay/1313-Creekland-Ct-21226/home/10297855,BRIGHT MLS,MDAA2006662,N,Y,39.172148,-76.522644
PAST SALE,September-26-2019,Single Family Residential,1514 Cypress St,Baltimore City,MD,21226,50000,2,2.0,CURTIS BAY,936,1999,1920,801,53,,Sold,,,https://www.redfin.com/MD/Baltimore/1514-Cypress-St-21226/home/11056573,BRIGHT MLS,MDBA478672,N,Y,39.223928,-76.588953
PAST SALE,August-27-2021,Townhouse,3902 Pennington Ave,Baltimore City,MD,21226,75000,3,1.0,Ward 25,1040,,1920,100,72,,Sold,,,https://www.redfin.com/MD/Baltimore/3902-Pennington-Ave-21226/home/11059112,BRIGHT MLS,MDBA2002238,N,Y,39.2297323,-76.5890404
PAST SALE,February-8-2021,Townhouse,7784 Cox Point Ct,Stoney Beach,MD,21226,300000,3,3.0,STONEY BEACH,1614,661,1993,300,186,155,Sold,,,https://www.redfin.com/MD/Curtis-Bay/7784-Cox-Point-Ct-21226/home/10298345,BRIGHT MLS,MDAA455212,N,Y,39.17331,-76.523939
PAST SALE,December-17-2020,Townhouse,1400 Cox Landing Ct,Stoney Beach,MD,21226,285000,3,3.0,STONEY BEACH,1554,608,1990,353,183,155,Sold,,,https://www.redfin.com/MD/Curtis-Bay/1400-Cox-Cove-Ct-21226/home/10297930,BRIGHT MLS,MDAA451662,N,Y,39.17416,-76.5214979
PAST SALE,October-20-2021,Single Family Residential,7905 West End Dr,Pasadena,MD,21122,371649,3,2.5,ORCHARD BEACH,1500,2430,2021,46,248,,Sold,,,https://www.redfin.com/MD/Pasadena/7905-West-End-DR-21122/home/174336620,BRIGHT MLS,MDAA458248,N,Y,39.17041668,-76.52627283
PAST SALE,June-23-2021,Single Family Residential,211 Green Ridge Ln,Glen Burnie,MD,21060,455465,4,2.0,GREEN RIDGE MANOR,1660,4050,2021,165,274,50,Sold,,,https://www.redfin.com/MD/Glen-Burnie/211-Ridge-Rd-21060/home/174504379,BRIGHT MLS,MDAA2000092,N,Y,39.18503001,-76.5530418
PAST SALE,,Townhouse,4721 Pennington Ave,Baltimore,MD,21226,44000,,1.0,,1092,1148,1920,,40,,,,,https://www.redfin.com/MD/Baltimore/4721-Pennington-Ave-21226/home/11056101,,,N,Y,39.223285,-76.5880169
PAST SALE,,Townhouse,7152 Gardenview Ct,Chestnut Hill Cove,MD,21226,280000,,2.5,,1720,2000,1988,,163,,,,,https://www.redfin.com/MD/Chestnut-Hill-Cove/7152-Gardenview-Ct-21226/home/10212636,,,N,Y,39.16612,-76.5387401
PAST SALE,August-13-2020,Townhouse,1030 Arborwood Pl,Chestnut Hill Cove,MD,21226,276900,3,2.5,CHESTNUT HILL COVE,1552,2000,1991,479,178,63,Sold,,,https://www.redfin.com/MD/Chestnut-Hill-Cove/1030-Arborwood-Pl-21226/home/10213177,BRIGHT MLS,MDAA433936,N,Y,39.1678,-76.543959
PAST SALE,September-4-2020,Single Family Residential,706 Fernhill Rd,Clearwater Beach,MD,21226,245000,3,1.0,CLEARWATER BEACH,1250,6250,1960,457,196,,Sold,,,https://www.redfin.com/MD/Orchard-Beach/706-Fernhill-Rd-21226/home/10216209,BRIGHT MLS,MDAA440036,N,Y,39.169239,-76.528348
PAST SALE,April-2-2021,Townhouse,1385 Stoneleigh Ct #206,Stoney Beach,MD,21226,306000,4,2.5,STONEY BEACH,1860,,1998,247,165,155,Sold,,,https://www.redfin.com/MD/Curtis-Bay/1385-Stoneleigh-Ct-21226/unit-206/home/10298690,BRIGHT MLS,MDAA456786,N,Y,39.172215,-76.518604
PAST SALE,May-20-2021,Townhouse,7889 Beachland Ct,Stoney Beach,MD,21226,260000,3,1.5,STONEY BEACH,1240,,1993,199,210,155,Sold,,,https://www.redfin.com/MD/Curtis-Bay/7889-Beachland-Ct-21226/unit-284/home/10298228,BRIGHT MLS,MDAA465046,N,Y,39.173826,-76.520211
PAST SALE,January-8-2021,Single Family Residential,141 Carvel Beach Rd,Carvel Beach,MD,21226,645000,4,3.5,CARVEL BEACH,3261,22785,2006,331,198,,Sold,,,https://www.redfin.com/MD/Chestnut-Hill-Cove/141-Carvel-Beach-Rd-21226/home/10197586,BRIGHT MLS,MDAA438578,N,Y,39.1684172,-76.5357775
PAST SALE,August-30-2021,Townhouse,7850 Oyster Shell Ct,Stoney Beach,MD,21226,290000,3,2.5,STONEY BEACH,1613,646,1994,97,180,155,Sold,,,https://www.redfin.com/MD/Riviera-Beach/7850-Oyster-Shell-Ct-21226/home/10298456,BRIGHT MLS,MDAA2003182,N,Y,39.1731938,-76.5197017
PAST SALE,,Townhouse,1124 Veranda Ct,Chestnut Hill Cove,MD,21226,265000,,2.5,,1732,3800,1990,,153,,,,,https://www.redfin.com/MD/Chestnut-Hill-Cove/1124-Veranda-Ct-21226/home/10213065,,,N,Y,39.166875,-76.5437929
PAST SALE,November-18-2021,Single Family Residential,215 Greenland Beach Rd,Greenland Beach,MD,21226,511500,5,3.5,GREENLAND BEACH,2034,7500,2016,17,251,,Sold,,,https://www.redfin.com/MD/Chestnut-Hill-Cove/215-Greenland-Beach-Rd-21226/home/10246868,BRIGHT MLS,MDAA468610,N,Y,39.164615,-76.530398
PAST SALE,March-12-2019,Single Family Residential,709 Waterview Dr,Orchard Beach,MD,21226,210000,3,1.0,CLEARWATER BEACH,1080,6229,1966,999,194,,Sold,,,https://www.redfin.com/MD/Orchard-Beach/709-Waterview-Dr-21226/home/10216382,BRIGHT MLS,MDAA374806,N,Y,39.1702337,-76.5295717
PAST SALE,May-16-2019,Single Family Residential,1120 Hilltop Rd,Baltimore,MD,21226,283000,3,3.5,ORCHARD BEACH,1778,3500,2013,934,159,,Sold,,,https://www.redfin.com/MD/Pasadena/1120-Hilltop-Rd-21226/home/10269389,BRIGHT MLS,MDAA375886,N,Y,39.1717054,-76.5254388
PAST SALE,September-28-2021,Single Family Residential,823 Hilltop Rd,Orchard Beach,MD,21226,440000,5,3.0,CLEARWATER BEACH,2288,17192,1951,68,192,,Sold,,,https://www.redfin.com/MD/Orchard-Beach/823-Hilltop-Rd-21226/home/10216456,BRIGHT MLS,MDAA2006962,N,Y,39.1697749,-76.5282426
PAST SALE,,Townhouse,1624 Plum St,Baltimore,MD,21226,120000,,3.0,,1442,1775,1943,,83,,,,,https://www.redfin.com/MD/Baltimore/1624-Plum-St-21226/home/11058959,,,N,Y,39.2286192,-76.5874491
PAST SALE,November-26-2021,Townhouse,1312 Creekland Ct,Stoney Beach,MD,21226,315000,3,3.0,STONEY BEACH,1834,646,1990,9,172,155,Sold,,,https://www.redfin.com/MD/Curtis-Bay/1312-Creekland-Ct-21226/home/10297895,BRIGHT MLS,MDAA2000551,N,Y,39.172357,-76.522994
PAST SALE,February-12-2020,Single Family Residential,197 Greenland Beach Rd,Greenland Beach,MD,21226,255000,6,2.0,GREENLAND BEACH,3128,13350,1978,662,82,,Sold,,,https://www.redfin.com/MD/Chestnut-Hill-Cove/197-Greenland-Beach-Rd-21226/home/10246821,BRIGHT MLS,MDAA418420,N,Y,39.1659182,-76.5300528
PAST SALE,September-30-2021,Townhouse,1326 Cox Cove Ct,Stoney Beach,MD,21226,330000,3,2.5,STONEY BEACH,1720,603,1991,66,192,155,Sold,,,https://www.redfin.com/MD/Curtis-Bay/1326-Cox-Cove-Ct-21226/home/10298008,BRIGHT MLS,MDAA2004288,N,Y,39.173929,-76.524144
PAST SALE,July-13-2020,Townhouse,1128 Veranda Ct,Chestnut Hill Cove,MD,21226,260000,2,3.5,CHESTNUT HILL COVE,1732,2000,1990,510,150,63,Sold,,,https://www.redfin.com/MD/Chestnut-Hill-Cove/1128-Veranda-Ct-21226/home/10213070,BRIGHT MLS,MDAA436414,N,Y,39.16679,-76.54366
PAST SALE,June-15-2020,Townhouse,1532 Stoney Beach Way,Stoney Beach,MD,21226,264900,3,2.5,STONEY BEACH,2000,608,1992,538,132,155,Sold,,,https://www.redfin.com/MD/Curtis-Bay/1532-Stoney-Beach-Way-21226/home/10298034,BRIGHT MLS,MDAA429592,N,Y,39.1726934,-76.5212636
PAST SALE,October-29-2021,Townhouse,1315 Waterway Ct,Stoney Beach,MD,21226,310000,4,3.0,STONEY BEACH,1902,,1994,37,163,155,Sold,,,https://www.redfin.com/MD/Curtis-Bay/1315-Waterway-Ct-21226/unit-133/home/10298372,BRIGHT MLS,MDAA2013278,N,Y,39.17121,-76.520005
PAST SALE,December-3-2020,Single Family Residential,142 Greenland Beach Rd,Greenland Beach,MD,21226,790000,4,3.5,GREENLAND BEACH,4577,14070,2013,367,173,,Sold,,,https://www.redfin.com/MD/Chestnut-Hill-Cove/142-Greenland-Beach-Rd-21226/home/10246795,BRIGHT MLS,MDAA449850,N,Y,39.165926,-76.530951
PAST SALE,December-6-2019,Townhouse,1357 Triwater Ct,Stoney Beach,MD,21226,325000,4,2.5,STONEY BEACH,1974,,1993,730,165,234,Sold,,,https://www.redfin.com/MD/Curtis-Bay/1357-Triwater-Ct-21226/unit-157/home/10298200,BRIGHT MLS,MDAA409214,N,Y,39.1717701,-76.5180693
PAST SALE,April-26-2019,Single Family Residential,7920 W End Dr,Orchard Beach,MD,21226,256000,3,2.0,ORCHARD BEACH,1200,5000,1940,954,213,,Sold,,,https://www.redfin.com/MD/Orchard-Beach/7920-W-End-Dr-21226/home/10269151,BRIGHT MLS,MDAA376798,N,Y,39.1696381,-76.5263105
PAST SALE,May-15-2020,Single Family Residential,7903 W End Dr,Orchard Beach,MD,21226,210000,2,1.5,ORCHARD BEACH,980,8709,1940,569,214,,Sold,,,https://www.redfin.com/MD/Orchard-Beach/7903-W-End-Dr-21226/home/10269185,BRIGHT MLS,MDAA407060,N,Y,39.1705253,-76.5262252
PAST SALE,July-9-2021,Townhouse,1352 Waterway Ct,Stoney Beach,MD,21226,315000,3,3.0,STONEY BEACH,1634,,1994,149,193,155,Sold,,,https://www.redfin.com/MD/Curtis-Bay/1352-Waterway-Ct-21226/home/10298433,BRIGHT MLS,MDAA469728,N,Y,39.1716031,-76.5190577
PAST SALE,September-15-2020,Single Family Residential,160 Carvel Beach Rd,Carvel Beach,MD,21226,426000,4,2.5,CARVEL BEACH,1888,8350,2015,446,226,,Sold,,,https://www.redfin.com/MD/Curtis-Bay/160-Carvel-Beach-Rd-21226/home/10197531,BRIGHT MLS,MDAA438388,N,Y,39.1671954,-76.5361108
PAST SALE,November-30-2021,Vacant Land,1501 Church St,Baltimore City,MD,21226,75000,,,Ward 25,,40511,,5,,,Sold,,,https://www.redfin.com/MD/Baltimore/1501-Church-St-21226/home/144914027,BRIGHT MLS,MDBA2002580,N,Y,39.2224475,-76.5894128
PAST SALE,May-11-2021,Townhouse,1462 Stoney Point Way,Stoney Beach,MD,21226,300000,3,2.5,STONEY BEACH,1846,604,1994,208,163,155,Sold,,,https://www.redfin.com/MD/Curtis-Bay/1462-Stoney-Point-Way-21226/home/10298411,BRIGHT MLS,MDAA463288,N,Y,39.172301,-76.519788
PAST SALE,July-24-2020,Townhouse,981 Chestnut Manor Ct,Chestnut Hill Cove,MD,21226,280000,3,2.5,CHESTNUT HILL COVE,1548,2000,1996,499,181,63,Sold,,,https://www.redfin.com/MD/Chestnut-Hill-Cove/981-Chestnut-Manor-Ct-21226/home/10213598,BRIGHT MLS,MDAA435082,N,Y,39.169615,-76.540548
PAST SALE,July-10-2019,Townhouse,1452 Stoney Point Way,Stoney Beach,MD,21226,265000,3,2.5,STONEY BEACH,1554,646,1994,879,171,135,Sold,,,https://www.redfin.com/MD/Curtis-Bay/1452-Stoney-Point-Way-21226/home/10298455,BRIGHT MLS,MDAA401872,N,Y,39.172704,-76.520177
PAST SALE,August-16-2021,Townhouse,1615 Cypress St,Baltimore City,MD,21226,52800,3,2.0,Ward 25,1800,,1920,111,29,,Sold,,,https://www.redfin.com/MD/Baltimore/1615-Cypress-St-21226/home/11056155,BRIGHT MLS,MDBA542128,N,Y,39.2236846,-76.5875127
PAST SALE,May-6-2019,Townhouse,4813 Pennington Ave,Baltimore City,MD,21226,8400,3,1.0,CURTIS BAY,1226,1148,1920,944,7,,Sold,,,https://www.redfin.com/MD/Baltimore/4813-Pennington-Ave-21226/home/11060522,BRIGHT MLS,MDBA399620,N,Y,39.222664,-76.587961
PAST SALE,,Other,4904 Curtis Ave,Baltimore,MD,21226,55000,,,,2349,1305,1900,,23,,,,,https://www.redfin.com/MD/Baltimore/4904-Curtis-Ave-21226/home/18837468,,,N,Y,39.2220853,-76.5867381
PAST SALE,April-5-2019,Townhouse,4527 Pennington Ave,Baltimore City,MD,21226,28000,2,1.0,CURTIS BAY,832,,1920,975,34,,Sold,,,https://www.redfin.com/MD/Baltimore/4527-Pennington-Ave-21226/home/11056786,BRIGHT MLS,MDBA437736,N,Y,39.224678,-76.58815
PAST SALE,June-30-2019,Townhouse,3813 Pascal Ave,Baltimore City,MD,21226,21000,2,2.0,Baltimore City,1116,,1944,889,19,,Sold,,,https://www.redfin.com/MD/Baltimore/3813-Pascal-Ave-21226/home/11058596,BRIGHT MLS,MDBA468606,N,Y,39.2301009,-76.5911665
PAST SALE,,Townhouse,3814 Pennington Ave,Baltimore,MD,21226,65000,,1.0,,960,1360,1926,,68,,,,,https://www.redfin.com/MD/Baltimore/3814-Pennington-Ave-21226/home/11059200,,,N,Y,39.2302413,-76.5891307
PAST SALE,August-31-2020,Townhouse,7895 Beachland Ct,Stoney Beach,MD,21226,237000,3,1.5,STONEY BEACH,1254,,1993,461,189,155,Sold,,,https://www.redfin.com/MD/Curtis-Bay/7895-Beachland-Ct-21226/home/10298222,BRIGHT MLS,MDAA440390,N,Y,39.173826,-76.520211
PAST SALE,November-13-2020,Single Family Residential,208 Greenland Beach Rd,Greenland Beach,MD,21226,579900,3,3.0,GREENLAND BEACH,1864,12860,1998,387,311,,Sold,,,https://www.redfin.com/MD/Chestnut-Hill-Cove/208-Greenland-Beach-Rd-21226/home/10246908,BRIGHT MLS,MDAA443864,N,Y,39.165117,-76.531048
PAST SALE,April-18-2019,Townhouse,1350 Riverwood Way,Stoney Beach,MD,21226,244000,3,2.5,STONEY BEACH,1552,607,1990,962,157,135,Sold,,,https://www.redfin.com/MD/Curtis-Bay/1350-Riverwood-Way-21226/home/10297704,BRIGHT MLS,MDAA335394,N,Y,39.1748,-76.5210309
PAST SALE,June-24-2020,Townhouse,1404 River Mist Ct,Stoney Beach,MD,21226,350000,5,3.0,STONEY BEACH,1614,646,1992,529,217,155,Sold,,,https://www.redfin.com/MD/Stoney-Beach/1404-River-Mist-Ct-21226/home/10297998,BRIGHT MLS,MDAA434098,N,Y,39.1724854,-76.5175131
PAST SALE,April-17-2020,Townhouse,1359 River Bank Ct,Stoney Beach,MD,21226,305000,3,3.0,STONEY BEACH,1742,684,1999,597,175,135,Sold,,,https://www.redfin.com/MD/Curtis-Bay/1359-River-Bank-Ct-21226/home/10298755,BRIGHT MLS,MDAA423336,N,Y,39.173221,-76.5183349
PAST SALE,January-25-2021,Townhouse,1360 River Bank Ct,Stoney Beach,MD,21226,313000,3,2.5,STONEY BEACH,1912,,1999,314,164,155,Sold,,,https://www.redfin.com/MD/Curtis-Bay/1360-River-Bank-Ct-21226/home/10298774,BRIGHT MLS,MDAA451810,N,Y,39.1735789,-76.518561
PAST SALE,April-9-2019,Townhouse,7894 Seaside Ct,Stoney Beach,MD,21226,237400,3,2.5,STONEY BEACH,1454,557,1996,971,163,135,Sold,,,https://www.redfin.com/MD/Curtis-Bay/7894-Seaside-Ct-21226/home/10298606,BRIGHT MLS,MDAA375708,N,Y,39.173585,-76.519696
PAST SALE,August-25-2020,Townhouse,1610 Cereal St,Baltimore City,MD,21226,36000,3,1.0,Ward 25,668,700,1920,467,54,,Sold,,,https://www.redfin.com/MD/Baltimore/1610-Cereal-St-21226/home/11060089,BRIGHT MLS,MDBA515790,N,Y,39.2218454,-76.587415
PAST SALE,January-21-2019,Single Family Residential,1649 Ceddox St,Baltimore,MD,21226,43500,5,2.0,CURTIS BAY,2360,,1900,1049,18,,Sold,,,https://www.redfin.com/MD/Baltimore/1649-Ceddox-St-21226/home/11060048,BRIGHT MLS,1001801604,N,Y,39.2211009,-76.586669
PAST SALE,November-19-2020,Townhouse,1617 Cereal St,Baltimore City,MD,21226,25000,3,1.0,Ward 25,840,840,1900,381,30,,Sold,,,https://www.redfin.com/MD/Baltimore/1617-Cereal-St-21226/home/11060212,BRIGHT MLS,MDBA527946,N,Y,39.2216126,-76.5872423
PAST SALE,December-11-2018,Townhouse,1626 Cereal St,Baltimore,MD,21226,9000,2,1.0,CURTIS BAY,986,871,1920,1090,9,,Sold,,,https://www.redfin.com/MD/Baltimore/1626-Cereal-St-21226/home/11060054,BRIGHT MLS,MDBA102132,N,Y,39.2218576,-76.587009
PAST SALE,November-25-2019,Townhouse,1625 Cereal St,Baltimore City,MD,21226,34900,3,1.5,CURTIS BAY,1200,750,1900,741,29,,Sold,,,https://www.redfin.com/MD/Baltimore/1625-Cereal-St-21226/home/11060225,BRIGHT MLS,MDBA481026,N,Y,39.2216835,-76.5870541
PAST SALE,February-19-2021,Townhouse,1600 Cereal St,Baltimore City,MD,21226,44000,2,1.5,Ward 25,960,960,1920,289,46,,Sold,,,https://www.redfin.com/MD/Baltimore/1600-Cereal-St-21226/home/11060102,BRIGHT MLS,MDBA535400,N,Y,39.2218207,-76.5876297
PAST SALE,April-30-2021,Townhouse,4912 Pennington Ave,Baltimore City,MD,21226,85000,3,2.0,Ward 25,1402,1742,1900,219,61,,Sold,,,https://www.redfin.com/MD/Baltimore/4912-Pennington-Ave-21226/home/11060253,BRIGHT MLS,MDBA546512,N,Y,39.2218432,-76.5884221
PAST SALE,May-31-2019,Townhouse,4918 Pennington Ave,Baltimore City,MD,21226,19900,3,1.0,Baltimore City,1240,,1900,919,16,,Sold,,,https://www.redfin.com/MD/Baltimore/4918-Pennington-Ave-21226/home/11060257,BRIGHT MLS,MDBA303382,N,Y,39.2217367,-76.5883633
PAST SALE,,Townhouse,1406 Filbert St,Baltimore,MD,21226,52000,,2.0,,1400,1742,1944,,37,,,,,https://www.redfin.com/MD/Baltimore/1406-Filbert-St-21226/home/11056388,,,N,Y,39.225308,-76.5911959
PAST SALE,,Townhouse,1609 Church St,Baltimore,MD,21226,62050,,1.0,,1302,1400,1920,,48,,,,,https://www.redfin.com/MD/Baltimore/1609-Church-St-21226/home/11060549,,,N,Y,39.2228687,-76.5876408
PAST SALE,December-17-2018,Townhouse,1606 Church St,Baltimore City,MD,21226,16000,3,1.0,BALTIMORE CITY,,,1920,1084,,,Sold,,,https://www.redfin.com/MD/Baltimore/1606-Church-St-21226/home/11056072,BRIGHT MLS,1007810332,N,Y,39.2232159,-76.5876781
PAST SALE,April-30-2019,Single Family Residential,1405 Church St,Baltimore City,MD,21226,80000,3,2.0,Baltimore City,2074,10500,1930,950,39,,Sold,,,https://www.redfin.com/MD/Baltimore/1405-Church-St-21226/home/11060418,BRIGHT MLS,MDBA440138,N,Y,39.2226441,-76.5909251
PAST SALE,March-28-2019,Townhouse,1626 Cherry St,Baltimore,MD,21226,30000,3,2.0,CURTIS BAY,1080,,1920,983,28,,Sold,,,https://www.redfin.com/MD/Baltimore/1626-Cherry-St-21226/home/11060455,BRIGHT MLS,1002299740,N,Y,39.2224492,-76.5871216
PAST SALE,August-15-2019,Townhouse,1610 Cherry St,Baltimore City,MD,21226,25501,2,1.0,CURTIS BAY,1080,871,1920,843,24,,Sold,,,https://www.redfin.com/MD/Baltimore/1610-Cherry-St-21226/home/11060471,BRIGHT MLS,MDBA476542,N,Y,39.2224168,-76.5875281
PAST SALE,,Townhouse,1621 Church St,Baltimore,MD,21226,35000,,1.0,,1190,1400,1920,,29,,,,,https://www.redfin.com/MD/Baltimore/1621-Church-St-21226/home/11060562,,,N,Y,39.2228744,-76.5873475
PAST SALE,,Townhouse,1629 Church St,Baltimore,MD,21226,85350,,2.5,,1804,1400,1920,,47,,,,,https://www.redfin.com/MD/Baltimore/1629-Church-St-21226/home/11060569,,,N,Y,39.2228793,-76.587133
PAST SALE,,Townhouse,1425 Filbert St,Baltimore,MD,21226,123000,,2.0,,1428,2100,1944,,86,,,,,https://www.redfin.com/MD/Baltimore/1425-Filbert-St-21226/home/11056439,,,N,Y,39.2249791,-76.5904285
